timestamp,timestamp_sample,latitude_deg,longitude_deg,altitude_msl_m,altitude_ellipsoid_m,time_utc_usec,device_id,s_variance_m_s,c_variance_rad,eph,epv,hdop,vdop,noise_per_ms,jamming_indicator,vel_m_s,vel_n_m_s,vel_e_m_s,vel_d_m_s,cog_rad,timestamp_time_relative,heading,heading_offset,heading_accuracy,rtcm_injection_rate,automatic_gain_control,fix_type,jamming_state,spoofing_state,vel_ned_valid,satellites_used,selected_rtcm_instance,rtcm_crc_failed,rtcm_msg_used
42060728,0,37.455942799999995,126.954191,162.447,180.904,1725533681000165,11141125,0.14600001,3.1415925,0.509,0.94400007,0.57,0.88,68,5,0.014,-0.011000001,-0.009000001,-0.003,0.0,0,nan,0.0,0.0,0.0,0,3,1,1,1,30,0,0,0
42250739,0,37.455942799999995,126.954191,162.46,180.917,1725533681200165,11141125,0.15200001,3.1415925,0.508,0.94100004,0.57,0.88,68,5,0.025,0.024,-0.004,0.023000002,0.0,0,nan,0.0,0.0,0.0,0,3,1,1,1,30,0,0,0
42349729,0,37.455942799999995,126.95419109999999,162.467,180.924,1725533681300165,11141125,0.13900001,2.5327687,0.507,0.94000006,0.57,0.88,68,5,0.042000003,0.026,0.033,-0.013,0.0,0,nan,0.0,0.0,0.0,0,3,1,1,1,30,0,0,0
42447831,0,37.455942799999995,126.95419109999999,162.473,180.93,1725533681400165,11141125,0.148,3.1415925,0.507,0.93900007,0.57,0.88,68,5,0.003,0.001,-0.003,0.009000001,0.0,0,nan,0.0,0.0,0.0,0,3,1,1,1,30,0,0,0
42547714,0,37.4559427,126.95419109999999,162.483,180.94,1725533681500165,11141125,0.163,3.1415925,0.50600004,0.938,0.57,0.88,68,5,0.016,0.015000001,-0.006,0.027,0.0,0,nan,0.0,0.0,0.0,0,3,1,1,1,30,0,0,0
42647715,0,37.4559427,126.954191,162.488,180.945,1725533681600164,11141125,0.147,3.1415925,0.50600004,0.93700004,0.57,0.88,68,5,0.020000001,-0.014,-0.014,-0.0050000004,0.0,0,nan,0.0,0.0,0.0,0,3,1,1,1,30,0,0,0
42746717,0,37.4559427,126.954191,162.49,180.947,1725533681700164,11141125,0.171,3.1415925,0.505,0.93600005,0.57,0.88,68,5,0.021000002,0.017,0.011000001,0.044000003,0.0,0,nan,0.0,0.0,0.0,0,3,1,1,1,30,0,0,0
42844715,0,37.4559427,126.954191,162.498,180.955,1725533681800164,11141125,0.12200001,3.1415925,0.505,0.93500006,0.57,0.88,68,6,0.018000001,0.009000001,-0.016,-0.008,0.0,0,nan,0.0,0.0,0.0,0,3,1,1,1,30,0,0,0
42943715,0,37.4559426,126.954191,162.506,180.96200000000002,1725533681900164,11141125,0.123,3.1415925,0.504,0.934,0.57,0.88,68,6,0.011000001,-0.006,0.009000001,-0.004,0.0,0,nan,0.0,0.0,0.0,0,3,1,1,1,30,0,0,0
43044714,0,37.4559426,126.954191,162.51,180.967,1725533682000164,11141125,0.163,3.1415925,0.504,0.933,0.57,0.88,68,6,0.0050000004,0.003,-0.004,0.020000001,0.0,0,nan,0.0,0.0,0.0,0,3,1,1,1,30,0,0,0
43144730,0,37.4559426,126.954191,162.519,180.976,1725533682100164,11141125,0.15300001,3.1415925,0.503,0.93200004,0.57,0.88,68,6,0.010000001,0.003,-0.009000001,-0.025,0.0,0,nan,0.0,0.0,0.0,0,3,1,1,1,30,0,0,0
43244795,0,37.4559426,126.954191,162.52100000000002,180.977,1725533682200164,11141125,0.163,3.1415925,0.503,0.93100005,0.57,0.88,68,6,0.029000001,0.008,0.028,0.037,0.0,0,nan,0.0,0.0,0.0,0,3,1,1,1,30,0,0,0
43343715,0,37.4559426,126.954191,162.531,180.987,1725533682300164,11141125,0.115,3.1415925,0.50200003,0.93000007,0.57,0.88,68,6,0.030000001,0.028,-0.012,-0.013,0.0,0,nan,0.0,0.0,0.0,0,3,1,1,1,30,0,0,0
43446924,0,37.4559425,126.954191,162.54,180.997,1725533682400164,11141125,0.14400001,3.1415925,0.50200003,0.929,0.57,0.88,68,6,0.016,0.015000001,0.0050000004,0.0050000004,0.0,0,nan,0.0,0.0,0.0,0,3,1,1,1,30,0,0,0
43546725,0,37.4559425,126.954191,162.542,180.999,1725533682500164,11141125,0.14400001,3.1415925,0.50200003,0.92800003,0.57,0.88,68,6,0.007,0.0,-0.007,0.0,0.0,0,nan,0.0,0.0,0.0,0,3,1,1,1,30,0,0,0
43645003,0,37.4559425,126.954191,162.552,181.00900000000001,1725533682600164,11141125,0.16600001,3.1415925,0.50100005,0.92600006,0.57,0.88,68,6,0.022000002,0.012,0.018000001,0.026,0.0,0,nan,0.0,0.0,0.0,0,3,1,1,1,30,0,0,0
43745715,0,37.4559425,126.954191,162.558,181.01500000000001,1725533682700164,11141125,0.143,1.7324445,0.50100005,0.9250001,0.57,0.88,68,6,0.064,-0.023000002,-0.060000002,-0.006,0.0,0,nan,0.0,0.0,0.0,0,3,1,1,1,30,0,0,0
43844761,0,37.4559425,126.954191,162.562,181.019,1725533682800164,11141125,0.15200001,1.9472729,0.5,0.924,0.57,0.88,68,5,0.055000003,0.026,0.049000002,0.021000002,0.0,0,nan,0.0,0.0,0.0,0,3,1,1,1,30,0,0,0
43937715,0,37.4559424,126.954191,162.568,181.025,1725533682900164,11141125,0.15400001,3.1415925,0.5,0.924,0.57,0.88,68,5,0.019000001,-0.017,-0.008,0.029000001,0.0,0,nan,0.0,0.0,0.0,0,3,1,1,1,30,0,0,0
44051714,0,37.4559424,126.954191,162.56900000000002,181.025,1725533683000164,11141125,0.15300001,3.1415925,0.499,0.92300004,0.57,0.88,68,5,0.016,-0.016,0.003,0.029000001,0.0,0,nan,0.0,0.0,0.0,0,3,1,1,1,30,0,0,0
44152212,0,37.4559424,126.954191,162.579,181.036,1725533683100164,11141125,0.135,3.1415925,0.499,0.92200005,0.57,0.88,68,5,0.030000001,0.029000001,-0.007,0.012,0.0,0,nan,0.0,0.0,0.0,0,3,1,1,1,30,0,0,0
44243714,0,37.4559424,126.95419109999999,162.583,181.04,1725533683200164,11141125,0.14,3.1415925,0.499,0.92100006,0.57,0.88,68,5,0.034,0.003,0.034,-0.014,0.0,0,nan,0.0,0.0,0.0,0,3,1,1,1,30,0,0,0
44344809,0,37.4559423,126.95419109999999,162.596,181.053,1725533683300164,11141125,0.15,3.1415925,0.49800003,0.92,0.57,0.88,68,5,0.033,-0.014,-0.030000001,0.023000002,0.0,0,nan,0.0,0.0,0.0,0,3,1,1,1,30,0,0,0
44445716,0,37.4559423,126.95419109999999,162.605,181.062,1725533683400164,11141125,0.119,3.1415925,0.49800003,0.919,0.57,0.88,68,5,0.021000002,-0.013,0.016,-0.0050000004,0.0,0,nan,0.0,0.0,0.0,0,3,1,1,1,30,0,0,0
44544717,0,37.4559423,126.95419109999999,162.608,181.065,1725533683500164,11141125,0.15300001,3.1415925,0.497,0.91800004,0.57,0.88,68,5,0.021000002,0.020000001,0.004,-0.027,0.0,0,nan,0.0,0.0,0.0,0,3,1,1,1,30,0,0,0
44644714,0,37.4559423,126.95419109999999,162.618,181.074,1725533683600164,11141125,0.143,3.1415925,0.497,0.91800004,0.57,0.88,68,5,0.015000001,-0.003,-0.015000001,-0.001,0.0,0,nan,0.0,0.0,0.0,0,3,1,1,1,30,0,0,0
44745754,0,37.455942199999996,126.95419109999999,162.626,181.083,1725533683700164,11141125,0.16800001,2.6234374,0.497,0.91700006,0.57,0.88,68,5,0.046000004,-0.011000001,-0.045,-0.059000004,0.0,0,nan,0.0,0.0,0.0,0,3,1,1,1,30,0,0,0
44839742,0,37.455942199999996,126.954191,162.642,181.09900000000002,1725533683800164,11141125,0.16700001,3.1415925,0.49600002,0.91600007,0.57,0.88,69,7,0.023000002,0.023000002,-0.002,-0.086,0.0,0,nan,0.0,0.0,0.0,0,3,1,1,1,30,0,0,0
44944715,0,37.455942199999996,126.954191,162.657,181.114,1725533683900164,11141125,0.149,3.0711021,0.49600002,0.915,0.57,0.88,69,7,0.048,0.029000001,-0.039,-0.058000002,0.0,0,nan,0.0,0.0,0.0,0,3,1,1,1,30,0,0,0
45052716,0,37.455942199999996,126.954191,162.665,181.121,1725533684000164,11141125,0.13700001,3.1415925,0.49600002,0.915,0.57,0.88,69,7,0.046000004,0.023000002,-0.040000003,0.027,0.0,0,nan,0.0,0.0,0.0,0,3,1,1,1,30,0,0,0
45147714,0,37.455942199999996,126.954191,162.667,181.124,1725533684100164,11141125,0.16000001,3.1415925,0.49600002,0.91400003,0.57,0.88,69,7,0.031000001,-0.018000001,-0.025,0.038000003,0.0,0,nan,0.0,0.0,0.0,0,3,1,1,1,30,0,0,0
45245158,0,37.455942199999996,126.954191,162.667,181.123,1725533684200164,11141125,0.12900001,3.1415925,0.49500003,0.91300005,0.57,0.88,69,7,0.034,-0.020000001,0.027,0.019000001,0.0,0,nan,0.0,0.0,0.0,0,3,1,1,1,30,0,0,0
45346714,0,37.4559421,126.954191,162.673,181.13,1725533684300164,11141125,0.17,3.1415925,0.49500003,0.91300005,0.57,0.88,69,7,0.019000001,0.019000001,-0.001,-0.079,0.0,0,nan,0.0,0.0,0.0,0,3,1,1,1,30,0,0,0
45443713,0,37.4559421,126.954191,162.69,181.147,1725533684400163,11141125,0.16000001,2.0877104,0.49500003,0.91200006,0.57,0.88,69,7,0.074,-0.05,0.055000003,-0.097,0.0,0,nan,0.0,0.0,0.0,0,3,1,1,1,30,0,0,0
45544716,0,37.455942,126.9541912,162.697,181.153,1725533684500163,11141125,0.128,1.1111717,0.49400002,0.9110001,0.57,0.88,69,7,0.126,-0.023000002,0.124000005,-0.024,0.0,0,nan,0.0,0.0,0.0,0,3,1,1,1,30,0,0,0
45643714,0,37.455942,126.95419129999999,162.707,181.16400000000002,1725533684600163,11141125,0.117000006,0.95196366,0.49400002,0.9110001,0.57,0.88,69,7,0.156,-0.074,0.13700001,0.010000001,0.0,0,nan,0.0,0.0,0.0,0,3,1,1,1,30,0,0,0
45737714,0,37.4559419,126.9541915,162.713,181.17000000000002,1725533684700163,11141125,0.133,0.911572,0.49400002,0.91,0.57,0.88,69,7,0.158,-0.046000004,0.15100001,0.069000006,0.0,0,nan,0.0,0.0,0.0,0,3,1,1,1,30,0,0,0
45844066,0,37.4559418,126.9541917,162.727,181.184,1725533684800163,11141125,0.120000005,0.7484699,0.49400002,0.91,0.57,0.88,73,7,0.19900002,-0.085,0.18,0.032,2.0101702,0,nan,0.0,0.0,0.0,0,3,1,1,1,30,0,0,0
45943974,0,37.4559417,126.9541919,162.73,181.186,1725533684900163,11141125,0.120000005,0.5403663,0.49300003,0.90900004,0.57,0.88,73,7,0.27400002,-0.10700001,0.25300002,-0.011000001,1.9715427,0,nan,0.0,0.0,0.0,0,3,1,1,1,30,0,0,0
46052714,0,37.4559415,126.9541922,162.734,181.191,1725533685000163,11141125,0.119,0.48224163,0.49300003,0.90800005,0.57,0.88,73,7,0.31300002,-0.16000001,0.26900002,-0.015000001,2.1084063,0,nan,0.0,0.0,0.0,0,3,1,1,1,30,0,0,0
46147738,0,37.4559414,126.9541926,162.738,181.19400000000002,1725533685100163,11141125,0.12200001,0.48198748,0.49300003,0.90800005,0.57,0.88,73,7,0.30600002,-0.119,0.282,-0.045,1.9689302,0,nan,0.0,0.0,0.0,0,3,1,1,1,30,0,0,0
46247715,0,37.4559413,126.9541928,162.754,181.211,1725533685200163,11141125,0.119,0.5798781,0.492,0.90700006,0.57,0.88,73,7,0.256,-0.13000001,0.22000001,-0.047000002,2.1051986,0,nan,0.0,0.0,0.0,0,3,1,1,1,30,0,0,0
46344715,0,37.4559412,126.95419319999999,162.75900000000001,181.216,1725533685300163,11141125,0.124000005,0.46868634,0.492,0.906,0.57,0.88,73,7,0.303,-0.061000004,0.29700002,-0.018000001,1.7732189,0,nan,0.0,0.0,0.0,0,3,1,1,1,30,0,0,0
46445714,0,37.4559411,126.95419349999999,162.772,181.228,1725533685400163,11141125,0.123,0.47903195,0.492,0.906,0.57,0.88,73,7,0.298,-0.075,0.289,0.001,1.8256189,0,nan,0.0,0.0,0.0,0,3,1,1,1,30,0,0,0
46547754,0,37.455940999999996,126.9541938,162.78,181.237,1725533685500163,11141125,0.120000005,0.52005696,0.492,0.90500003,0.57,0.88,73,7,0.279,-0.11000001,0.257,0.016,1.9741656,0,nan,0.0,0.0,0.0,0,3,1,1,1,30,0,0,0
46638713,0,37.4559409,126.9541941,162.776,181.233,1725533685600163,11141125,0.128,0.53641,0.49100003,0.90400004,0.57,0.88,73,7,0.26200002,-0.044000003,0.25800002,0.039,1.741074,0,nan,0.0,0.0,0.0,0,3,1,1,1,30,0,0,0
46747774,0,37.4559408,126.95419439999999,162.79,181.246,1725533685700163,11141125,0.123,0.4625824,0.49100003,0.90400004,0.57,0.88,73,7,0.307,-0.076000005,0.298,0.0050000004,1.8202447,0,nan,0.0,0.0,0.0,0,3,1,1,1,30,0,0,0
46850713,0,37.4559408,126.9541948,162.799,181.256,1725533685800163,11141125,0.12900001,0.39930657,0.49100003,0.90300006,0.57,0.88,73,5,0.33600003,-0.011000001,0.33600003,-0.048,1.6021479,0,nan,0.0,0.0,0.0,0,3,1,1,1,30,0,0,0
46947715,0,37.4559407,126.9541952,162.81900000000002,181.275,1725533685900163,11141125,0.136,0.4052007,0.49,0.90200007,0.57,0.88,73,5,0.323,0.020000001,0.323,-0.128,1.5080978,0,nan,0.0,0.0,0.0,0,3,1,1,1,30,0,0,0
47057963,0,37.4559407,126.9541955,162.848,181.305,1725533686000163,11141125,0.14600001,0.52412707,0.49,0.90200007,0.57,0.88,73,5,0.25500003,-0.015000001,0.25500003,-0.21000001,1.6306816,0,nan,0.0,0.0,0.0,0,3,1,1,1,30,0,0,0
47158715,0,37.4559407,126.9541958,162.87,181.327,1725533686100163,11141125,0.15200001,0.47589803,0.49,0.901,0.57,0.88,73,5,0.275,0.004,0.27400002,-0.266,1.5549699,0,nan,0.0,0.0,0.0,0,3,1,1,1,30,0,0,0
47248714,0,37.4559408,126.9541962,162.903,181.36,1725533686200163,11141125,0.15100001,0.29223233,0.49,0.901,0.57,0.88,73,5,0.407,0.141,0.381,-0.38900003,1.2174684,0,nan,0.0,0.0,0.0,0,3,1,1,1,30,0,0,0
47347715,0,37.4559408,126.9541967,162.968,181.424,1725533686300163,11141125,0.15200001,0.34557483,0.48900002,0.90000004,0.57,0.88,73,5,0.36200002,0.064,0.356,-0.45100003,1.3929328,0,nan,0.0,0.0,0.0,0,3,1,1,1,30,0,0,0
47449714,0,37.4559409,126.954197,163.011,181.46800000000002,1725533686400163,11141125,0.16100001,0.41421443,0.48900002,0.89900005,0.57,0.88,73,5,0.298,0.082,0.286,-0.483,1.2920915,0,nan,0.0,0.0,0.0,0,3,1,1,1,30,0,0,0
47541714,0,37.4559409,126.9541974,163.058,181.51500000000001,1725533686500163,11141125,0.15900001,0.3408462,0.48900002,0.89900005,0.57,0.88,73,5,0.36400002,0.124000005,0.34300002,-0.42000002,1.2230563,0,nan,0.0,0.0,0.0,0,3,1,1,1,30,0,0,0
47646813,0,37.455940999999996,126.95419779999999,163.112,181.568,1725533686600163,11141125,0.156,0.34513065,0.48900002,0.89800006,0.57,0.88,73,5,0.35500002,0.12900001,0.33100003,-0.39100003,1.198906,0,nan,0.0,0.0,0.0,0,3,1,1,1,30,0,0,0
47750714,0,37.4559412,126.9541982,163.16400000000002,181.621,1725533686700163,11141125,0.156,0.26884788,0.48800004,0.89800006,0.57,0.88,73,5,0.44700003,0.20300001,0.39800003,-0.446,1.0986984,0,nan,0.0,0.0,0.0,0,3,1,1,1,30,0,0,0
47849718,0,37.4559413,126.9541986,163.21,181.667,1725533686800163,11141125,0.16900001,0.47251925,0.48800004,0.897,0.57,0.88,73,4,0.24300002,0.156,0.187,-0.48100004,0.87676984,0,nan,0.0,0.0,0.0,0,3,1,1,1,30,0,0,0
47947714,0,37.4559414,126.9541989,163.25,181.70600000000002,1725533686900163,11141125,0.156,0.27988222,0.48800004,0.897,0.57,0.88,73,4,0.439,0.177,0.402,-0.40300003,1.1557556,0,nan,0.0,0.0,0.0,0,3,1,1,1,30,0,0,0
48056768,0,37.455941599999996,126.9541994,163.30700000000002,181.764,1725533687000163,11141125,0.15100001,0.20979066,0.48800004,0.896,0.57,0.88,73,4,0.55300003,0.30900002,0.45900002,-0.404,0.97800237,0,nan,0.0,0.0,0.0,0,3,1,1,1,30,0,0,0
48152714,0,37.4559419,126.9541998,163.356,181.81300000000002,1725533687100163,11141125,0.16800001,0.4388927,0.48700002,0.896,0.57,0.88,73,4,0.27100003,0.23,0.143,-0.509,0.5559481,0,nan,0.0,0.0,0.0,0,3,1,1,1,30,0,0,0
48247715,0,37.4559421,126.9542003,163.417,181.874,1725533687200162,11141125,0.149,0.17343667,0.48700002,0.89500004,0.57,0.88,73,4,0.70400006,0.27600002,0.648,-0.507,1.1680712,0,nan,0.0,0.0,0.0,0,3,1,1,1,30,0,0,0
48347714,0,37.4559423,126.9542008,163.49,181.946,1725533687300162,11141125,0.165,0.27880362,0.48700002,0.89500004,0.57,0.88,73,4,0.43,0.32500002,0.28300002,-0.648,0.7164135,0,nan,0.0,0.0,0.0,0,3,1,1,1,30,0,0,0
48440715,0,37.4559426,126.9542012,163.556,182.013,1725533687400162,11141125,0.16800001,0.2490808,0.48700002,0.89500004,0.57,0.88,73,4,0.48000002,0.312,0.365,-0.74300003,0.8641076,0,nan,0.0,0.0,0.0,0,3,1,1,1,30,0,0,0
48551715,0,37.4559429,126.95420159999999,163.643,182.1,1725533687500162,11141125,0.172,0.2331992,0.48600003,0.89400005,0.57,0.88,73,4,0.51600003,0.36100003,0.37,-0.83100003,0.79762536,0,nan,0.0,0.0,0.0,0,3,1,1,1,30,0,0,0
48649717,0,37.4559431,126.95420209999999,163.748,182.204,1725533687600162,11141125,0.17300001,0.25456536,0.48600003,0.89400005,0.57,0.88,73,4,0.47300002,0.25800002,0.39600003,-0.906,0.99428713,0,nan,0.0,0.0,0.0,0,3,1,1,1,30,0,0,0
48750714,0,37.4559433,126.9542025,163.844,182.3,1725533687700162,11141125,0.177,0.32968065,0.48600003,0.89300007,0.57,0.88,73,4,0.356,0.22200002,0.27800003,-1.0300001,0.8970104,0,nan,0.0,0.0,0.0,0,3,1,1,1,30,0,0,0
48850985,0,37.4559435,126.95420279999999,163.96,182.417,1725533687800162,11141125,0.178,0.27596378,0.48600003,0.89300007,0.57,0.88,73,3,0.425,0.264,0.33400002,-1.088,0.9010323,0,nan,0.0,0.0,0.0,0,3,1,1,1,30,0,0,0
48948715,0,37.4559437,126.9542032,164.071,182.528,1725533687900162,11141125,0.18100001,0.35266227,0.48600003,0.89300007,0.57,0.88,73,3,0.33600003,0.18100001,0.28300002,-1.0830001,1.0023532,0,nan,0.0,0.0,0.0,0,3,1,1,1,30,0,0,0
49058809,0,37.4559438,126.95420349999999,164.213,182.67000000000002,1725533688000162,11141125,0.18100001,0.41773567,0.485,0.892,0.57,0.88,73,3,0.3,0.087000005,0.287,-1.1120001,1.2750193,0,nan,0.0,0.0,0.0,0,3,1,1,1,30,0,0,0
49156714,0,37.4559439,126.9542039,164.318,182.775,1725533688100162,11141125,0.18200001,0.41441533,0.485,0.892,0.57,0.88,73,3,0.305,0.066,0.298,-1.072,1.3532507,0,nan,0.0,0.0,0.0,0,3,1,1,1,30,0,0,0
49246043,0,37.4559439,126.95420419999999,164.42600000000002,182.883,1725533688200162,11141125,0.18400002,0.59774053,0.485,0.89100003,0.57,0.88,73,3,0.22200002,0.003,0.22200002,-1.079,1.5594231,0,nan,0.0,0.0,0.0,0,3,1,1,1,30,0,0,0
49340716,0,37.4559439,126.9542044,164.526,182.983,1725533688300162,11141125,0.18200001,0.7474081,0.485,0.89100003,0.57,0.88,73,3,0.178,-0.004,0.178,-0.88500005,1.5928011,0,nan,0.0,0.0,0.0,0,3,1,1,1,30,0,0,0
49445715,0,37.4559439,126.95420469999999,164.609,183.065,1725533688400162,11141125,0.17300001,0.41378838,0.485,0.89000005,0.57,0.88,73,3,0.32000002,0.013,0.32000002,-0.669,1.5292965,0,nan,0.0,0.0,0.0,0,3,1,1,1,30,0,0,0
49546715,0,37.4559439,126.95420499999999,164.659,183.116,1725533688500162,11141125,0.177,0.5954908,0.48400003,0.89000005,0.57,0.88,73,3,0.22100002,0.009000001,0.22000001,-0.544,1.5281931,0,nan,0.0,0.0,0.0,0,3,1,1,1,30,0,0,0
49645714,0,37.4559438,126.9542053,164.732,183.189,1725533688600162,11141125,0.164,0.37672827,0.48400003,0.89000005,0.57,0.88,73,3,0.36,-0.018000001,0.36,-0.43,1.6220825,0,nan,0.0,0.0,0.0,0,3,1,1,1,30,0,0,0
49753716,0,37.4559438,126.95420569999999,164.75300000000001,183.21,1725533688700162,11141125,0.15200001,0.5566028,0.48400003,0.88900006,0.57,0.88,73,3,0.245,-0.025,0.24300002,-0.187,1.6738847,0,nan,0.0,0.0,0.0,0,3,1,1,1,30,0,0,0
49850717,0,37.4559438,126.954206,164.762,183.219,1725533688800162,11141125,0.13700001,0.51050985,0.48400003,0.88900006,0.57,0.88,73,6,0.26900002,-0.024,0.26700002,-0.087000005,1.6599973,0,nan,0.0,0.0,0.0,0,3,1,1,1,30,0,0,0
49949715,0,37.4559438,126.9542063,164.779,183.236,1725533688900162,11141125,0.13700001,0.45512304,0.48400003,0.88900006,0.57,0.88,73,6,0.298,-0.014,0.29700002,-0.051000003,1.616221,0,nan,0.0,0.0,0.0,0,3,1,1,1,30,0,0,0
50055718,0,37.4559437,126.9542067,164.784,183.24,1725533689000162,11141125,0.147,0.40476382,0.483,0.8880001,0.57,0.88,73,6,0.319,0.033,0.317,0.089,1.4659837,0,nan,0.0,0.0,0.0,0,3,1,1,1,30,0,0,0
50152714,0,37.4559438,126.95420709999999,164.773,183.23,1725533689100162,11141125,0.15,0.3701576,0.483,0.8880001,0.57,0.88,73,6,0.354,0.018000001,0.354,0.147,1.519758,0,nan,0.0,0.0,0.0,0,3,1,1,1,30,0,0,0
50237715,0,37.4559438,126.95420759999999,164.756,183.213,1725533689200162,11141125,0.157,0.32603377,0.483,0.8880001,0.57,0.88,73,6,0.40300003,0.019000001,0.402,0.223,1.5230681,0,nan,0.0,0.0,0.0,0,3,1,1,1,30,0,0,0
50344741,0,37.4559438,126.954208,164.727,183.184,1725533689300162,11141125,0.16800001,0.4044605,0.483,0.8880001,0.57,0.88,73,6,0.32200003,0.028,0.32000002,0.307,1.4850458,0,nan,0.0,0.0,0.0,0,3,1,1,1,30,0,0,0
50445842,0,37.4559438,126.9542084,164.68,183.137,1725533689400162,11141125,0.17300001,0.43054098,0.483,0.887,0.57,0.88,73,6,0.29500002,0.017,0.294,0.41400003,1.512431,0,nan,0.0,0.0,0.0,0,3,1,1,1,30,0,0,0
50544736,0,37.4559438,126.95420879999999,164.644,183.101,1725533689500162,11141125,0.16900001,0.26447338,0.48200002,0.887,0.57,0.88,73,6,0.476,0.101,0.46500003,0.44300002,1.357285,0,nan,0.0,0.0,0.0,0,3,1,1,1,30,0,0,0
50644715,0,37.4559439,126.95420929999999,164.613,183.07,1725533689600162,11141125,0.171,0.29355076,0.48200002,0.88600004,0.57,0.88,73,6,0.44300002,0.082,0.43600002,0.42200002,1.3839028,0,nan,0.0,0.0,0.0,0,3,1,1,1,30,0,0,0
50745716,0,37.455943999999995,126.95420969999999,164.56300000000002,183.02,1725533689700162,11141125,0.178,0.5355117,0.48200002,0.88600004,0.57,0.88,73,6,0.25,0.021000002,0.25,0.43400002,1.4862312,0,nan,0.0,0.0,0.0,0,3,1,1,1,30,0,0,0
50844714,0,37.455943999999995,126.95421019999999,164.537,182.993,1725533689800162,11141125,0.165,0.24384063,0.48200002,0.88600004,0.57,0.88,73,6,0.51900005,0.14500001,0.49800003,0.335,1.2876997,0,nan,0.0,0.0,0.0,0,3,1,1,1,30,0,0,0
50944715,0,37.455944099999996,126.95421069999999,164.508,182.965,1725533689900162,11141125,0.165,0.2987438,0.48200002,0.88500005,0.57,0.88,73,6,0.45000002,0.027,0.45000002,0.372,1.5107986,0,nan,0.0,0.0,0.0,0,3,1,1,1,30,0,0,0
51053715,0,37.455944099999996,126.95421119999999,164.48,182.937,1725533690000162,11141125,0.157,0.45413223,0.48100004,0.88500005,0.57,0.88,73,6,0.294,0.021000002,0.293,0.20300001,1.5009551,0,nan,0.0,0.0,0.0,0,3,1,1,1,30,0,0,0
51138715,0,37.455944099999996,126.9542116,164.467,182.924,1725533690100161,11141125,0.15,0.26922312,0.48100004,0.88500005,0.57,0.88,73,6,0.47900003,0.125,0.46300003,0.15300001,1.3068044,0,nan,0.0,0.0,0.0,0,3,1,1,1,30,0,0,0
51245184,0,37.4559442,126.95421209999999,164.466,182.923,1725533690200161,11141125,0.14400001,0.28813955,0.48100004,0.88400006,0.57,0.88,73,6,0.453,0.078,0.44700003,0.148,1.3971692,0,nan,0.0,0.0,0.0,0,3,1,1,1,30,0,0,0
51347714,0,37.4559443,126.95421259999999,164.46200000000002,182.918,1725533690300161,11141125,0.143,0.32793146,0.48100004,0.88400006,0.57,0.88,73,6,0.39000002,0.10300001,0.37600002,0.081,1.3046734,0,nan,0.0,0.0,0.0,0,3,1,1,1,30,0,0,0
51444886,0,37.4559443,126.95421309999999,164.468,182.925,1725533690400161,11141125,0.14,0.26882032,0.48100004,0.883,0.57,0.88,73,6,0.49300003,0.069000006,0.48800004,0.041,1.4305474,0,nan,0.0,0.0,0.0,0,3,1,1,1,30,0,0,0
51544743,0,37.4559443,126.95421359999999,164.475,182.93200000000002,1725533690500161,11141125,0.147,0.32058084,0.48000002,0.883,0.57,0.88,73,6,0.42200002,0.044000003,0.42000002,0.038000003,1.466696,0,nan,0.0,0.0,0.0,0,3,1,1,1,30,0,0,0
51645715,0,37.4559443,126.95421409999999,164.477,182.934,1725533690600161,11141125,0.141,0.41044104,0.48000002,0.882,0.57,0.88,73,6,0.34300002,-0.014,0.34300002,-0.024,1.61056,0,nan,0.0,0.0,0.0,0,3,1,1,1,30,0,0,0
51746749,0,37.4559443,126.95421449999999,164.497,182.953,1725533690700161,11141125,0.142,0.318835,0.48000002,0.882,0.57,0.88,73,6,0.43400002,-0.011000001,0.43400002,-0.064,1.5951586,0,nan,0.0,0.0,0.0,0,3,1,1,1,30,0,0,0
51845850,0,37.4559442,126.9542149,164.52100000000002,182.978,1725533690800161,11141125,0.141,0.4250217,0.48000002,0.882,0.57,0.88,73,4,0.335,-0.040000003,0.33200002,-0.09200001,1.692046,0,nan,0.0,0.0,0.0,0,3,1,1,1,30,0,0,0
51948735,0,37.4559442,126.9542153,164.53300000000002,182.989,1725533690900161,11141125,0.14,0.49554452,0.48000002,0.88100004,0.57,0.88,73,4,0.287,-0.043,0.284,-0.11800001,1.721272,0,nan,0.0,0.0,0.0,0,3,1,1,1,30,0,0,0
52044714,0,37.455944099999996,126.9542156,164.55100000000002,183.008,1725533691000161,11141125,0.142,0.5371609,0.47900003,0.88100004,0.57,0.88,73,4,0.26200002,-0.041,0.259,-0.15200001,1.7271365,0,nan,0.0,0.0,0.0,0,3,1,1,1,30,0,0,0
52146889,0,37.455944099999996,126.9542159,164.57,183.02700000000002,1725533691100161,11141125,0.143,0.6621043,0.47900003,0.88100004,0.57,0.88,73,4,0.21800001,-0.059000004,0.21000001,-0.15200001,1.8452799,0,nan,0.0,0.0,0.0,0,3,1,1,1,30,0,0,0
52245731,0,37.455943999999995,126.9542161,164.589,183.046,1725533691200161,11141125,0.15400001,0.8698499,0.47900003,0.88000005,0.57,0.88,73,4,0.14400001,0.037,0.14,-0.14600001,1.7504536,0,nan,0.0,0.0,0.0,0,3,1,1,1,30,0,0,0
52345740,0,37.455943999999995,126.9542163,164.614,183.071,1725533691300161,11141125,0.16700001,0.9354074,0.47900003,0.88000005,0.57,0.88,73,4,0.13700001,0.028,0.134,-0.23400001,1.7504536,0,nan,0.0,0.0,0.0,0,3,1,1,1,30,0,0,0
52444715,0,37.455943999999995,126.95421639999999,164.64600000000002,183.103,1725533691400161,11141125,0.17500001,1.7839108,0.47900003,0.87900007,0.57,0.88,73,4,0.076000005,0.003,0.076000005,-0.201,1.7504536,0,nan,0.0,0.0,0.0,0,3,1,1,1,30,0,0,0
52552837,0,37.455943999999995,126.9542165,164.675,183.131,1725533691500161,11141125,0.17600001,2.1517186,0.47900003,0.87900007,0.57,0.88,73,4,0.068,-0.016,0.066,-0.19900002,1.7504536,0,nan,0.0,0.0,0.0,0,3,1,1,1,30,0,0,0
52649824,0,37.455943999999995,126.9542166,164.692,183.148,1725533691600161,11141125,0.165,1.1429276,0.47800002,0.87900007,0.57,0.88,73,4,0.10700001,0.031000001,0.102000006,-0.16700001,1.7504536,0,nan,0.0,0.0,0.0,0,3,1,1,1,30,0,0,0
52750721,0,37.455943999999995,126.95421669999999,164.711,183.167,1725533691700161,11141125,0.15400001,0.8241895,0.47800002,0.878,0.57,0.88,73,4,0.14600001,0.066,0.13000001,-0.148,1.7504536,0,nan,0.0,0.0,0.0,0,3,1,1,1,30,0,0,0
52849787,0,37.455943999999995,126.9542168,164.728,183.184,1725533691800161,11141125,0.17,1.8838595,0.47800002,0.878,0.57,0.88,73,5,0.07300001,-0.010000001,0.072000004,-0.16600001,1.7504536,0,nan,0.0,0.0,0.0,0,3,1,1,1,30,0,0,0
52941718,0,37.455944099999996,126.95421689999999,164.754,183.211,1725533691900161,11141125,0.16700001,1.052759,0.47800002,0.878,0.57,0.88,73,5,0.116000004,0.109000005,0.039,-0.20700002,1.7504536,0,nan,0.0,0.0,0.0,0,3,1,1,1,30,0,0,0
53057717,0,37.455944099999996,126.95421689999999,164.775,183.232,1725533692000161,11141125,0.179,3.1415925,0.47800002,0.87700003,0.57,0.88,73,5,0.019000001,-0.002,-0.018000001,-0.177,1.7504536,0,nan,0.0,0.0,0.0,0,3,1,1,1,30,0,0,0
53156716,0,37.455944099999996,126.95421689999999,164.781,183.238,1725533692100161,11141125,0.177,2.4890456,0.47700003,0.87700003,0.57,0.88,73,5,0.052,-0.010000001,-0.051000003,-0.11000001,1.7504536,0,nan,0.0,0.0,0.0,0,3,1,1,1,30,0,0,0
53244722,0,37.455944099999996,126.95421689999999,164.798,183.254,1725533692200161,11141125,0.16000001,1.4995879,0.47700003,0.87700003,0.57,0.88,73,5,0.091000006,0.09,-0.003,-0.15300001,1.7504536,0,nan,0.0,0.0,0.0,0,3,1,1,1,30,0,0,0
53346880,0,37.4559442,126.95421689999999,164.827,183.284,1725533692300161,11141125,0.155,0.7439752,0.47700003,0.87600005,0.57,0.88,73,5,0.15900001,0.132,0.089,-0.17400001,0.59252477,0,nan,0.0,0.0,0.0,0,3,1,1,1,30,0,0,0
53445768,0,37.4559443,126.9542171,164.847,183.304,1725533692400161,11141125,0.155,0.6207862,0.47700003,0.87500006,0.57,0.88,73,5,0.18300001,0.123,0.136,-0.20400001,0.83611286,0,nan,0.0,0.0,0.0,0,3,1,1,1,30,0,0,0
53547713,0,37.4559444,126.95421719999999,164.88,183.33700000000002,1725533692500161,11141125,0.156,0.5765055,0.47700003,0.87500006,0.57,0.88,73,5,0.193,0.12100001,0.15,-0.231,0.89040357,0,nan,0.0,0.0,0.0,0,3,1,1,1,30,0,0,0
53645747,0,37.4559445,126.95421739999999,164.913,183.37,1725533692600161,11141125,0.158,0.6100343,0.476,0.874,0.57,0.88,73,5,0.18100001,0.133,0.12200001,-0.26200002,0.7430442,0,nan,0.0,0.0,0.0,0,3,1,1,1,30,0,0,0
53748106,0,37.455944599999995,126.9542175,164.94,183.39600000000002,1725533692700161,11141125,0.16000001,0.5636773,0.476,0.873,0.57,0.88,73,5,0.208,0.16800001,0.123,-0.284,0.63046,0,nan,0.0,0.0,0.0,0,3,1,1,1,30,0,0,0
53838849,0,37.455944699999996,126.9542177,164.976,183.433,1725533692800161,11141125,0.162,0.46216682,0.476,0.873,0.57,0.88,73,5,0.24900001,0.186,0.16600001,-0.363,0.72676593,0,nan,0.0,0.0,0.0,0,3,1,1,1,30,0,0,0
53944715,0,37.4559448,126.95421789999999,165.002,183.458,1725533692900160,11141125,0.16600001,0.56245416,0.476,0.873,0.57,0.88,73,5,0.20400001,0.119,0.16600001,-0.323,0.94726664,0,nan,0.0,0.0,0.0,0,3,1,1,1,30,0,0,0
54054716,0,37.4559449,126.95421809999999,165.034,183.49,1725533693000160,11141125,0.16900001,0.8101265,0.476,0.873,0.57,0.88,73,5,0.148,0.125,0.079,-0.294,0.8165757,0,nan,0.0,0.0,0.0,0,3,1,1,1,30,0,0,0
54147717,0,37.455945,126.9542182,165.09,183.546,1725533693100160,11141125,0.16600001,0.3666736,0.47500002,0.873,0.57,0.88,73,5,0.294,0.2,0.216,-0.46800002,0.8223497,0,nan,0.0,0.0,0.0,0,3,1,1,1,30,0,0,0
54246715,0,37.455945199999995,126.9542185,165.142,183.59900000000002,1725533693200160,11141125,0.16800001,0.48818445,0.47500002,0.87200004,0.57,0.88,73,5,0.21200001,0.11100001,0.18,-0.53000003,1.0168937,0,nan,0.0,0.0,0.0,0,3,1,1,1,30,0,0,0
54347715,0,37.455945199999995,126.95421859999999,165.201,183.657,1725533693300160,11141125,0.17300001,1.0739946,0.47500002,0.87100005,0.57,0.88,73,5,0.104,0.08400001,0.061000004,-0.568,0.8914209,0,nan,0.0,0.0,0.0,0,3,1,1,1,30,0,0,0
54444930,0,37.455945299999996,126.95421879999999,165.247,183.704,1725533693400160,11141125,0.16900001,0.44782373,0.47500002,0.87100005,0.57,0.88,73,5,0.252,0.120000005,0.22200002,-0.60300004,1.0738982,0,nan,0.0,0.0,0.0,0,3,1,1,1,30,0,0,0
54547718,0,37.4559454,126.954219,165.334,183.791,1725533693500160,11141125,0.16800001,0.53541607,0.47500002,0.87100005,0.57,0.88,73,5,0.20700002,0.058000002,0.19900002,-0.57000005,1.285856,0,nan,0.0,0.0,0.0,0,3,1,1,1,30,0,0,0
54648714,0,37.4559454,126.9542192,165.383,183.84,1725533693600160,11141125,0.16900001,0.810016,0.47400004,0.87000006,0.57,0.88,73,5,0.13100001,0.051000003,0.120000005,-0.49500003,1.112091,0,nan,0.0,0.0,0.0,0,3,1,1,1,30,0,0,0
54740714,0,37.4559454,126.9542194,165.43200000000002,183.889,1725533693700160,11141125,0.17,0.57237965,0.47400004,0.87000006,0.57,0.88,73,5,0.21000001,0.035,0.20700002,-0.40300003,1.405097,0,nan,0.0,0.0,0.0,0,3,1,1,1,30,0,0,0
54847936,0,37.4559455,126.9542197,165.446,183.903,1725533693800160,11141125,0.157,0.38961053,0.47400004,0.87000006,0.57,0.88,73,4,0.29000002,0.120000005,0.264,-0.246,1.1443925,0,nan,0.0,0.0,0.0,0,3,1,1,1,30,0,0,0
54950714,0,37.4559455,126.9542199,165.46200000000002,183.919,1725533693900160,11141125,0.149,0.75521845,0.47400004,0.869,0.57,0.88,73,4,0.163,0.009000001,0.163,-0.108,1.5178231,0,nan,0.0,0.0,0.0,0,3,1,1,1,30,0,0,0
55060716,0,37.4559455,126.9542202,165.469,183.92600000000002,1725533694000160,11141125,0.14400001,0.5265951,0.47400004,0.869,0.57,0.88,73,4,0.23,0.032,0.22700001,-0.002,1.4319773,0,nan,0.0,0.0,0.0,0,3,1,1,1,30,0,0,0
55152795,0,37.4559456,126.95422049999999,165.472,183.929,1725533694100160,11141125,0.156,0.4051389,0.47300002,0.86800003,0.57,0.88,73,4,0.286,0.09900001,0.268,0.156,1.216079,0,nan,0.0,0.0,0.0,0,3,1,1,1,31,0,0,0
55253747,0,37.4559456,126.9542207,165.446,183.903,1725533694200160,11141125,0.171,0.45377672,0.47300002,0.86700004,0.53999996,0.84,73,4,0.25100002,0.11400001,0.223,0.314,1.1002009,0,nan,0.0,0.0,0.0,0,3,1,1,1,31,0,0,0
55344718,0,37.4559457,126.95422099999999,165.405,183.861,1725533694300160,11141125,0.17500001,0.59035677,0.47300002,0.86700004,0.53999996,0.84,73,4,0.209,0.037,0.20600002,0.439,1.3944434,0,nan,0.0,0.0,0.0,0,3,1,1,1,31,0,0,0
55447714,0,37.4559457,126.9542214,165.354,183.81,1725533694400160,11141125,0.172,0.2994044,0.47300002,0.86600006,0.53999996,0.84,73,4,0.409,0.072000004,0.402,0.646,1.3934054,0,nan,0.0,0.0,0.0,0,3,1,1,1,31,0,0,0
55548280,0,37.4559457,126.95422169999999,165.296,183.75300000000001,1725533694500160,11141125,0.178,1.6267676,0.47200003,0.86600006,0.53999996,0.84,73,4,0.09200001,-0.045,0.080000006,0.546,1.3682226,0,nan,0.0,0.0,0.0,0,3,1,1,1,31,0,0,0
55645714,0,37.4559457,126.9542219,165.237,183.69400000000002,1725533694600160,11141125,0.177,0.57098407,0.47200003,0.86500007,0.53999996,0.84,73,4,0.223,0.026,0.22200002,0.44900003,1.4524765,0,nan,0.0,0.0,0.0,0,3,1,1,1,31,0,0,0
55752759,0,37.4559457,126.9542221,165.214,183.671,1725533694700160,11141125,0.165,0.6680649,0.47200003,0.86500007,0.53999996,0.84,73,4,0.224,-0.089,0.20500001,0.32700002,1.9787216,0,nan,0.0,0.0,0.0,0,3,1,1,1,31,0,0,0
55852717,0,37.4559456,126.9542223,165.19,183.647,1725533694800160,11141125,0.13000001,0.6968066,0.47200003,0.864,0.53999996,0.84,73,5,0.21700001,-0.120000005,0.18,0.074,2.1597548,0,nan,0.0,0.0,0.0,0,3,1,1,1,31,0,0,0
55948716,0,37.4559455,126.9542225,165.208,183.665,1725533694900160,11141125,0.15200001,0.7598664,0.47200003,0.864,0.53999996,0.84,73,5,0.179,-0.018000001,0.178,-0.178,1.6740733,0,nan,0.0,0.0,0.0,0,3,1,1,1,31,0,0,0
56058738,0,37.4559455,126.95422269999999,165.248,183.705,1725533695000160,11141125,0.16900001,0.8509571,0.47200003,0.86300004,0.53999996,0.84,73,5,0.162,-0.012,0.162,-0.36800003,1.7897813,0,nan,0.0,0.0,0.0,0,3,1,1,1,31,0,0,0
56150714,0,37.4559454,126.95422289999999,165.297,183.754,1725533695100160,11141125,0.17400001,0.85460466,0.47200003,0.86300004,0.53999996,0.84,73,5,0.164,0.002,0.164,-0.492,1.7897813,0,nan,0.0,0.0,0.0,0,3,1,1,1,31,0,0,0
56247745,0,37.4559456,126.9542232,165.345,183.802,1725533695200160,11141125,0.162,0.32779217,0.47200003,0.86300004,0.53999996,0.84,73,5,0.38900003,0.27800003,0.273,-0.47000003,0.7760688,0,nan,0.0,0.0,0.0,0,3,1,1,1,31,0,0,0
56349716,0,37.455945799999995,126.95422339999999,165.397,183.854,1725533695300160,11141125,0.156,0.43512452,0.47200003,0.86300004,0.53999996,0.84,73,5,0.291,0.23400001,0.17400001,-0.349,0.63937986,0,nan,0.0,0.0,0.0,0,3,1,1,1,31,0,0,0
56452714,0,37.455945899999996,126.95422359999999,165.433,183.889,1725533695400160,11141125,0.158,0.55897415,0.47100002,0.86300004,0.53999996,0.84,73,5,0.22600001,0.17500001,0.143,-0.328,0.6834194,0,nan,0.0,0.0,0.0,0,3,1,1,1,31,0,0,0
56539715,0,37.4559462,126.95422389999999,165.452,183.909,1725533695500160,11141125,0.147,0.23500404,0.47100002,0.86200005,0.53999996,0.84,73,5,0.52000004,0.38000003,0.35500002,-0.25500003,0.7517169,0,nan,0.0,0.0,0.0,0,3,1,1,1,31,0,0,0
56646379,0,37.455946499999996,126.95422429999999,165.465,183.922,1725533695600160,11141125,0.15300001,0.31756717,0.47100002,0.86200005,0.53999996,0.84,73,5,0.388,0.303,0.24300002,-0.013,0.6757833,0,nan,0.0,0.0,0.0,0,3,1,1,1,31,0,0,0
56745715,0,37.4559467,126.9542245,165.475,183.93200000000002,1725533695700159,11141125,0.155,0.32961902,0.47100002,0.86200005,0.53999996,0.84,73,5,0.38500002,0.335,0.18900001,0.042000003,0.51418465,0,nan,0.0,0.0,0.0,0,3,1,1,1,31,0,0,0
56844168,0,37.455946999999995,126.95422479999999,165.461,183.918,1725533695800159,11141125,0.164,0.31192994,0.47100002,0.86200005,0.53999996,0.84,73,5,0.395,0.33800003,0.20300001,0.143,0.5412936,0,nan,0.0,0.0,0.0,0,3,1,1,1,31,0,0,0
56944729,0,37.4559473,126.954225,165.452,183.90800000000002,1725533695900159,11141125,0.17300001,0.30336335,0.47100002,0.86200005,0.53999996,0.84,73,5,0.395,0.344,0.194,0.23200001,0.5140338,0,nan,0.0,0.0,0.0,0,3,1,1,1,31,0,0,0
57053927,0,37.4559476,126.9542252,165.413,183.87,1725533696000159,11141125,0.185,0.30533957,0.47100002,0.86200005,0.53999996,0.84,73,5,0.402,0.36600003,0.16600001,0.42800003,0.4254521,0,nan,0.0,0.0,0.0,0,3,1,1,1,31,0,0,0
57153717,0,37.4559479,126.9542254,165.366,183.823,1725533696100159,11141125,0.19100001,0.37775853,0.47100002,0.86200005,0.53999996,0.84,73,5,0.30100003,0.23300001,0.19100001,0.563,0.6853578,0,nan,0.0,0.0,0.0,0,3,1,1,1,31,0,0,0
57252714,0,37.4559481,126.9542256,165.31,183.767,1725533696200159,11141125,0.192,0.69833356,0.47100002,0.86200005,0.53999996,0.84,73,5,0.18100001,0.16800001,0.069000006,0.611,0.38797358,0,nan,0.0,0.0,0.0,0,3,1,1,1,31,0,0,0
57353717,0,37.4559482,126.9542257,165.244,183.70000000000002,1725533696300159,11141125,0.192,1.1596913,0.47100002,0.86200005,0.53999996,0.84,73,5,0.11000001,0.09900001,0.048,0.67700005,0.5249027,0,nan,0.0,0.0,0.0,0,3,1,1,1,31,0,0,0
57442714,0,37.4559482,126.9542257,165.172,183.629,1725533696400159,11141125,0.185,1.824054,0.47100002,0.86200005,0.53999996,0.84,73,5,0.085,-0.080000006,0.027,0.615,0.5249027,0,nan,0.0,0.0,0.0,0,3,1,1,1,31,0,0,0
57546714,0,37.4559481,126.9542257,165.109,183.566,1725533696500159,11141125,0.17500001,0.60101616,0.47100002,0.86200005,0.53999996,0.84,73,5,0.193,-0.10300001,-0.163,0.59300005,4.1490216,0,nan,0.0,0.0,0.0,0,3,1,1,1,31,0,0,0
57646716,0,37.455948,126.95422549999999,165.035,183.492,1725533696600159,11141125,0.17400001,0.5001878,0.47100002,0.86200005,0.53999996,0.84,73,5,0.22500001,-0.15200001,-0.16600001,0.66800004,3.969893,0,nan,0.0,0.0,0.0,0,3,1,1,1,31,0,0,0
57749752,0,37.455947699999996,126.9542252,164.993,183.45000000000002,1725533696700159,11141125,0.156,0.23853396,0.47100002,0.86100006,0.53999996,0.84,73,5,0.48700002,-0.26900002,-0.40600002,0.528,4.12747,0,nan,0.0,0.0,0.0,0,3,1,1,1,31,0,0,0
57847940,0,37.4559475,126.95422479999999,164.933,183.389,1725533696800159,11141125,0.157,0.2199169,0.47100002,0.86100006,0.53999996,0.84,73,4,0.503,-0.34800002,-0.363,0.418,3.949044,0,nan,0.0,0.0,0.0,0,3,1,1,1,31,0,0,0
57947751,0,37.455947099999996,126.9542242,164.9,183.357,1725533696900159,11141125,0.15,0.16073348,0.47100002,0.86100006,0.53999996,0.84,73,4,0.71000004,-0.36600003,-0.609,0.42100003,4.1706953,0,nan,0.0,0.0,0.0,0,3,1,1,1,31,0,0,0
58054714,0,37.4559468,126.9542235,164.873,183.33,1725533697000159,11141125,0.136,0.14442495,0.47100002,0.86100006,0.53999996,0.84,73,4,0.795,-0.34,-0.71900004,0.39900002,4.2708635,0,nan,0.0,0.0,0.0,0,3,1,1,1,31,0,0,0
58152714,0,37.455946399999995,126.95422269999999,164.85,183.30700000000002,1725533697100159,11141125,0.143,0.14102137,0.47100002,0.86100006,0.53999996,0.84,73,4,0.837,-0.47000003,-0.69200003,0.367,4.1158133,0,nan,0.0,0.0,0.0,0,3,1,1,1,31,0,0,0
58247715,0,37.455945899999996,126.9542219,164.814,183.27100000000002,1725533697200159,11141125,0.14,0.124907106,0.47100002,0.86,0.53999996,0.84,73,4,0.924,-0.522,-0.762,0.423,4.112009,0,nan,0.0,0.0,0.0,0,3,1,1,1,31,0,0,0
58339714,0,37.4559455,126.9542209,164.781,183.238,1725533697300159,11141125,0.141,0.12629534,0.47100002,0.86,0.53999996,0.84,73,4,0.94900006,-0.425,-0.84800005,0.453,4.248144,0,nan,0.0,0.0,0.0,0,3,1,1,1,31,0,0,0
58446717,0,37.455945,126.95421999999999,164.72,183.177,1725533697400159,11141125,0.13900001,0.11727687,0.47100002,0.86,0.53999996,0.84,73,4,1.0200001,-0.52000004,-0.878,0.53000003,4.177689,0,nan,0.0,0.0,0.0,0,3,1,1,1,31,0,0,0
58547715,0,37.4559445,126.954219,164.674,183.131,1725533697500159,11141125,0.136,0.11506624,0.47000003,0.86,0.53999996,0.84,73,4,1.01,-0.53900003,-0.855,0.546,4.149608,0,nan,0.0,0.0,0.0,0,3,1,1,1,31,0,0,0
58645716,0,37.455944099999996,126.954218,164.624,183.08100000000002,1725533697600159,11141125,0.13900001,0.119382955,0.47000003,0.859,0.53999996,0.84,73,4,1.024,-0.44400004,-0.92300004,0.60300004,4.26377,0,nan,0.0,0.0,0.0,0,3,1,1,1,31,0,0,0
58747715,0,37.4559436,126.954217,164.558,183.01500000000001,1725533697700159,11141125,0.13900001,0.112667635,0.47000003,0.859,0.53999996,0.84,73,4,1.082,-0.54700005,-0.933,0.64900005,4.182667,0,nan,0.0,0.0,0.0,0,3,1,1,1,31,0,0,0
58847148,0,37.4559431,126.9542159,164.50300000000001,182.96,1725533697800159,11141125,0.14,0.1111731,0.47000003,0.859,0.53999996,0.84,73,5,1.098,-0.54200006,-0.95500004,0.72400004,4.1959476,0,nan,0.0,0.0,0.0,0,3,1,1,1,31,0,0,0
58944728,0,37.4559426,126.9542149,164.429,182.886,1725533697900159,11141125,0.141,0.11644453,0.47000003,0.859,0.53999996,0.84,73,5,1.052,-0.537,-0.90400004,0.73800004,4.1763787,0,nan,0.0,0.0,0.0,0,3,1,1,1,31,0,0,0
59053730,0,37.4559421,126.95421379999999,164.351,182.808,1725533698000159,11141125,0.141,0.11384556,0.47000003,0.859,0.53999996,0.84,73,5,1.077,-0.513,-0.94600004,0.78400004,4.2153006,0,nan,0.0,0.0,0.0,0,3,1,1,1,31,0,0,0
59149715,0,37.455941599999996,126.9542127,164.294,182.75,1725533698100159,11141125,0.14,0.10358197,0.47000003,0.85800004,0.53999996,0.84,73,5,1.1580001,-0.67700005,-0.93900007,0.675,4.087933,0,nan,0.0,0.0,0.0,0,3,1,1,1,31,0,0,0
59238715,0,37.455940999999996,126.95421169999999,164.21200000000002,182.669,1725533698200159,11141125,0.14,0.11314568,0.47000003,0.85800004,0.53999996,0.84,73,5,1.079,-0.56,-0.92300004,0.68700004,4.167168,0,nan,0.0,0.0,0.0,0,3,1,1,1,31,0,0,0
59344718,0,37.4559405,126.95421069999999,164.162,182.619,1725533698300159,11141125,0.148,0.114414014,0.47000003,0.85800004,0.53999996,0.84,73,5,1.064,-0.614,-0.869,0.65400004,4.0970826,0,nan,0.0,0.0,0.0,0,3,1,1,1,31,0,0,0
59447933,0,37.4559399,126.95420969999999,164.108,182.565,1725533698400159,11141125,0.14600001,0.12408435,0.47000003,0.85800004,0.53999996,0.84,73,5,1.0320001,-0.521,-0.89100003,0.58400005,4.183458,0,nan,0.0,0.0,0.0,0,3,1,1,1,31,0,0,0
59546819,0,37.4559395,126.9542087,164.037,182.493,1725533698500159,11141125,0.143,0.11612565,0.47000003,0.85800004,0.53999996,0.84,73,5,1.0530001,-0.53000003,-0.91,0.60300004,4.1855316,0,nan,0.0,0.0,0.0,0,3,1,1,1,31,0,0,0
59647715,0,37.455939,126.9542077,163.982,182.439,1725533698600158,11141125,0.147,0.13128716,0.469,0.85800004,0.53999996,0.84,73,5,0.938,-0.437,-0.82900006,0.53800005,4.227034,0,nan,0.0,0.0,0.0,0,3,1,1,1,31,0,0,0
59748715,0,37.455938599999996,126.9542067,163.945,182.401,1725533698700158,11141125,0.14500001,0.13604736,0.469,0.85700005,0.53999996,0.84,73,5,0.975,-0.41900003,-0.88100004,0.51000005,4.268287,0,nan,0.0,0.0,0.0,0,3,1,1,1,31,0,0,0
59846782,0,37.4559383,126.9542058,163.894,182.351,1725533698800158,11141125,0.148,0.1578844,0.469,0.85700005,0.53999996,0.84,73,4,0.799,-0.30100003,-0.74,0.40800002,4.3259425,0,nan,0.0,0.0,0.0,0,3,1,1,1,31,0,0,0
59946738,0,37.455937999999996,126.9542049,163.871,182.328,1725533698900158,11141125,0.148,0.14895338,0.469,0.85700005,0.53999996,0.84,73,4,0.91300005,-0.264,-0.874,0.34600002,4.4187746,0,nan,0.0,0.0,0.0,0,3,1,1,1,31,0,0,0
60054716,0,37.4559378,126.95420399999999,163.849,182.306,1725533699000158,11141125,0.14400001,0.1561869,0.469,0.85700005,0.53999996,0.84,73,4,0.82100004,-0.23700002,-0.786,0.246,4.419414,0,nan,0.0,0.0,0.0,0,3,1,1,1,31,0,0,0
60143715,0,37.4559376,126.9542032,163.82,182.27700000000002,1725533699100158,11141125,0.157,0.20473166,0.469,0.85700005,0.53999996,0.84,73,4,0.651,-0.076000005,-0.647,0.28800002,4.594872,0,nan,0.0,0.0,0.0,0,3,1,1,1,31,0,0,0
60247715,0,37.4559376,126.9542024,163.794,182.25,1725533699200158,11141125,0.15100001,0.18684377,0.469,0.85700005,0.53999996,0.84,73,4,0.72700006,-0.006,-0.72700006,0.30900002,4.7035384,0,nan,0.0,0.0,0.0,0,3,1,1,1,31,0,0,0
60346714,0,37.4559376,126.9542015,163.772,182.229,1725533699300158,11141125,0.14500001,0.15934472,0.469,0.85700005,0.53999996,0.84,73,4,0.84800005,0.0,-0.84800005,0.21000001,4.7127976,0,nan,0.0,0.0,0.0,0,3,1,1,1,31,0,0,0
60445714,0,37.4559376,126.9542006,163.755,182.21200000000002,1725533699400158,11141125,0.13900001,0.16358621,0.469,0.85600007,0.53999996,0.84,73,4,0.836,0.09,-0.832,0.202,4.8197985,0,nan,0.0,0.0,0.0,0,3,1,1,1,31,0,0,0
60547750,0,37.4559377,126.9541996,163.734,182.191,1725533699500158,11141125,0.12900001,0.15053569,0.469,0.85600007,0.53999996,0.84,73,4,0.91200006,0.15400001,-0.89900005,0.216,4.8821197,0,nan,0.0,0.0,0.0,0,3,1,1,1,31,0,0,0
60647753,0,37.4559378,126.9541986,163.722,182.179,1725533699600158,11141125,0.13000001,0.16253501,0.469,0.855,0.53999996,0.84,73,4,0.85600007,0.127,-0.84700006,0.18100001,4.860948,0,nan,0.0,0.0,0.0,0,3,1,1,1,31,0,0,0
60744716,0,37.455937899999995,126.9541977,163.70000000000002,182.156,1725533699700158,11141125,0.134,0.16454475,0.469,0.855,0.53999996,0.84,73,4,0.83500004,0.109000005,-0.82800007,0.18100001,4.842679,0,nan,0.0,0.0,0.0,0,3,1,1,1,31,0,0,0
60845716,0,37.455937999999996,126.95419679999999,163.686,182.143,1725533699800158,11141125,0.134,0.17188962,0.46800002,0.855,0.53999996,0.84,73,6,0.78900003,0.09200001,-0.78400004,0.18300001,4.82884,0,nan,0.0,0.0,0.0,0,3,1,1,1,31,0,0,0
60945715,0,37.455937999999996,126.95419589999999,163.68,182.136,1725533699900158,11141125,0.135,0.16436045,0.46800002,0.855,0.53999996,0.84,73,6,0.837,0.066,-0.83500004,0.115,4.7907257,0,nan,0.0,0.0,0.0,0,3,1,1,1,31,0,0,0
61046714,0,37.4559381,126.95419489999999,163.679,182.136,1725533700000158,11141125,0.133,0.168537,0.46800002,0.855,0.53999996,0.84,73,6,0.82600003,0.11400001,-0.818,0.081,4.850633,0,nan,0.0,0.0,0.0,0,3,1,1,1,31,0,0,0
61155714,0,37.4559381,126.9541941,163.669,182.125,1725533700100158,11141125,0.136,0.18538816,0.46800002,0.855,0.53999996,0.84,73,6,0.73600006,0.022000002,-0.73600006,0.07,4.7416353,0,nan,0.0,0.0,0.0,0,3,1,1,1,31,0,0,0
61247780,0,37.4559382,126.95419319999999,163.656,182.113,1725533700200158,11141125,0.134,0.17599097,0.46800002,0.855,0.53999996,0.84,73,6,0.8,0.09900001,-0.794,0.18800001,4.835957,0,nan,0.0,0.0,0.0,0,3,1,1,1,31,0,0,0
61345715,0,37.4559383,126.9541924,163.64000000000001,182.096,1725533700300158,11141125,0.12900001,0.20340031,0.46800002,0.855,0.53999996,0.84,73,6,0.69000006,0.15,-0.674,0.20700002,4.931961,0,nan,0.0,0.0,0.0,0,3,1,1,1,31,0,0,0
61446718,0,37.4559384,126.95419159999999,163.607,182.064,1725533700400158,11141125,0.13100001,0.20427525,0.46800002,0.85400003,0.53999996,0.84,73,6,0.65300006,0.080000006,-0.648,0.30100003,4.8350897,0,nan,0.0,0.0,0.0,0,3,1,1,1,31,0,0,0
61547757,0,37.4559384,126.954191,163.582,182.03900000000002,1725533700500158,11141125,0.141,0.26217428,0.46800002,0.85400003,0.53999996,0.84,73,6,0.53300005,0.065000005,-0.52900004,0.356,4.8344913,0,nan,0.0,0.0,0.0,0,3,1,1,1,31,0,0,0
61648716,0,37.455938499999995,126.95419039999999,163.55,182.007,1725533700600158,11141125,0.13900001,0.30064708,0.467,0.85400003,0.53999996,0.84,73,6,0.48600003,0.192,-0.446,0.317,5.1185675,0,nan,0.0,0.0,0.0,0,3,1,1,1,31,0,0,0
61751027,0,37.4559387,126.95419,163.518,181.97400000000002,1725533700700158,11141125,0.148,0.37491295,0.467,0.85300004,0.53999996,0.84,73,6,0.39800003,0.24400002,-0.314,0.358,5.3731956,0,nan,0.0,0.0,0.0,0,3,1,1,1,31,0,0,0
61849912,0,37.4559389,126.95418959999999,163.479,181.936,1725533700800158,11141125,0.157,0.38560867,0.467,0.85300004,0.53999996,0.84,73,6,0.36400002,0.109000005,-0.347,0.37600002,5.0172243,0,nan,0.0,0.0,0.0,0,3,1,1,1,31,0,0,0
61939715,0,37.455939,126.9541893,163.445,181.90200000000002,1725533700900158,11141125,0.15,0.42367867,0.467,0.85300004,0.53999996,0.84,73,6,0.356,0.27100003,-0.231,0.27,5.576263,0,nan,0.0,0.0,0.0,0,3,1,1,1,31,0,0,0
62054756,0,37.455939199999996,126.954189,163.419,181.876,1725533701000158,11141125,0.156,0.41553912,0.467,0.85200006,0.53999996,0.84,73,6,0.36100003,0.24200001,-0.268,0.333,5.446829,0,nan,0.0,0.0,0.0,0,3,1,1,1,31,0,0,0
62155730,0,37.4559394,126.95418869999999,163.4,181.856,1725533701100158,11141125,0.163,0.5911528,0.467,0.85200006,0.53999996,0.84,73,6,0.24700001,0.155,-0.192,0.28500003,5.391823,0,nan,0.0,0.0,0.0,0,3,1,1,1,31,0,0,0
62250259,0,37.4559395,126.9541885,163.39600000000002,181.853,1725533701200158,11141125,0.13000001,0.68228614,0.467,0.85200006,0.53999996,0.84,73,6,0.21300001,0.165,-0.134,0.07300001,5.6005135,0,nan,0.0,0.0,0.0,0,3,1,1,1,31,0,0,0
62347716,0,37.4559396,126.9541883,163.389,181.845,1725533701300158,11141125,0.124000005,0.6986993,0.467,0.85200006,0.53999996,0.84,73,6,0.20700002,0.072000004,-0.194,0.003,5.067451,0,nan,0.0,0.0,0.0,0,3,1,1,1,31,0,0,0
62447986,0,37.4559396,126.95418819999999,163.394,181.851,1725533701400157,11141125,0.157,1.1010362,0.467,0.85200006,0.53999996,0.84,73,6,0.11800001,-0.007,-0.11800001,-0.047000002,5.2760086,0,nan,0.0,0.0,0.0,0,3,1,1,1,31,0,0,0
62549714,0,37.4559395,126.95418799999999,163.412,181.869,1725533701500157,11141125,0.177,0.8010888,0.46600002,0.85200006,0.53999996,0.84,73,6,0.133,-0.091000006,-0.097,-0.047000002,5.2760086,0,nan,0.0,0.0,0.0,0,3,1,1,1,31,0,0,0
62650982,0,37.4559394,126.9541879,163.421,181.87800000000001,1725533701600157,11141125,0.186,1.0606298,0.46600002,0.85200006,0.53999996,0.84,73,6,0.11400001,-0.102000006,-0.051000003,-0.127,5.2760086,0,nan,0.0,0.0,0.0,0,3,1,1,1,31,0,0,0
62750713,0,37.4559393,126.9541879,163.43200000000002,181.889,1725533701700157,11141125,0.178,1.2316108,0.46600002,0.85200006,0.53999996,0.84,73,6,0.112,-0.112,-0.011000001,-0.116000004,5.2760086,0,nan,0.0,0.0,0.0,0,3,1,1,1,31,0,0,0
62841716,0,37.455939199999996,126.9541879,163.454,181.911,1725533701800157,11141125,0.178,1.8233458,0.46600002,0.85200006,0.53999996,0.84,73,5,0.086,-0.075,0.043,-0.15200001,5.2760086,0,nan,0.0,0.0,0.0,0,3,1,1,1,31,0,0,0
62945714,0,37.455939099999995,126.95418799999999,163.47,181.927,1725533701900157,11141125,0.172,1.55798,0.46600002,0.85200006,0.53999996,0.84,73,5,0.101,-0.09200001,0.043,-0.117000006,5.2760086,0,nan,0.0,0.0,0.0,0,3,1,1,1,31,0,0,0
63055715,0,37.455939099999995,126.95418799999999,163.47,181.927,1725533702000157,11141125,0.18400002,2.0491788,0.46600002,0.85200006,0.53999996,0.84,73,5,0.062000003,0.030000001,0.053000003,0.067,5.2760086,0,nan,0.0,0.0,0.0,0,3,1,1,1,31,0,0,0
63152918,0,37.455939099999995,126.9541881,163.465,181.922,1725533702100157,11141125,0.16900001,2.7948334,0.46600002,0.85200006,0.53999996,0.84,73,5,0.054,-0.012,0.053000003,0.061000004,5.2760086,0,nan,0.0,0.0,0.0,0,3,1,1,1,31,0,0,0
63247714,0,37.455939099999995,126.95418819999999,163.46,181.917,1725533702200157,11141125,0.17600001,1.6235188,0.467,0.85200006,0.53999996,0.84,73,5,0.087000005,0.004,0.087000005,0.094000004,5.2760086,0,nan,0.0,0.0,0.0,0,3,1,1,1,31,0,0,0
63348715,0,37.455939099999995,126.9541883,163.445,181.90200000000002,1725533702300157,11141125,0.187,1.0682666,0.467,0.85300004,0.53999996,0.84,73,5,0.119,0.064,0.1,0.13800001,5.2760086,0,nan,0.0,0.0,0.0,0,3,1,1,1,31,0,0,0
63447715,0,37.455939199999996,126.95418839999999,163.436,181.893,1725533702400157,11141125,0.19000001,1.4481734,0.467,0.85300004,0.53999996,0.84,73,5,0.086,0.057000004,0.065000005,0.21000001,5.2760086,0,nan,0.0,0.0,0.0,0,3,1,1,1,32,0,0,0
63547725,0,37.455939199999996,126.9541885,163.43200000000002,181.888,1725533702500157,11141125,0.18800001,2.379094,0.467,0.85300004,0.52,0.78999996,73,5,0.052,0.029000001,0.043,0.23400001,5.2760086,0,nan,0.0,0.0,0.0,0,3,1,1,1,32,0,0,0
63650714,0,37.455939199999996,126.9541886,163.416,181.873,1725533702600157,11141125,0.18100001,0.929974,0.467,0.85300004,0.52,0.78999996,73,5,0.133,0.053000003,0.12200001,0.22900002,5.2760086,0,nan,0.0,0.0,0.0,0,3,1,1,1,32,0,0,0
63743861,0,37.4559393,126.95418869999999,163.392,181.84900000000002,1725533702700157,11141125,0.18100001,0.70338446,0.46600002,0.85300004,0.52,0.78999996,73,5,0.171,0.066,0.157,0.19500001,1.1720654,0,nan,0.0,0.0,0.0,0,3,1,1,1,32,0,0,0
63847937,0,37.4559393,126.95418889999999,163.375,181.832,1725533702800157,11141125,0.18300001,1.1150205,0.46600002,0.85300004,0.52,0.78999996,73,4,0.113000005,0.025,0.11000001,0.2,0.07524603,0,nan,0.0,0.0,0.0,0,3,1,1,1,32,0,0,0
63947762,0,37.4559394,126.954189,163.366,181.823,1725533702900157,11141125,0.18,1.1016461,0.46600002,0.85300004,0.52,0.78999996,73,4,0.11100001,0.061000004,0.093,0.108,0.07524603,0,nan,0.0,0.0,0.0,0,3,1,1,1,32,0,0,0
64055763,0,37.4559395,126.95418919999999,163.356,181.81300000000002,1725533703000157,11141125,0.16800001,0.7225015,0.46600002,0.85300004,0.52,0.78999996,73,4,0.17600001,0.113000005,0.134,0.079,0.86912036,0,nan,0.0,0.0,0.0,0,3,1,1,1,32,0,0,0
64147715,0,37.4559396,126.9541893,163.365,181.821,1725533703100157,11141125,0.17600001,0.8009516,0.46600002,0.85300004,0.52,0.78999996,73,4,0.171,0.11100001,0.13000001,0.098000005,0.46154812,0,nan,0.0,0.0,0.0,0,3,1,1,1,32,0,0,0
64247715,0,37.4559397,126.9541895,163.353,181.81,1725533703200157,11141125,0.17600001,0.6552135,0.46600002,0.85200006,0.52,0.78999996,73,4,0.20300001,0.109000005,0.171,0.148,1.0024889,0,nan,0.0,0.0,0.0,0,3,1,1,1,32,0,0,0
64346714,0,37.455939799999996,126.9541897,163.353,181.81,1725533703300157,11141125,0.17300001,0.59205407,0.46600002,0.85200006,0.52,0.78999996,73,4,0.223,0.16100001,0.15400001,0.13000001,0.7621903,0,nan,0.0,0.0,0.0,0,3,1,1,1,32,0,0,0
64446718,0,37.4559399,126.95418989999999,163.357,181.814,1725533703400157,11141125,0.171,0.6811458,0.46600002,0.85200006,0.52,0.78999996,73,4,0.19100001,0.13800001,0.133,0.104,0.7672973,0,nan,0.0,0.0,0.0,0,3,1,1,1,32,0,0,0
64547717,0,37.45594,126.95419,163.36,181.817,1725533703500157,11141125,0.157,0.7142589,0.46600002,0.85200006,0.52,0.78999996,73,4,0.178,0.102000006,0.14600001,0.038000003,0.96258324,0,nan,0.0,0.0,0.0,0,3,1,1,1,32,0,0,0
64641715,0,37.4559401,126.9541902,163.366,181.823,1725533703600157,11141125,0.15100001,0.65460145,0.46600002,0.85200006,0.52,0.78999996,73,4,0.193,0.13800001,0.134,-0.018000001,0.7705564,0,nan,0.0,0.0,0.0,0,3,1,1,1,32,0,0,0
64749715,0,37.4559402,126.9541903,163.375,181.832,1725533703700157,11141125,0.14600001,1.1357812,0.46600002,0.85200006,0.52,0.78999996,73,4,0.112,0.091000006,0.064,-0.034,0.8105997,0,nan,0.0,0.0,0.0,0,3,1,1,1,32,0,0,0
64850714,0,37.4559403,126.95419039999999,163.38,181.83700000000002,1725533703800157,11141125,0.158,1.3096151,0.46600002,0.851,0.52,0.78999996,73,3,0.1,0.038000003,0.09200001,0.026,0.8105997,0,nan,0.0,0.0,0.0,0,3,1,1,1,32,0,0,0
64950762,0,37.455940399999996,126.9541905,163.37800000000001,181.835,1725533703900157,11141125,0.18200001,1.2328242,0.46600002,0.851,0.52,0.78999996,73,3,0.102000006,0.067,0.07700001,0.096,0.8105997,0,nan,0.0,0.0,0.0,0,3,1,1,1,32,0,0,0
65063715,0,37.455940399999996,126.95419059999999,163.381,181.838,1725533704000157,11141125,0.133,1.8643104,0.46600002,0.851,0.52,0.78999996,73,3,0.080000006,0.078,-0.017,-0.025,0.8105997,0,nan,0.0,0.0,0.0,0,3,1,1,1,32,0,0,0
65153788,0,37.4559405,126.95419059999999,163.38,181.83700000000002,1725533704100157,11141125,0.13100001,3.1415925,0.46600002,0.851,0.52,0.78999996,73,3,0.022000002,-0.008,0.021000002,-0.006,0.8105997,0,nan,0.0,0.0,0.0,0,3,1,1,1,32,0,0,0
65258715,0,37.455940399999996,126.95419059999999,163.387,181.844,1725533704200156,11141125,0.16700001,3.1415925,0.46600002,0.851,0.52,0.78999996,73,3,0.027,-0.010000001,-0.025,0.056,0.8105997,0,nan,0.0,0.0,0.0,0,3,1,1,1,32,0,0,0
65351851,0,37.4559405,126.95419059999999,163.395,181.852,1725533704300156,11141125,0.133,3.1415925,0.46600002,0.851,0.52,0.78999996,73,3,0.042000003,0.042000003,0.002,-0.018000001,0.8105997,0,nan,0.0,0.0,0.0,0,3,1,1,1,32,0,0,0
65454715,0,37.4559405,126.95419059999999,163.40200000000002,181.858,1725533704400156,11141125,0.11800001,3.1415925,0.46600002,0.85,0.52,0.78999996,73,3,0.026,-0.022000002,0.015000001,0.001,0.8105997,0,nan,0.0,0.0,0.0,0,3,1,1,1,32,0,0,0
65544734,0,37.4559405,126.95419059999999,163.406,181.863,1725533704500156,11141125,0.185,3.1415925,0.46600002,0.85,0.52,0.78999996,73,3,0.014,0.013,0.007,0.047000002,0.8105997,0,nan,0.0,0.0,0.0,0,3,1,1,1,32,0,0,0
65653715,0,37.4559405,126.95419059999999,163.404,181.86,1725533704600156,11141125,0.158,3.1415925,0.46600002,0.85,0.52,0.78999996,73,3,0.021000002,0.012,-0.017,0.023000002,0.8105997,0,nan,0.0,0.0,0.0,0,3,1,1,1,32,0,0,0
65752715,0,37.4559405,126.95419059999999,163.412,181.869,1725533704700156,11141125,0.124000005,3.1415925,0.46600002,0.85,0.52,0.78999996,73,3,0.016,-0.008,0.014,-0.001,0.8105997,0,nan,0.0,0.0,0.0,0,3,1,1,1,32,0,0,0
65853715,0,37.4559405,126.9541907,163.411,181.868,1725533704800156,11141125,0.18100001,3.1415925,0.46600002,0.85,0.52,0.78999996,73,3,0.031000001,0.031000001,0.004,0.051000003,0.8105997,0,nan,0.0,0.0,0.0,0,3,1,1,1,32,0,0,0
65952714,0,37.4559405,126.9541907,163.416,181.873,1725533704900156,11141125,0.14600001,3.1415925,0.46500003,0.85,0.52,0.78999996,73,3,0.009000001,-0.001,0.009000001,0.014,0.8105997,0,nan,0.0,0.0,0.0,0,3,1,1,1,32,0,0,0
66062715,0,37.4559405,126.9541907,163.42600000000002,181.883,1725533705000156,11141125,0.17,3.1415925,0.46500003,0.84900004,0.52,0.78999996,73,3,0.007,-0.003,-0.006,0.044000003,0.8105997,0,nan,0.0,0.0,0.0,0,3,1,1,1,32,0,0,0
66150718,0,37.4559405,126.9541907,163.434,181.891,1725533705100156,11141125,0.17600001,2.1206884,0.46500003,0.84900004,0.52,0.78999996,73,3,0.055000003,0.038000003,0.040000003,0.034,0.8105997,0,nan,0.0,0.0,0.0,0,3,1,1,1,32,0,0,0
66247717,0,37.4559405,126.9541907,163.439,181.895,1725533705200156,11141125,0.141,3.1415925,0.46500003,0.84900004,0.52,0.78999996,73,3,0.039,-0.039,0.0050000004,-0.012,0.8105997,0,nan,0.0,0.0,0.0,0,3,1,1,1,32,0,0,0
66347960,0,37.4559405,126.9541907,163.448,181.904,1725533705300156,11141125,0.149,3.1415925,0.46500003,0.84900004,0.52,0.78999996,73,3,0.028,-0.012,-0.026,0.001,0.8105997,0,nan,0.0,0.0,0.0,0,3,1,1,1,32,0,0,0
66476136,0,37.4559405,126.9541907,163.452,181.909,1725533705400156,11141125,0.149,3.1415925,0.46500003,0.84900004,0.52,0.78999996,73,3,0.016,-0.002,0.016,0.009000001,0.8105997,0,nan,0.0,0.0,0.0,0,3,1,1,1,32,0,0,0
66552715,0,37.4559405,126.9541907,163.457,181.91400000000002,1725533705500156,11141125,0.13800001,1.890009,0.46500003,0.84800005,0.52,0.78999996,73,3,0.074,0.012,-0.07300001,-0.020000001,0.8105997,0,nan,0.0,0.0,0.0,0,3,1,1,1,32,0,0,0
66653750,0,37.4559405,126.9541907,163.465,181.922,1725533705600156,11141125,0.163,3.1415925,0.46500003,0.84800005,0.52,0.78999996,73,3,0.019000001,0.019000001,0.001,0.013,0.8105997,0,nan,0.0,0.0,0.0,0,3,1,1,1,32,0,0,0
66753716,0,37.4559405,126.9541907,163.465,181.921,1725533705700156,11141125,0.157,3.1415925,0.46500003,0.84800005,0.52,0.78999996,73,3,0.022000002,-0.017,0.013,0.034,0.8105997,0,nan,0.0,0.0,0.0,0,3,1,1,1,32,0,0,0
66851716,0,37.4559405,126.9541907,163.464,181.921,1725533705800156,11141125,0.132,3.1415925,0.46500003,0.84800005,0.52,0.78999996,73,4,0.012,0.004,-0.012,-0.003,0.8105997,0,nan,0.0,0.0,0.0,0,3,1,1,1,32,0,0,0
66951715,0,37.4559405,126.9541907,163.478,181.934,1725533705900156,11141125,0.14500001,3.1415925,0.46500003,0.84800005,0.52,0.78999996,73,4,0.025,-0.019000001,-0.016,0.015000001,0.8105997,0,nan,0.0,0.0,0.0,0,3,1,1,1,32,0,0,0
67063717,0,37.4559405,126.9541907,163.479,181.936,1725533706000156,11141125,0.17400001,3.1415925,0.46500003,0.84700006,0.52,0.78999996,73,4,0.019000001,-0.002,0.019000001,0.046000004,0.8105997,0,nan,0.0,0.0,0.0,0,3,1,1,1,32,0,0,0
