timestamp,timestamp_sample,latitude_deg,longitude_deg,altitude_msl_m,altitude_ellipsoid_m,time_utc_usec,device_id,s_variance_m_s,c_variance_rad,eph,epv,hdop,vdop,noise_per_ms,jamming_indicator,vel_m_s,vel_n_m_s,vel_e_m_s,vel_d_m_s,cog_rad,timestamp_time_relative,heading,heading_offset,heading_accuracy,rtcm_injection_rate,automatic_gain_control,fix_type,jamming_state,spoofing_state,vel_ned_valid,satellites_used,selected_rtcm_instance,rtcm_crc_failed,rtcm_msg_used
181444000,0,36.6610878,126.3422039,0.13,0.13,1725513260469596,0,0.25,0.5,1.0,1.0,0.0,0.0,0,0,0.0,0.0,0.0,0.0,1.9099138,0,nan,nan,0.0,0.0,0,3,0,0,1,10,0,0,0
181652000,0,36.661087699999996,126.3422039,0.13,0.13,1725513260681596,0,0.25,0.5,1.0,1.0,0.0,0.0,0,0,0.0,-0.01,0.0,-0.03,3.2826152,0,nan,nan,0.0,0.0,0,3,0,0,1,10,0,0,0
182016000,0,36.661087699999996,126.3422039,0.135,0.135,1725513261045596,0,0.25,0.5,1.0,1.0,0.0,0.0,0,0,0.0,-0.02,0.01,-0.01,2.4670227,0,nan,nan,0.0,0.0,0,3,0,0,1,10,0,0,0
182224000,0,36.661087699999996,126.3422039,0.123,0.123,1725513261249596,0,0.25,0.5,1.0,1.0,0.0,0.0,0,0,0.0,0.0,-0.02,0.03,4.479911,0,nan,nan,0.0,0.0,0,3,0,0,1,10,0,0,0
182432000,0,36.661087699999996,126.3422039,0.121,0.121,1725513261461596,0,0.25,0.5,1.0,1.0,0.0,0.0,0,0,0.0,0.01,0.0,0.0,5.7105427,0,nan,nan,0.0,0.0,0,3,0,0,1,10,0,0,0
182640000,0,36.661087699999996,126.3422039,0.117,0.117,1725513261665596,0,0.25,0.5,1.0,1.0,0.0,0.0,0,0,0.0,0.0,-0.03,-0.02,4.9050736,0,nan,nan,0.0,0.0,0,3,0,0,1,10,0,0,0
182848000,0,36.661087699999996,126.3422039,0.123,0.123,1725513261877596,0,0.25,0.5,1.0,1.0,0.0,0.0,0,0,0.0,-0.01,-0.02,-0.01,4.2521453,0,nan,nan,0.0,0.0,0,3,0,0,1,10,0,0,0
183212000,0,36.661087699999996,126.3422039,0.12,0.12,1725513262241596,0,0.25,0.5,1.0,1.0,0.0,0.0,0,0,0.0,0.01,0.01,0.0,0.606851,0,nan,nan,0.0,0.0,0,3,0,0,1,10,0,0,0
183420000,0,36.661087699999996,126.3422039,0.122,0.122,1725513262445596,0,0.25,0.5,1.0,1.0,0.0,0.0,0,0,0.0,0.0,0.0,-0.01,0.6939429,0,nan,nan,0.0,0.0,0,3,0,0,1,10,0,0,0
183628000,0,36.661087699999996,126.3422039,0.131,0.131,1725513262657596,0,0.25,0.5,1.0,1.0,0.0,0.0,0,0,0.0,0.0,-0.01,-0.04,4.529478,0,nan,nan,0.0,0.0,0,3,0,0,1,10,0,0,0
183836000,0,36.661087699999996,126.342204,0.129,0.129,1725513262861596,0,0.25,0.5,1.0,1.0,0.0,0.0,0,0,0.0,0.01,-0.01,0.01,5.7360244,0,nan,nan,0.0,0.0,0,3,0,0,1,10,0,0,0
184044000,0,36.661087699999996,126.3422039,0.129,0.129,1725513263073596,0,0.25,0.5,1.0,1.0,0.0,0.0,0,0,0.0,0.0,0.0,0.02,4.5064397,0,nan,nan,0.0,0.0,0,3,0,0,1,10,0,0,0
184252000,0,36.661087699999996,126.342204,0.135,0.135,1725513263277596,0,0.25,0.5,1.0,1.0,0.0,0.0,0,0,0.0,-0.01,0.02,-0.04,2.0034635,0,nan,nan,0.0,0.0,0,3,0,0,1,10,0,0,0
184616000,0,36.6610878,126.3422039,0.132,0.132,1725513263641596,0,0.25,0.5,1.0,1.0,0.0,0.0,0,0,0.02,0.0,0.0,-0.03,5.7334065,0,nan,nan,0.0,0.0,0,3,0,0,1,10,0,0,0
184824000,0,36.6610878,126.3422039,0.148,0.148,1725513263853596,0,0.25,0.5,1.0,1.0,0.0,0.0,0,0,0.04,0.03,0.0,-0.099999994,0.2698279,0,nan,nan,0.0,0.0,0,3,0,0,1,10,0,0,0
185032000,0,36.6610878,126.34220409999999,0.17400000000000002,0.17400000000000002,1725513264057596,0,0.25,0.5,1.0,1.0,0.0,0.0,0,0,0.06,0.03,0.049999997,-0.049999997,1.0035644,0,nan,nan,0.0,0.0,0,3,0,0,1,10,0,0,0
185240000,0,36.6610879,126.3422042,0.192,0.192,1725513264269596,0,0.25,0.5,1.0,1.0,0.0,0.0,0,0,0.06,0.06,0.04,-0.11,0.5848598,0,nan,nan,0.0,0.0,0,3,0,0,1,10,0,0,0
185448000,0,36.6610881,126.34220429999999,0.217,0.217,1725513264473596,0,0.25,0.5,1.0,1.0,0.0,0.0,0,0,0.06,0.07,0.03,-0.12,0.4394739,0,nan,nan,0.0,0.0,0,3,0,0,1,10,0,0,0
185812000,0,36.6610882,126.3422049,0.28300000000000003,0.28300000000000003,1725513264837596,0,0.25,0.5,1.0,1.0,0.0,0.0,0,0,0.19999999,0.02,0.21,-0.28,1.4667747,0,nan,nan,0.0,0.0,0,3,0,0,1,10,0,0,0
186020000,0,36.6610882,126.34220529999999,0.373,0.373,1725513265049596,0,0.25,0.5,1.0,1.0,0.0,0.0,0,0,0.19,0.01,0.19999999,-0.61,1.4748032,0,nan,nan,0.0,0.0,0,3,0,0,1,10,0,0,0
186228000,0,36.6610882,126.3422057,0.503,0.503,1725513265253596,0,0.25,0.5,1.0,1.0,0.0,0.0,0,0,0.12,0.01,0.099999994,-0.71999997,1.476025,0,nan,nan,0.0,0.0,0,3,0,0,1,10,0,0,0
186436000,0,36.661088299999996,126.3422059,0.684,0.684,1725513265465596,0,0.25,0.5,1.0,1.0,0.0,0.0,0,0,0.04,0.02,0.03,-0.81,0.9683086,0,nan,nan,0.0,0.0,0,3,0,0,1,10,0,0,0
186644000,0,36.661088299999996,126.3422059,0.86,0.86,1725513265669596,0,0.25,0.5,1.0,1.0,0.0,0.0,0,0,0.04,0.03,-0.01,-1.0,5.7810535,0,nan,nan,0.0,0.0,0,3,0,0,1,10,0,0,0
186852000,0,36.661088299999996,126.3422057,1.09,1.09,1725513265881596,0,0.25,0.5,1.0,1.0,0.0,0.0,0,0,0.12,-0.03,-0.13,-1.14,4.466821,0,nan,nan,0.0,0.0,0,3,0,0,1,10,0,0,0
187216000,0,36.661088299999996,126.34220499999999,1.55,1.55,1725513266245596,0,0.25,0.5,1.0,1.0,0.0,0.0,0,0,0.21,-0.03,-0.22,-1.37,4.5635123,0,nan,nan,0.0,0.0,0,3,0,0,1,10,0,0,0
187424000,0,36.661088299999996,126.3422044,1.839,1.839,1725513266449596,0,0.25,0.5,1.0,1.0,0.0,0.0,0,0,0.24,0.0,-0.22999999,-1.35,4.721639,0,nan,nan,0.0,0.0,0,3,0,0,1,10,0,0,0
187632000,0,36.6610882,126.3422039,2.117,2.117,1725513266661596,0,0.25,0.5,1.0,1.0,0.0,0.0,0,0,0.24,-0.03,-0.25,-1.36,4.585678,0,nan,nan,0.0,0.0,0,3,0,0,1,10,0,0,0
187840000,0,36.6610882,126.3422033,2.387,2.387,1725513266865596,0,0.25,0.5,1.0,1.0,0.0,0.0,0,0,0.24,-0.03,-0.25,-1.3299999,4.576253,0,nan,nan,0.0,0.0,0,3,0,0,1,10,0,0,0
188048000,0,36.6610882,126.34220269999999,2.692,2.692,1725513267077596,0,0.25,0.5,1.0,1.0,0.0,0.0,0,0,0.22,0.0,-0.22,-1.37,4.7483425,0,nan,nan,0.0,0.0,0,3,0,0,1,10,0,0,0
188412000,0,36.6610882,126.342202,3.168,3.168,1725513267437596,0,0.25,0.5,1.0,1.0,0.0,0.0,0,0,0.14,0.01,-0.14,-1.27,4.7947683,0,nan,nan,0.0,0.0,0,3,0,0,1,10,0,0,0
188620000,0,36.661088299999996,126.34220169999999,3.424,3.424,1725513267649596,0,0.25,0.5,1.0,1.0,0.0,0.0,0,0,0.099999994,0.03,-0.089999996,-1.16,5.1059604,0,nan,nan,0.0,0.0,0,3,0,0,1,10,0,0,0
188828000,0,36.661088299999996,126.34220149999999,3.665,3.665,1725513267857596,0,0.25,0.5,1.0,1.0,0.0,0.0,0,0,0.049999997,0.01,-0.06,-1.11,4.970174,0,nan,nan,0.0,0.0,0,3,0,0,1,10,0,0,0
189036000,0,36.661088299999996,126.3422014,3.869,3.869,1725513268061596,0,0.25,0.5,1.0,1.0,0.0,0.0,0,0,0.01,0.0,-0.03,-1.03,4.5064397,0,nan,nan,0.0,0.0,0,3,0,0,1,10,0,0,0
189244000,0,36.661088299999996,126.3422014,4.081,4.081,1725513268273596,0,0.25,0.5,1.0,1.0,0.0,0.0,0,0,0.03,-0.04,0.02,-0.88,2.5605724,0,nan,nan,0.0,0.0,0,3,0,0,1,10,0,0,0
189452000,0,36.661088299999996,126.34220149999999,4.258,4.258,1725513268477596,0,0.25,0.5,1.0,1.0,0.0,0.0,0,0,0.06,-0.01,0.07,-0.78999996,1.7249088,0,nan,nan,0.0,0.0,0,3,0,0,1,10,0,0,0
189816000,0,36.6610881,126.34220189999999,4.526,4.526,1725513268845596,0,0.25,0.5,1.0,1.0,0.0,0.0,0,0,0.11,-0.03,0.089999996,-0.7,1.9043287,0,nan,nan,0.0,0.0,0,3,0,0,1,10,0,0,0
190028000,0,36.661088,126.3422021,4.572,4.572,1725513269049596,0,0.25,0.5,1.0,1.0,0.0,0.0,0,0,0.099999994,-0.07,0.07,0.02,2.360383,0,nan,nan,0.0,0.0,0,3,0,0,1,10,0,0,0
190232000,0,36.661088,126.3422023,4.5600000000000005,4.5600000000000005,1725513269261596,0,0.25,0.5,1.0,1.0,0.0,0.0,0,0,0.049999997,-0.02,0.06,0.07,1.8950784,0,nan,nan,0.0,0.0,0,3,0,0,1,10,0,0,0
190440000,0,36.661088,126.34220239999999,4.55,4.55,1725513269465596,0,0.25,0.5,1.0,1.0,0.0,0.0,0,0,0.03,0.0,0.03,0.04,1.397136,0,nan,nan,0.0,0.0,0,3,0,0,1,10,0,0,0
190648000,0,36.6610881,126.34220239999999,4.556,4.556,1725513269677596,0,0.25,0.5,1.0,1.0,0.0,0.0,0,0,0.04,0.02,0.02,-0.03,0.8264134,0,nan,nan,0.0,0.0,0,3,0,0,1,10,0,0,0
191012000,0,36.6610882,126.34220239999999,4.626,4.626,1725513270041596,0,0.25,0.5,1.0,1.0,0.0,0.0,0,0,0.04,0.03,-0.04,-0.24,5.445776,0,nan,nan,0.0,0.0,0,3,0,0,1,10,0,0,0
191220000,0,36.6610882,126.34220239999999,4.683,4.683,1725513270245596,0,0.25,0.5,1.0,1.0,0.0,0.0,0,0,0.049999997,0.049999997,-0.01,-0.38,5.9541907,0,nan,nan,0.0,0.0,0,3,0,0,1,10,0,0,0
191428000,0,36.661088299999996,126.3422023,4.775,4.775,1725513270457596,0,0.25,0.5,1.0,1.0,0.0,0.0,0,0,0.06,0.049999997,-0.07,-0.51,5.2928853,0,nan,nan,0.0,0.0,0,3,0,0,1,10,0,0,0
191636000,0,36.6610884,126.3422021,4.891,4.891,1725513270661596,0,0.25,0.5,1.0,1.0,0.0,0.0,0,0,0.07,0.03,-0.06,-0.65,5.231275,0,nan,nan,0.0,0.0,0,3,0,0,1,10,0,0,0
191844000,0,36.6610885,126.342202,5.055,5.055,1725513270873596,0,0.25,0.5,1.0,1.0,0.0,0.0,0,0,0.04,0.03,-0.049999997,-0.84999996,5.2317986,0,nan,nan,0.0,0.0,0,3,0,0,1,10,0,0,0
192052000,0,36.6610885,126.342202,5.248,5.248,1725513271077596,0,0.25,0.5,1.0,1.0,0.0,0.0,0,0,0.02,0.02,0.0,-1.0,0.15498523,0,nan,nan,0.0,0.0,0,3,0,0,1,10,0,0,0
192420000,0,36.6610886,126.34220189999999,5.6370000000000005,5.6370000000000005,1725513271441596,0,0.25,0.5,1.0,1.0,0.0,0.0,0,0,0.07,0.099999994,-0.01,-1.17,6.143384,0,nan,nan,0.0,0.0,0,3,0,0,1,10,0,0,0
192624000,0,36.6610888,126.3422018,5.899,5.899,1725513271653596,0,0.25,0.5,1.0,1.0,0.0,0.0,0,0,0.089999996,0.089999996,-0.02,-1.35,6.0779343,0,nan,nan,0.0,0.0,0,3,0,0,1,10,0,0,0
192832000,0,36.661089,126.34220189999999,6.191,6.191,1725513271857596,0,0.25,0.5,1.0,1.0,0.0,0.0,0,0,0.089999996,0.089999996,0.03,-1.43,0.30351275,0,nan,nan,0.0,0.0,0,3,0,0,1,10,0,0,0
193044000,0,36.6610891,126.342202,6.51,6.51,1725513272069596,0,0.25,0.5,1.0,1.0,0.0,0.0,0,0,0.099999994,0.08,0.04,-1.5799999,0.50440013,0,nan,nan,0.0,0.0,0,3,0,0,1,10,0,0,0
193248000,0,36.6610893,126.3422021,6.833,6.833,1725513272273596,0,0.25,0.5,1.0,1.0,0.0,0.0,0,0,0.07,0.07,0.049999997,-1.68,0.6538003,0,nan,nan,0.0,0.0,0,3,0,0,1,10,0,0,0
193612000,0,36.6610894,126.34220219999999,7.509,7.509,1725513272637596,0,0.25,0.5,1.0,1.0,0.0,0.0,0,0,0.01,0.01,0.0,-1.91,6.220702,0,nan,nan,0.0,0.0,0,3,0,0,1,10,0,0,0
193820000,0,36.6610894,126.34220219999999,7.938,7.938,1725513272849596,0,0.25,0.5,1.0,1.0,0.0,0.0,0,0,0.01,0.0,0.01,-2.1,1.2571607,0,nan,nan,0.0,0.0,0,3,0,0,1,10,0,0,0
194028000,0,36.661089499999996,126.34220219999999,8.373,8.373,1725513273053596,0,0.25,0.5,1.0,1.0,0.0,0.0,0,0,0.02,-0.02,0.02,-2.28,2.4849997,0,nan,nan,0.0,0.0,0,3,0,0,1,10,0,0,0
194236000,0,36.6610894,126.3422023,8.854000000000001,8.854000000000001,1725513273265596,0,0.25,0.5,1.0,1.0,0.0,0.0,0,0,0.03,-0.02,0.03,-2.36,2.154958,0,nan,nan,0.0,0.0,0,3,0,0,1,10,0,0,0
194444000,0,36.6610893,126.34220239999999,9.354000000000001,9.354000000000001,1725513273469596,0,0.25,0.5,1.0,1.0,0.0,0.0,0,0,0.04,-0.03,0.02,-2.49,2.5560346,0,nan,nan,0.0,0.0,0,3,0,0,1,10,0,0,0
194652000,0,36.6610892,126.3422025,9.876,9.876,1725513273681596,0,0.25,0.5,1.0,1.0,0.0,0.0,0,0,0.04,-0.04,0.03,-2.5,2.4279275,0,nan,nan,0.0,0.0,0,3,0,0,1,10,0,0,0
195016000,0,36.6610892,126.3422026,10.812,10.812,1725513274045596,0,0.25,0.5,1.0,1.0,0.0,0.0,0,0,0.0,0.0,0.0,-2.69,2.3661427,0,nan,nan,0.0,0.0,0,3,0,0,1,10,0,0,0
195228000,0,36.6610892,126.3422025,11.362,11.362,1725513274249596,0,0.25,0.5,1.0,1.0,0.0,0.0,0,0,0.01,0.0,-0.02,-2.69,4.337492,0,nan,nan,0.0,0.0,0,3,0,0,1,10,0,0,0
195432000,0,36.6610892,126.3422025,11.954,11.954,1725513274461596,0,0.25,0.5,1.0,1.0,0.0,0.0,0,0,0.04,0.02,-0.04,-2.82,5.219058,0,nan,nan,0.0,0.0,0,3,0,0,1,10,0,0,0
195640000,0,36.6610893,126.3422023,12.540000000000001,12.540000000000001,1725513274665596,0,0.25,0.5,1.0,1.0,0.0,0.0,0,0,0.049999997,0.03,-0.04,-2.99,5.426752,0,nan,nan,0.0,0.0,0,3,0,0,1,10,0,0,0
195848000,0,36.6610893,126.34220219999999,13.202,13.202,1725513274877596,0,0.25,0.5,1.0,1.0,0.0,0.0,0,0,0.06,0.01,-0.06,-3.1799998,4.965811,0,nan,nan,0.0,0.0,0,3,0,0,1,10,0,0,0
196212000,0,36.6610893,126.34220189999999,14.361,14.361,1725513275241596,0,0.25,0.5,1.0,1.0,0.0,0.0,0,0,0.08,0.01,-0.07,-3.07,4.8946013,0,nan,nan,0.0,0.0,0,3,0,0,1,10,0,0,0
196420000,0,36.6610893,126.34220169999999,14.992,14.992,1725513275445596,0,0.25,0.5,1.0,1.0,0.0,0.0,0,0,0.06,0.0,-0.07,-2.97,4.8101273,0,nan,nan,0.0,0.0,0,3,0,0,1,10,0,0,0
196628000,0,36.6610893,126.34220169999999,15.620000000000001,15.620000000000001,1725513275657596,0,0.25,0.5,1.0,1.0,0.0,0.0,0,0,0.04,0.0,-0.04,-3.01,4.5078363,0,nan,nan,0.0,0.0,0,3,0,0,1,10,0,0,0
196836000,0,36.6610893,126.3422016,16.234,16.234,1725513275861596,0,0.25,0.5,1.0,1.0,0.0,0.0,0,0,0.089999996,-0.06,-0.049999997,-3.06,3.8086574,0,nan,nan,0.0,0.0,0,3,0,0,1,10,0,0,0
197044000,0,36.6610891,126.3422014,16.899,16.899,1725513276073596,0,0.25,0.5,1.0,1.0,0.0,0.0,0,0,0.13,-0.08,-0.089999996,-3.1,3.9755108,0,nan,nan,0.0,0.0,0,3,0,0,1,10,0,0,0
197252000,0,36.661088899999996,126.34220119999999,17.529,17.529,1725513276277596,0,0.25,0.5,1.0,1.0,0.0,0.0,0,0,0.14,-0.099999994,-0.06,-3.07,3.722089,0,nan,nan,0.0,0.0,0,3,0,0,1,10,0,0,0
197616000,0,36.6610884,126.3422009,18.641000000000002,18.641000000000002,1725513276641596,0,0.25,0.5,1.0,1.0,0.0,0.0,0,0,0.16,-0.13,-0.049999997,-3.07,3.5398767,0,nan,nan,0.0,0.0,0,3,0,0,1,10,0,0,0
197824000,0,36.6610881,126.34220069999999,19.291,19.291,1725513276853596,0,0.25,0.5,1.0,1.0,0.0,0.0,0,0,0.22,-0.22,-0.099999994,-3.12,3.5664058,0,nan,nan,0.0,0.0,0,3,0,0,1,10,0,0,0
198032000,0,36.661087699999996,126.34220049999999,19.933,19.933,1725513277057596,0,0.25,0.5,1.0,1.0,0.0,0.0,0,0,0.25,-0.22,-0.089999996,-3.1,3.55733,0,nan,nan,0.0,0.0,0,3,0,0,1,10,0,0,0
198240000,0,36.6610873,126.34220029999999,20.589000000000002,20.589000000000002,1725513277269596,0,0.25,0.5,1.0,1.0,0.0,0.0,0,0,0.25,-0.22999999,-0.089999996,-3.1399999,3.5332446,0,nan,nan,0.0,0.0,0,3,0,0,1,10,0,0,0
198448000,0,36.6610869,126.34219999999999,21.232,21.232,1725513277473596,0,0.25,0.5,1.0,1.0,0.0,0.0,0,0,0.24,-0.22,-0.11,-3.1399999,3.6110861,0,nan,nan,0.0,0.0,0,3,0,0,1,10,0,0,0
198812000,0,36.6610861,126.3421997,22.369,22.369,1725513277837596,0,0.25,0.5,1.0,1.0,0.0,0.0,0,0,0.24,-0.21,-0.08,-3.11,3.5299284,0,nan,nan,0.0,0.0,0,3,0,0,1,10,0,0,0
199020000,0,36.6610856,126.3421996,23.029,23.029,1725513278049596,0,0.25,0.5,1.0,1.0,0.0,0.0,0,0,0.22999999,-0.22999999,-0.06,-3.12,3.4039156,0,nan,nan,0.0,0.0,0,3,0,0,1,10,0,0,0
199228000,0,36.661085199999995,126.3421994,23.661,23.661,1725513278253596,0,0.25,0.5,1.0,1.0,0.0,0.0,0,0,0.22,-0.22,-0.04,-3.11,3.3370695,0,nan,nan,0.0,0.0,0,3,0,0,1,10,0,0,0
199436000,0,36.6610848,126.3421992,24.32,24.32,1725513278465596,0,0.25,0.5,1.0,1.0,0.0,0.0,0,0,0.22,-0.21,-0.06,-3.05,3.4190998,0,nan,nan,0.0,0.0,0,3,0,0,1,10,0,0,0
199644000,0,36.6610844,126.34219909999999,24.96,24.96,1725513278669596,0,0.25,0.5,1.0,1.0,0.0,0.0,0,0,0.22,-0.19999999,-0.07,-3.07,3.4683182,0,nan,nan,0.0,0.0,0,3,0,0,1,10,0,0,0
199852000,0,36.661083999999995,126.3421989,25.617,25.617,1725513278881596,0,0.25,0.5,1.0,1.0,0.0,0.0,0,0,0.19999999,-0.17999999,-0.07,-3.09,3.5390038,0,nan,nan,0.0,0.0,0,3,0,0,1,10,0,0,0
200216000,0,36.6610835,126.34219859999999,26.732,26.732,1725513279245596,0,0.25,0.5,1.0,1.0,0.0,0.0,0,0,0.16,-0.14999999,-0.089999996,-3.09,3.6980033,0,nan,nan,0.0,0.0,0,3,0,0,1,10,0,0,0
200424000,0,36.6610833,126.3421984,27.358,27.358,1725513279449596,0,0.25,0.5,1.0,1.0,0.0,0.0,0,0,0.13,-0.089999996,-0.07,-3.03,3.796091,0,nan,nan,0.0,0.0,0,3,0,0,1,10,0,0,0
200632000,0,36.661083,126.3421982,28.004,28.004,1725513279661596,0,0.25,0.5,1.0,1.0,0.0,0.0,0,0,0.12,-0.089999996,-0.06,-3.03,3.7473962,0,nan,nan,0.0,0.0,0,3,0,0,1,10,0,0,0
200840000,0,36.6610829,126.34219809999999,28.633,28.633,1725513279865596,0,0.25,0.5,1.0,1.0,0.0,0.0,0,0,0.11,-0.06,-0.06,-3.1,3.965737,0,nan,nan,0.0,0.0,0,3,0,0,1,10,0,0,0
201048000,0,36.6610827,126.3421978,29.286,29.286,1725513280077596,0,0.25,0.5,1.0,1.0,0.0,0.0,0,0,0.12,-0.08,-0.099999994,-3.08,4.0282197,0,nan,nan,0.0,0.0,0,3,0,0,1,10,0,0,0
201412000,0,36.6610825,126.34219739999999,30.396,30.396,1725513280437596,0,0.25,0.5,1.0,1.0,0.0,0.0,0,0,0.14,-0.06,-0.12,-3.04,4.2353907,0,nan,nan,0.0,0.0,0,3,0,0,1,10,0,0,0
201620000,0,36.6610824,126.34219709999999,31.041,31.041,1725513280649596,0,0.25,0.5,1.0,1.0,0.0,0.0,0,0,0.14999999,-0.07,-0.11,-3.03,4.149695,0,nan,nan,0.0,0.0,0,3,0,0,1,10,0,0,0
201828000,0,36.661082199999996,126.34219689999999,31.671,31.671,1725513280857596,0,0.25,0.5,1.0,1.0,0.0,0.0,0,0,0.14,-0.08,-0.099999994,-2.96,4.0111156,0,nan,nan,0.0,0.0,0,3,0,0,1,10,0,0,0
202036000,0,36.6610819,126.3421966,32.276,32.276,1725513281061596,0,0.25,0.5,1.0,1.0,0.0,0.0,0,0,0.13,-0.12,-0.07,-2.97,3.68055,0,nan,nan,0.0,0.0,0,3,0,0,1,10,0,0,0
202244000,0,36.6610817,126.34219639999999,32.914,32.914,1725513281273596,0,0.25,0.5,1.0,1.0,0.0,0.0,0,0,0.13,-0.12,-0.049999997,-3.12,3.5965998,0,nan,nan,0.0,0.0,0,3,0,0,1,10,0,0,0
202452000,0,36.6610815,126.3421963,33.532000000000004,33.532000000000004,1725513281477596,0,0.25,0.5,1.0,1.0,0.0,0.0,0,0,0.13,-0.11,-0.07,-3.1,3.698178,0,nan,nan,0.0,0.0,0,3,0,0,1,10,0,0,0
202816000,0,36.6610812,126.3421959,34.677,34.677,1725513281845596,0,0.25,0.5,1.0,1.0,0.0,0.0,0,0,0.14,-0.13,-0.089999996,-3.08,3.7566464,0,nan,nan,0.0,0.0,0,3,0,0,1,10,0,0,0
203024000,0,36.661080999999996,126.34219569999999,35.300000000000004,35.300000000000004,1725513282049596,0,0.25,0.5,1.0,1.0,0.0,0.0,0,0,0.14999999,-0.13,-0.11,-3.11,3.878296,0,nan,nan,0.0,0.0,0,3,0,0,1,10,0,0,0
203232000,0,36.6610808,126.3421954,35.959,35.959,1725513282261596,0,0.25,0.5,1.0,1.0,0.0,0.0,0,0,0.14,-0.11,-0.11,-3.01,3.8871973,0,nan,nan,0.0,0.0,0,3,0,0,1,10,0,0,0
203440000,0,36.6610806,126.34219519999999,36.568,36.568,1725513282465596,0,0.25,0.5,1.0,1.0,0.0,0.0,0,0,0.12,-0.099999994,-0.04,-2.99,3.494149,0,nan,nan,0.0,0.0,0,3,0,0,1,10,0,0,0
203648000,0,36.661080399999996,126.3421951,37.207,37.207,1725513282677596,0,0.25,0.5,1.0,1.0,0.0,0.0,0,0,0.099999994,-0.07,-0.07,-2.98,3.9275143,0,nan,nan,0.0,0.0,0,3,0,0,1,10,0,0,0
204012000,0,36.6610801,126.34219479999999,38.31,38.31,1725513283041596,0,0.25,0.5,1.0,1.0,0.0,0.0,0,0,0.12,-0.049999997,-0.08,-3.0,4.1624355,0,nan,nan,0.0,0.0,0,3,0,0,1,10,0,0,0
204220000,0,36.66108,126.3421946,38.942,38.942,1725513283245596,0,0.25,0.5,1.0,1.0,0.0,0.0,0,0,0.13,-0.099999994,-0.07,-3.12,3.7983599,0,nan,nan,0.0,0.0,0,3,0,0,1,10,0,0,0
204428000,0,36.661079799999996,126.3421944,39.612,39.612,1725513283457596,0,0.25,0.5,1.0,1.0,0.0,0.0,0,0,0.13,-0.089999996,-0.06,-3.1599998,3.7372732,0,nan,nan,0.0,0.0,0,3,0,0,1,10,0,0,0
204640000,0,36.6610796,126.3421942,40.244,40.244,1725513283661596,0,0.25,0.5,1.0,1.0,0.0,0.0,0,0,0.13,-0.099999994,-0.08,-3.09,3.8037705,0,nan,nan,0.0,0.0,0,3,0,0,1,10,0,0,0
204844000,0,36.6610794,126.34219399999999,40.899,40.899,1725513283873596,0,0.25,0.5,1.0,1.0,0.0,0.0,0,0,0.12,-0.11,-0.06,-3.05,3.6700783,0,nan,nan,0.0,0.0,0,3,0,0,1,10,0,0,0
205056000,0,36.661079199999996,126.3421939,41.52,41.52,1725513284077596,0,0.25,0.5,1.0,1.0,0.0,0.0,0,0,0.12,-0.11,-0.049999997,-3.07,3.551396,0,nan,nan,0.0,0.0,0,3,0,0,1,10,0,0,0
205416000,0,36.6610788,126.3421937,42.659,42.659,1725513284441596,0,0.25,0.5,1.0,1.0,0.0,0.0,0,0,0.11,-0.12,-0.03,-3.03,3.4203217,0,nan,nan,0.0,0.0,0,3,0,0,1,10,0,0,0
205624000,0,36.6610787,126.3421935,43.299,43.299,1725513284653596,0,0.25,0.5,1.0,1.0,0.0,0.0,0,0,0.099999994,-0.08,-0.04,-3.09,3.6032321,0,nan,nan,0.0,0.0,0,3,0,0,1,10,0,0,0
205832000,0,36.661078499999995,126.3421934,43.922000000000004,43.922000000000004,1725513284857596,0,0.25,0.5,1.0,1.0,0.0,0.0,0,0,0.089999996,-0.07,-0.04,-3.06,3.722089,0,nan,nan,0.0,0.0,0,3,0,0,1,10,0,0,0
206040000,0,36.6610783,126.34219329999999,44.582,44.582,1725513285069596,0,0.25,0.5,1.0,1.0,0.0,0.0,0,0,0.089999996,-0.089999996,-0.04,-3.01,3.5793211,0,nan,nan,0.0,0.0,0,3,0,0,1,10,0,0,0
206252000,0,36.6610781,126.3421932,45.198,45.198,1725513285273596,0,0.25,0.5,1.0,1.0,0.0,0.0,0,0,0.11,-0.089999996,-0.07,-3.02,3.803945,0,nan,nan,0.0,0.0,0,3,0,0,1,10,0,0,0
206612000,0,36.661077899999995,126.3421927,46.276,46.276,1725513285637596,0,0.25,0.5,1.0,1.0,0.0,0.0,0,0,0.17,-0.06,-0.17,-2.99,4.376413,0,nan,nan,0.0,0.0,0,3,0,0,1,10,0,0,0
206816000,0,36.6610778,126.3421923,46.913000000000004,46.913000000000004,1725513285849596,0,0.25,0.5,1.0,1.0,0.0,0.0,0,0,0.11,-0.02,-0.099999994,-3.03,4.4732785,0,nan,nan,0.0,0.0,0,3,0,0,1,10,0,0,0
207028000,0,36.6610778,126.34219209999999,47.502,47.502,1725513286053596,0,0.25,0.5,1.0,1.0,0.0,0.0,0,0,0.06,-0.01,-0.06,-2.72,4.430867,0,nan,nan,0.0,0.0,0,3,0,0,1,10,0,0,0
207236000,0,36.6610778,126.342192,48.034,48.034,1725513286265596,0,0.25,0.5,1.0,1.0,0.0,0.0,0,0,0.01,0.0,-0.02,-2.25,4.8125706,0,nan,nan,0.0,0.0,0,3,0,0,1,10,0,0,0
207444000,0,36.6610778,126.342192,48.449,48.449,1725513286469596,0,0.25,0.5,1.0,1.0,0.0,0.0,0,0,0.049999997,0.04,0.03,-1.89,0.7300712,0,nan,nan,0.0,0.0,0,3,0,0,1,10,0,0,0
207652000,0,36.661077899999995,126.34219209999999,48.81,48.81,1725513286681596,0,0.25,0.5,1.0,1.0,0.0,0.0,0,0,0.089999996,0.03,0.07,-1.55,1.0955431,0,nan,nan,0.0,0.0,0,3,0,0,1,10,0,0,0
208016000,0,36.661077999999996,126.3421925,49.287,49.287,1725513287045596,0,0.25,0.5,1.0,1.0,0.0,0.0,0,0,0.08,0.01,0.06,-1.06,1.3515829,0,nan,nan,0.0,0.0,0,3,0,0,1,10,0,0,0
208220000,0,36.661077999999996,126.34219259999999,49.478,49.478,1725513287249596,0,0.25,0.5,1.0,1.0,0.0,0.0,0,0,0.089999996,-0.03,0.08,-0.77,2.020044,0,nan,nan,0.0,0.0,0,3,0,0,1,10,0,0,0
208432000,0,36.661077999999996,126.3421929,49.619,49.619,1725513287461596,0,0.25,0.5,1.0,1.0,0.0,0.0,0,0,0.11,-0.049999997,0.08,-0.59999996,2.1057396,0,nan,nan,0.0,0.0,0,3,0,0,1,10,0,0,0
208640000,0,36.6610778,126.34219309999999,49.724000000000004,49.724000000000004,1725513287665596,0,0.25,0.5,1.0,1.0,0.0,0.0,0,0,0.11,-0.049999997,0.099999994,-0.47,2.0621064,0,nan,nan,0.0,0.0,0,3,0,0,1,10,0,0,0
208848000,0,36.6610778,126.3421934,49.818,49.818,1725513287877596,0,0.25,0.5,1.0,1.0,0.0,0.0,0,0,0.11,-0.02,0.11,-0.39999998,1.7929766,0,nan,nan,0.0,0.0,0,3,0,0,1,10,0,0,0
209212000,0,36.6610777,126.34219379999999,49.917,49.917,1725513288241596,0,0.25,0.5,1.0,1.0,0.0,0.0,0,0,0.12,-0.049999997,0.12,-0.22,2.0038126,0,nan,nan,0.0,0.0,0,3,0,0,1,10,0,0,0
209420000,0,36.6610776,126.3421942,49.968,49.968,1725513288445596,0,0.25,0.5,1.0,1.0,0.0,0.0,0,0,0.17999999,0.0,0.19,-0.25,1.5617205,0,nan,nan,0.0,0.0,0,3,0,0,1,10,0,0,0
209628000,0,36.6610777,126.3421949,50.01,50.01,1725513288657596,0,0.25,0.5,1.0,1.0,0.0,0.0,0,0,0.44,0.16,0.42999998,-0.17,1.1997393,0,nan,nan,0.0,0.0,0,3,0,0,1,10,0,0,0
209836000,0,36.6610783,126.3421963,50.063,50.063,1725513288861596,0,0.25,0.5,1.0,1.0,0.0,0.0,0,0,0.94,0.39,0.84999996,-0.22,1.1323695,0,nan,nan,0.0,0.0,0,3,0,0,1,10,0,0,0
210044000,0,36.6610794,126.3421992,50.102000000000004,50.102000000000004,1725513289073596,0,0.25,0.5,1.0,1.0,0.0,0.0,0,0,1.81,0.79999995,1.63,-0.21,1.1159635,0,nan,nan,0.0,0.0,0,3,0,0,1,10,0,0,0
210252000,0,36.6610813,126.34220409999999,50.139,50.139,1725513289277596,0,0.25,0.5,1.0,1.0,0.0,0.0,0,0,3.06,1.35,2.73,-0.22,1.1110766,0,nan,nan,0.0,0.0,0,3,0,0,1,10,0,0,0
210616000,0,36.661088,126.3422209,50.238,50.238,1725513289641596,0,0.25,0.5,1.0,1.0,0.0,0.0,0,0,6.2599998,2.77,5.64,-0.24,1.1133455,0,nan,nan,0.0,0.0,0,3,0,0,1,10,0,0,0
210824000,0,36.6610942,126.3422368,50.335,50.335,1725513289853596,0,0.25,0.5,1.0,1.0,0.0,0.0,0,0,8.57,3.73,7.7,-0.58,1.1192796,0,nan,nan,0.0,0.0,0,3,0,0,1,10,0,0,0
211032000,0,36.6611019,126.3422571,50.46,50.46,1725513290057596,0,0.25,0.5,1.0,1.0,0.0,0.0,0,0,10.929999,4.65,9.889999,-0.62,1.131497,0,nan,nan,0.0,0.0,0,3,0,0,1,10,0,0,0
211240000,0,36.6611116,126.3422832,50.508,50.508,1725513290269596,0,0.25,0.5,1.0,1.0,0.0,0.0,0,0,13.059999,5.44,11.889999,0.29,1.1414454,0,nan,nan,0.0,0.0,0,3,0,0,1,10,0,0,0
211448000,0,36.6611221,126.3423124,50.373,50.373,1725513290473596,0,0.25,0.5,1.0,1.0,0.0,0.0,0,0,14.74,5.93,13.509999,0.88,1.1566297,0,nan,nan,0.0,0.0,0,3,0,0,1,10,0,0,0
211808000,0,36.6611423,126.34237139999999,49.969,49.969,1725513290837596,0,0.25,0.5,1.0,1.0,0.0,0.0,0,0,16.4,6.2799997,15.13,1.11,1.17705,0,nan,nan,0.0,0.0,0,3,0,0,1,10,0,0,0
212020000,0,36.6611544,126.3424082,49.756,49.756,1725513291049596,0,0.25,0.5,1.0,1.0,0.0,0.0,0,0,16.83,6.3399997,15.57,0.88,1.1838568,0,nan,nan,0.0,0.0,0,3,0,0,1,10,0,0,0
212228000,0,36.661166,126.3424441,49.572,49.572,1725513291253596,0,0.25,0.5,1.0,1.0,0.0,0.0,0,0,16.91,6.31,15.679999,0.84,1.187871,0,nan,nan,0.0,0.0,0,3,0,0,1,10,0,0,0
212436000,0,36.661178,126.34248149999999,49.44,49.44,1725513291465596,0,0.25,0.5,1.0,1.0,0.0,0.0,0,0,16.8,6.25,15.61,0.51,1.189791,0,nan,nan,0.0,0.0,0,3,0,0,1,10,0,0,0
212644000,0,36.6611894,126.3425171,49.367000000000004,49.367000000000004,1725513291669596,0,0.25,0.5,1.0,1.0,0.0,0.0,0,0,16.65,6.19,15.45,0.03,1.1892673,0,nan,nan,0.0,0.0,0,3,0,0,1,10,0,0,0
212852000,0,36.6612013,126.3425539,49.42,49.42,1725513291881596,0,0.25,0.5,1.0,1.0,0.0,0.0,0,0,16.59,6.17,15.41,-0.16,1.1896163,0,nan,nan,0.0,0.0,0,3,0,0,1,10,0,0,0
213216000,0,36.6612216,126.3426167,49.51,49.51,1725513292245596,0,0.25,0.5,1.0,1.0,0.0,0.0,0,0,16.449999,6.14,15.24,-0.12,1.1873474,0,nan,nan,0.0,0.0,0,3,0,0,1,10,0,0,0
213424000,0,36.6612329,126.3426514,49.538000000000004,49.538000000000004,1725513292449596,0,0.25,0.5,1.0,1.0,0.0,0.0,0,0,16.22,6.08,15.04,-0.19999999,1.1866493,0,nan,nan,0.0,0.0,0,3,0,0,1,10,0,0,0
213632000,0,36.6612444,126.342687,49.608000000000004,49.608000000000004,1725513292661596,0,0.25,0.5,1.0,1.0,0.0,0.0,0,0,15.98,6.02,14.82,-0.22,1.1850786,0,nan,nan,0.0,0.0,0,3,0,0,1,10,0,0,0
213840000,0,36.661255499999996,126.34272059999999,49.619,49.619,1725513292865596,0,0.25,0.5,1.0,1.0,0.0,0.0,0,0,15.73,5.98,14.559999,-0.08,1.1807152,0,nan,nan,0.0,0.0,0,3,0,0,1,10,0,0,0
214044000,0,36.6612669,126.342755,49.621,49.621,1725513293077596,0,0.25,0.5,1.0,1.0,0.0,0.0,0,0,15.45,5.98,14.219999,-0.04,1.1725122,0,nan,nan,0.0,0.0,0,3,0,0,1,10,0,0,0
214412000,0,36.6612866,126.34281179999999,49.675000000000004,49.675000000000004,1725513293437596,0,0.25,0.5,1.0,1.0,0.0,0.0,0,0,15.259999,6.15,14.0,0.17999999,1.1568042,0,nan,nan,0.0,0.0,0,3,0,0,1,10,0,0,0
214616000,0,36.6612985,126.3428452,49.596000000000004,49.596000000000004,1725513293649596,0,0.25,0.5,1.0,1.0,0.0,0.0,0,0,15.29,6.27,13.94,0.45,1.147903,0,nan,nan,0.0,0.0,0,3,0,0,1,10,0,0,0
214828000,0,36.6613103,126.34287769999999,49.46,49.46,1725513293857596,0,0.25,0.5,1.0,1.0,0.0,0.0,0,0,15.259999,6.2999997,13.88,0.69,1.1447614,0,nan,nan,0.0,0.0,0,3,0,0,1,10,0,0,0
215036000,0,36.6613219,126.34290949999999,49.342,49.342,1725513294061596,0,0.25,0.5,1.0,1.0,0.0,0.0,0,0,15.21,6.27,13.83,0.58,1.144936,0,nan,nan,0.0,0.0,0,3,0,0,1,10,0,0,0
215244000,0,36.661333899999995,126.3429424,49.213,49.213,1725513294273596,0,0.25,0.5,1.0,1.0,0.0,0.0,0,0,15.15,6.2999997,13.78,0.7,1.1417943,0,nan,nan,0.0,0.0,0,3,0,0,1,10,0,0,0
215452000,0,36.6613456,126.34297389999999,49.065,49.065,1725513294477596,0,0.25,0.5,1.0,1.0,0.0,0.0,0,0,15.049999,6.3599997,13.66,0.71999997,1.134464,0,nan,nan,0.0,0.0,0,3,0,0,1,10,0,0,0
215816000,0,36.661366799999996,126.34302989999999,48.788000000000004,48.788000000000004,1725513294845596,0,0.25,0.5,1.0,1.0,0.0,0.0,0,0,14.87,6.45,13.389999,0.75,1.1215487,0,nan,nan,0.0,0.0,0,3,0,0,1,10,0,0,0
216024000,0,36.6613787,126.3430606,48.634,48.634,1725513295049596,0,0.25,0.5,1.0,1.0,0.0,0.0,0,0,14.759999,6.45,13.299999,0.71999997,1.118756,0,nan,nan,0.0,0.0,0,3,0,0,1,10,0,0,0
216236000,0,36.661391,126.3430922,48.563,48.563,1725513295261596,0,0.25,0.5,1.0,1.0,0.0,0.0,0,0,14.799999,6.48,13.32,-0.19999999,1.1175343,0,nan,nan,0.0,0.0,0,3,0,0,1,10,0,0,0
216440000,0,36.661403,126.3431229,48.508,48.508,1725513295465596,0,0.25,0.5,1.0,1.0,0.0,0.0,0,0,14.99,6.5,13.49,0.87,1.1218976,0,nan,nan,0.0,0.0,0,3,0,0,1,10,0,0,0
216648000,0,36.6614155,126.3431554,48.299,48.299,1725513295677596,0,0.25,0.5,1.0,1.0,0.0,0.0,0,0,15.259999,6.5499997,13.759999,1.11,1.1260864,0,nan,nan,0.0,0.0,0,3,0,0,1,10,0,0,0
217012000,0,36.661437299999996,126.34321209999999,47.919000000000004,47.919000000000004,1725513296041596,0,0.25,0.5,1.0,1.0,0.0,0.0,0,0,15.44,6.75,13.88,0.71999997,1.1178833,0,nan,nan,0.0,0.0,0,3,0,0,1,10,0,0,0
217220000,0,36.6614497,126.34324409999999,47.77,47.77,1725513296245596,0,0.25,0.5,1.0,1.0,0.0,0.0,0,0,15.469999,6.74,13.929999,0.72999996,1.1198032,0,nan,nan,0.0,0.0,0,3,0,0,1,10,0,0,0
217428000,0,36.6614626,126.3432773,47.657000000000004,47.657000000000004,1725513296457596,0,0.25,0.5,1.0,1.0,0.0,0.0,0,0,15.44,6.69,13.91,0.37,1.1225958,0,nan,nan,0.0,0.0,0,3,0,0,1,10,0,0,0
217636000,0,36.6614748,126.3433092,47.598,47.598,1725513296661596,0,0.25,0.5,1.0,1.0,0.0,0.0,0,0,15.37,6.6099997,13.88,0.11,1.1257373,0,nan,nan,0.0,0.0,0,3,0,0,1,10,0,0,0
217840000,0,36.6614875,126.3433421,47.61,47.61,1725513296873596,0,0.25,0.5,1.0,1.0,0.0,0.0,0,0,15.299999,6.64,13.78,-0.16,1.121723,0,nan,nan,0.0,0.0,0,3,0,0,1,10,0,0,0
218052000,0,36.6614998,126.34337359999999,47.659,47.659,1725513297077596,0,0.25,0.5,1.0,1.0,0.0,0.0,0,0,15.23,6.68,13.7,-0.35999998,1.1170107,0,nan,nan,0.0,0.0,0,3,0,0,1,10,0,0,0
218416000,0,36.6615217,126.34342939999999,47.791000000000004,47.791000000000004,1725513297441596,0,0.25,0.5,1.0,1.0,0.0,0.0,0,0,15.17,6.64,13.65,-0.32999998,1.1175343,0,nan,nan,0.0,0.0,0,3,0,0,1,10,0,0,0
218624000,0,36.6615343,126.34346199999999,47.836,47.836,1725513297653596,0,0.25,0.5,1.0,1.0,0.0,0.0,0,0,15.179999,6.58,13.66,-0.19,1.1215487,0,nan,nan,0.0,0.0,0,3,0,0,1,10,0,0,0
218832000,0,36.6615464,126.34349329999999,47.89,47.89,1725513297857596,0,0.25,0.5,1.0,1.0,0.0,0.0,0,0,15.13,6.5,13.67,-0.29999998,1.1266099,0,nan,nan,0.0,0.0,0,3,0,0,1,10,0,0,0
219040000,0,36.6615588,126.34352589999999,47.965,47.965,1725513298069596,0,0.25,0.5,1.0,1.0,0.0,0.0,0,0,15.08,6.43,13.66,-0.41,1.1302752,0,nan,nan,0.0,0.0,0,3,0,0,1,10,0,0,0
219248000,0,36.661570499999996,126.34355719999999,48.064,48.064,1725513298273596,0,0.25,0.5,1.0,1.0,0.0,0.0,0,0,15.0199995,6.39,13.599999,-0.45999998,1.1309732,0,nan,nan,0.0,0.0,0,3,0,0,1,10,0,0,0
219612000,0,36.6615914,126.3436126,48.24,48.24,1725513298637596,0,0.25,0.5,1.0,1.0,0.0,0.0,0,0,14.889999,6.35,13.469999,-0.53,1.1304497,0,nan,nan,0.0,0.0,0,3,0,0,1,10,0,0,0
219820000,0,36.6616036,126.34364459999999,48.334,48.334,1725513298849596,0,0.25,0.5,1.0,1.0,0.0,0.0,0,0,14.86,6.42,13.41,-0.38,1.1238174,0,nan,nan,0.0,0.0,0,3,0,0,1,10,0,0,0
220028000,0,36.661615399999995,126.3436753,48.406,48.406,1725513299053596,0,0.25,0.5,1.0,1.0,0.0,0.0,0,0,14.839999,6.44,13.36,-0.32999998,1.1210248,0,nan,nan,0.0,0.0,0,3,0,0,1,10,0,0,0
220236000,0,36.6616277,126.34370709999999,48.45,48.45,1725513299265596,0,0.25,0.5,1.0,1.0,0.0,0.0,0,0,14.83,6.44,13.34,0.04,1.1206759,0,nan,nan,0.0,0.0,0,3,0,0,1,10,0,0,0
220444000,0,36.6616395,126.3437378,48.442,48.442,1725513299469596,0,0.25,0.5,1.0,1.0,0.0,0.0,0,0,14.78,6.37,13.34,0.03,1.1250392,0,nan,nan,0.0,0.0,0,3,0,0,1,10,0,0,0
220652000,0,36.6616515,126.34376959999999,48.429,48.429,1725513299681596,0,0.25,0.5,1.0,1.0,0.0,0.0,0,0,14.74,6.2799997,13.33,-0.07,1.1306243,0,nan,nan,0.0,0.0,0,3,0,0,1,10,0,0,0
221016000,0,36.6616721,126.3438247,48.406,48.406,1725513300045596,0,0.25,0.5,1.0,1.0,0.0,0.0,0,0,15.0199995,6.2799997,13.639999,0.61,1.1391764,0,nan,nan,0.0,0.0,0,3,0,0,1,10,0,0,0
221228000,0,36.6616837,126.34385619999999,48.242000000000004,48.242000000000004,1725513300249596,0,0.25,0.5,1.0,1.0,0.0,0.0,0,0,15.21,6.29,13.87,1.14,1.1445869,0,nan,nan,0.0,0.0,0,3,0,0,1,10,0,0,0
221432000,0,36.661695699999996,126.3438894,48.041000000000004,48.041000000000004,1725513300461596,0,0.25,0.5,1.0,1.0,0.0,0.0,0,0,15.259999,6.24,13.9,0.81,1.1489502,0,nan,nan,0.0,0.0,0,3,0,0,1,10,0,0,0
221640000,0,36.661707199999995,126.3439214,47.892,47.892,1725513300665596,0,0.25,0.5,1.0,1.0,0.0,0.0,0,0,15.29,6.21,13.969999,0.62,1.1520919,0,nan,nan,0.0,0.0,0,3,0,0,1,10,0,0,0
221848000,0,36.6617191,126.3439549,47.799,47.799,1725513300877596,0,0.25,0.5,1.0,1.0,0.0,0.0,0,0,15.4,6.27,14.059999,0.48,1.1510446,0,nan,nan,0.0,0.0,0,3,0,0,1,10,0,0,0
222212000,0,36.6617399,126.34401279999999,47.598,47.598,1725513301241596,0,0.25,0.5,1.0,1.0,0.0,0.0,0,0,15.65,6.45,14.28,0.35,1.1461576,0,nan,nan,0.0,0.0,0,3,0,0,1,10,0,0,0
222420000,0,36.6617519,126.3440457,47.528,47.528,1725513301445596,0,0.25,0.5,1.0,1.0,0.0,0.0,0,0,15.849999,6.6,14.41,0.42,1.1410962,0,nan,nan,0.0,0.0,0,3,0,0,1,10,0,0,0
222628000,0,36.6617646,126.34408029999999,47.413000000000004,47.413000000000004,1725513301657596,0,0.25,0.5,1.0,1.0,0.0,0.0,0,0,16.039999,6.66,14.599999,0.5,1.1428415,0,nan,nan,0.0,0.0,0,3,0,0,1,10,0,0,0
222836000,0,36.6617767,126.3441139,47.323,47.323,1725513301861596,0,0.25,0.5,1.0,1.0,0.0,0.0,0,0,16.1,6.5499997,14.719999,0.22999999,1.1517427,0,nan,nan,0.0,0.0,0,3,0,0,1,10,0,0,0
223044000,0,36.6617891,126.3441491,47.308,47.308,1725513302073596,0,0.25,0.5,1.0,1.0,0.0,0.0,0,0,16.09,6.41,14.75,-0.14,1.1608185,0,nan,nan,0.0,0.0,0,3,0,0,1,10,0,0,0
223252000,0,36.6618008,126.344183,47.389,47.389,1725513302277596,0,0.25,0.5,1.0,1.0,0.0,0.0,0,0,16.09,6.29,14.83,-0.59999996,1.1693705,0,nan,nan,0.0,0.0,0,3,0,0,1,10,0,0,0
223616000,0,36.6618214,126.3442439,47.568,47.568,1725513302641596,0,0.25,0.5,1.0,1.0,0.0,0.0,0,0,16.21,6.27,14.94,-0.59,1.1730357,0,nan,nan,0.0,0.0,0,3,0,0,1,10,0,0,0
223824000,0,36.6618334,126.3442796,47.637,47.637,1725513302853596,0,0.25,0.5,1.0,1.0,0.0,0.0,0,0,16.22,6.35,14.94,-0.35999998,1.1686724,0,nan,nan,0.0,0.0,0,3,0,0,1,10,0,0,0
224032000,0,36.661845,126.344313,47.721000000000004,47.721000000000004,1725513303053596,0,0.25,0.5,1.0,1.0,0.0,0.0,0,0,16.119999,6.42,14.78,-0.55,1.1606439,0,nan,nan,0.0,0.0,0,3,0,0,1,10,0,0,0
224240000,0,36.6618576,126.3443487,47.870000000000005,47.870000000000005,1725513303269596,0,0.25,0.5,1.0,1.0,0.0,0.0,0,0,16.09,6.58,14.66,-0.77,1.1486012,0,nan,nan,0.0,0.0,0,3,0,0,1,10,0,0,0
224448000,0,36.6618699,126.3443825,47.977000000000004,47.977000000000004,1725513303473596,0,0.25,0.5,1.0,1.0,0.0,0.0,0,0,16.21,6.7599998,14.719999,-0.35999998,1.1398745,0,nan,nan,0.0,0.0,0,3,0,0,1,10,0,0,0
224812000,0,36.6618923,126.34444289999999,48.102000000000004,48.102000000000004,1725513303837596,0,0.25,0.5,1.0,1.0,0.0,0.0,0,0,16.18,6.7,14.75,-0.55,1.1444124,0,nan,nan,0.0,0.0,0,3,0,0,1,10,0,0,0
225020000,0,36.661904899999996,126.3444779,48.26,48.26,1725513304049596,0,0.25,0.5,1.0,1.0,0.0,0.0,0,0,16.0,6.48,14.639999,-0.85999995,1.1538372,0,nan,nan,0.0,0.0,0,3,0,0,1,10,0,0,0
225228000,0,36.6619167,126.3445113,48.451,48.451,1725513304253596,0,0.25,0.5,1.0,1.0,0.0,0.0,0,0,15.839999,6.3199997,14.53,-0.90999997,1.1604694,0,nan,nan,0.0,0.0,0,3,0,0,1,10,0,0,0
225436000,0,36.661928599999996,126.3445457,48.662,48.662,1725513304465596,0,0.25,0.5,1.0,1.0,0.0,0.0,0,0,15.63,6.21,14.309999,-1.04,1.160993,0,nan,nan,0.0,0.0,0,3,0,0,1,10,0,0,0
225644000,0,36.66194,126.3445785,48.881,48.881,1725513304669596,0,0.25,0.5,1.0,1.0,0.0,0.0,0,0,15.429999,6.23,14.12,-1.16,1.1550589,0,nan,nan,0.0,0.0,0,3,0,0,1,10,0,0,0
225852000,0,36.6619521,126.3446118,49.161,49.161,1725513304881596,0,0.25,0.5,1.0,1.0,0.0,0.0,0,0,15.28,6.33,13.9,-1.25,1.1433653,0,nan,nan,0.0,0.0,0,3,0,0,1,10,0,0,0
226216000,0,36.6619734,126.34466809999999,49.555,49.555,1725513305245596,0,0.25,0.5,1.0,1.0,0.0,0.0,0,0,15.15,6.6299996,13.63,-1.0,1.1173598,0,nan,nan,0.0,0.0,0,3,0,0,1,10,0,0,0
226424000,0,36.661985699999995,126.3446992,49.74,49.74,1725513305449596,0,0.25,0.5,1.0,1.0,0.0,0.0,0,0,15.049999,6.72,13.45,-0.9,1.1075859,0,nan,nan,0.0,0.0,0,3,0,0,1,10,0,0,0
226632000,0,36.661998499999996,126.34473109999999,49.934,49.934,1725513305661596,0,0.25,0.5,1.0,1.0,0.0,0.0,0,0,14.95,6.68,13.38,-0.97999996,1.1075859,0,nan,nan,0.0,0.0,0,3,0,0,1,10,0,0,0
226840000,0,36.662010699999996,126.3447619,50.192,50.192,1725513305865596,0,0.25,0.5,1.0,1.0,0.0,0.0,0,0,15.04,6.58,13.53,-1.02,1.1178833,0,nan,nan,0.0,0.0,0,3,0,0,1,10,0,0,0
227048000,0,36.6620231,126.34479449999999,50.297000000000004,50.297000000000004,1725513306077596,0,0.25,0.5,1.0,1.0,0.0,0.0,0,0,15.25,6.47,13.79,-0.02,1.131846,0,nan,nan,0.0,0.0,0,3,0,0,1,10,0,0,0
227412000,0,36.6620436,126.34485149999999,50.116,50.116,1725513306437596,0,0.25,0.5,1.0,1.0,0.0,0.0,0,0,15.49,6.06,14.259999,0.51,1.1686724,0,nan,nan,0.0,0.0,0,3,0,0,1,10,0,0,0
227620000,0,36.662054999999995,126.3448856,50.018,50.018,1725513306649596,0,0.25,0.5,1.0,1.0,0.0,0.0,0,0,15.57,5.93,14.38,0.44,1.179668,0,nan,nan,0.0,0.0,0,3,0,0,1,10,0,0,0
227824000,0,36.6620661,126.34491949999999,49.947,49.947,1725513306857596,0,0.25,0.5,1.0,1.0,0.0,0.0,0,0,15.67,5.8799996,14.5199995,0.28,1.1856022,0,nan,nan,0.0,0.0,0,3,0,0,1,10,0,0,0
228036000,0,36.662077,126.34495279999999,49.917,49.917,1725513307061596,0,0.25,0.5,1.0,1.0,0.0,0.0,0,0,15.719999,5.97,14.5,0.0,1.179668,0,nan,nan,0.0,0.0,0,3,0,0,1,10,0,0,0
228244000,0,36.6620887,126.3449874,49.945,49.945,1725513307273596,0,0.25,0.5,1.0,1.0,0.0,0.0,0,0,15.79,6.25,14.49,-0.089999996,1.1634364,0,nan,nan,0.0,0.0,0,3,0,0,1,10,0,0,0
228452000,0,36.6621005,126.3450206,49.956,49.956,1725513307477596,0,0.25,0.5,1.0,1.0,0.0,0.0,0,0,15.889999,6.52,14.48,-0.03,1.1475539,0,nan,nan,0.0,0.0,0,3,0,0,1,10,0,0,0
228816000,0,36.6621229,126.34508059999999,49.868,49.868,1725513307845596,0,0.25,0.5,1.0,1.0,0.0,0.0,0,0,16.09,6.97,14.49,0.32999998,1.1222466,0,nan,nan,0.0,0.0,0,3,0,0,1,10,0,0,0
229020000,0,36.6621358,126.3451139,49.823,49.823,1725513308049596,0,0.25,0.5,1.0,1.0,0.0,0.0,0,0,16.119999,7.04,14.48,0.12,1.1178833,0,nan,nan,0.0,0.0,0,3,0,0,1,10,0,0,0
229232000,0,36.662149299999996,126.3451484,49.825,49.825,1725513308261596,0,0.25,0.5,1.0,1.0,0.0,0.0,0,0,16.07,6.91,14.5,-0.04,1.1260864,0,nan,nan,0.0,0.0,0,3,0,0,1,10,0,0,0
229440000,0,36.6621617,126.3451817,49.854,49.854,1725513308465596,0,0.25,0.5,1.0,1.0,0.0,0.0,0,0,15.94,6.67,14.49,-0.24,1.1395255,0,nan,nan,0.0,0.0,0,3,0,0,1,10,0,0,0
229648000,0,36.662174199999995,126.3452162,49.898,49.898,1725513308677596,0,0.25,0.5,1.0,1.0,0.0,0.0,0,0,15.809999,6.3999996,14.46,-0.26999998,1.1536626,0,nan,nan,0.0,0.0,0,3,0,0,1,10,0,0,0
230012000,0,36.6621948,126.3452748,50.039,50.039,1725513309041596,0,0.25,0.5,1.0,1.0,0.0,0.0,0,0,15.45,6.19,14.179999,-0.48999998,1.1590731,0,nan,nan,0.0,0.0,0,3,0,0,1,10,0,0,0
230220000,0,36.6622062,126.3453072,50.134,50.134,1725513309245596,0,0.25,0.5,1.0,1.0,0.0,0.0,0,0,15.309999,6.23,14.009999,-0.28,1.1520919,0,nan,nan,0.0,0.0,0,3,0,0,1,10,0,0,0
230428000,0,36.6622182,126.3453402,50.186,50.186,1725513309457596,0,0.25,0.5,1.0,1.0,0.0,0.0,0,0,15.15,6.33,13.7699995,-0.14,1.1400491,0,nan,nan,0.0,0.0,0,3,0,0,1,10,0,0,0
230636000,0,36.66223,126.3453715,50.207,50.207,1725513309661596,0,0.25,0.5,1.0,1.0,0.0,0.0,0,0,15.009999,6.42,13.58,-0.099999994,1.128879,0,nan,nan,0.0,0.0,0,3,0,0,1,10,0,0,0
230844000,0,36.662242299999996,126.3454038,50.299,50.299,1725513309873596,0,0.25,0.5,1.0,1.0,0.0,0.0,0,0,14.95,6.43,13.5,-0.28,1.1260864,0,nan,nan,0.0,0.0,0,3,0,0,1,10,0,0,0
231052000,0,36.6622541,126.34543479999999,50.298,50.298,1725513310077596,0,0.25,0.5,1.0,1.0,0.0,0.0,0,0,15.0199995,6.43,13.59,0.17,1.1287044,0,nan,nan,0.0,0.0,0,3,0,0,1,10,0,0,0
231416000,0,36.662275099999995,126.3454905,50.14,50.14,1725513310441596,0,0.25,0.5,1.0,1.0,0.0,0.0,0,0,14.929999,6.33,13.54,0.48999998,1.1334168,0,nan,nan,0.0,0.0,0,3,0,0,1,10,0,0,0
231628000,0,36.6622871,126.3455225,50.047000000000004,50.047000000000004,1725513310653596,0,0.25,0.5,1.0,1.0,0.0,0.0,0,0,14.78,6.22,13.41,0.32,1.1360347,0,nan,nan,0.0,0.0,0,3,0,0,1,10,0,0,0
231832000,0,36.6622984,126.3455534,50.068,50.068,1725513310857596,0,0.25,0.5,1.0,1.0,0.0,0.0,0,0,14.83,6.1299996,13.5,0.089999996,1.1442378,0,nan,nan,0.0,0.0,0,3,0,0,1,10,0,0,0
232040000,0,36.6623101,126.34558589999999,49.951,49.951,1725513311069596,0,0.25,0.5,1.0,1.0,0.0,0.0,0,0,15.04,6.15,13.71,0.89,1.1491247,0,nan,nan,0.0,0.0,0,3,0,0,1,10,0,0,0
232252000,0,36.6623215,126.3456176,49.728,49.728,1725513311273596,0,0.25,0.5,1.0,1.0,0.0,0.0,0,0,15.2,6.23,13.86,1.3,1.1484265,0,nan,nan,0.0,0.0,0,3,0,0,1,10,0,0,0
232612000,0,36.662342699999996,126.3456741,49.4,49.4,1725513311637596,0,0.25,0.5,1.0,1.0,0.0,0.0,0,0,15.259999,6.7599998,13.679999,0.75,1.1112511,0,nan,nan,0.0,0.0,0,3,0,0,1,10,0,0,0
232820000,0,36.6623562,126.34570649999999,49.238,49.238,1725513311849596,0,0.25,0.5,1.0,1.0,0.0,0.0,0,0,15.429999,7.2799997,13.58,0.91999996,1.0787879,0,nan,nan,0.0,0.0,0,3,0,0,1,10,0,0,0
233028000,0,36.662369999999996,126.34573759999999,49.018,49.018,1725513312053596,0,0.25,0.5,1.0,1.0,0.0,0.0,0,0,15.63,7.75,13.59,1.17,1.0520844,0,nan,nan,0.0,0.0,0,3,0,0,1,10,0,0,0
233236000,0,36.6623854,126.3457699,48.779,48.779,1725513312265596,0,0.25,0.5,1.0,1.0,0.0,0.0,0,0,15.83,8.37,13.429999,0.96,1.0133381,0,nan,nan,0.0,0.0,0,3,0,0,1,10,0,0,0
233444000,0,36.6624013,126.34580059999999,48.563,48.563,1725513312469596,0,0.25,0.5,1.0,1.0,0.0,0.0,0,0,16.01,8.87,13.309999,0.96999997,0.98262036,0,nan,nan,0.0,0.0,0,3,0,0,1,10,0,0,0
233652000,0,36.6624189,126.3458321,48.39,48.39,1725513312681596,0,0.25,0.5,1.0,1.0,0.0,0.0,0,0,16.16,9.559999,13.04,0.63,0.9379399,0,nan,nan,0.0,0.0,0,3,0,0,1,10,0,0,0
234016000,0,36.6624522,126.3458845,48.195,48.195,1725513313045596,0,0.25,0.5,1.0,1.0,0.0,0.0,0,0,16.49,10.66,12.59,0.61,0.8683013,0,nan,nan,0.0,0.0,0,3,0,0,1,10,0,0,0
234224000,0,36.6624723,126.34591309999999,48.061,48.061,1725513313249596,0,0.25,0.5,1.0,1.0,0.0,0.0,0,0,16.68,11.219999,12.349999,0.87,0.8332201,0,nan,nan,0.0,0.0,0,3,0,0,1,10,0,0,0
234432000,0,36.6624945,126.34594209999999,47.874,47.874,1725513313461596,0,0.25,0.5,1.0,1.0,0.0,0.0,0,0,16.84,11.83,11.99,0.77,0.79203033,0,nan,nan,0.0,0.0,0,3,0,0,1,10,0,0,0
234640000,0,36.6625166,126.3459692,47.719,47.719,1725513313665596,0,0.25,0.5,1.0,1.0,0.0,0.0,0,0,16.96,12.25,11.719999,0.68,0.76323247,0,nan,nan,0.0,0.0,0,3,0,0,1,10,0,0,0
234848000,0,36.662540299999996,126.34599689999999,47.657000000000004,47.657000000000004,1725513313877596,0,0.25,0.5,1.0,1.0,0.0,0.0,0,0,16.91,12.42,11.44,0.099999994,0.74455744,0,nan,nan,0.0,0.0,0,3,0,0,1,10,0,0,0
235212000,0,36.6625812,126.3460429,47.828,47.828,1725513314241596,0,0.25,0.5,1.0,1.0,0.0,0.0,0,0,16.6,12.44,10.98,-0.96999997,0.72308993,0,nan,nan,0.0,0.0,0,3,0,0,1,10,0,0,0
235424000,0,36.662604,126.3460678,48.074,48.074,1725513314445596,0,0.25,0.5,1.0,1.0,0.0,0.0,0,0,16.32,12.33,10.66,-1.4,0.71314156,0,nan,nan,0.0,0.0,0,3,0,0,1,10,0,0,0
235628000,0,36.6626275,126.3460928,48.407000000000004,48.407000000000004,1725513314657596,0,0.25,0.5,1.0,1.0,0.0,0.0,0,0,16.0,12.19,10.37,-1.6999999,0.7047639,0,nan,nan,0.0,0.0,0,3,0,0,1,10,0,0,0
235836000,0,36.6626498,126.3461164,48.7,48.7,1725513314861596,0,0.25,0.5,1.0,1.0,0.0,0.0,0,0,15.809999,12.08,10.24,-1.43,0.7031932,0,nan,nan,0.0,0.0,0,3,0,0,1,10,0,0,0
236044000,0,36.662672799999996,126.3461406,48.999,48.999,1725513315073596,0,0.25,0.5,1.0,1.0,0.0,0.0,0,0,15.57,11.889999,10.059999,-1.39,0.70197135,0,nan,nan,0.0,0.0,0,3,0,0,1,10,0,0,0
236252000,0,36.6626944,126.3461636,49.296,49.296,1725513315277596,0,0.25,0.5,1.0,1.0,0.0,0.0,0,0,15.4,11.7,10.0199995,-1.39,0.7082546,0,nan,nan,0.0,0.0,0,3,0,0,1,10,0,0,0
236616000,0,36.6627326,126.346205,49.667,49.667,1725513315641596,0,0.25,0.5,1.0,1.0,0.0,0.0,0,0,15.46,11.55,10.24,-0.55,0.7253588,0,nan,nan,0.0,0.0,0,3,0,0,1,10,0,0,0
236824000,0,36.6627548,126.3462296,49.664,49.664,1725513315853596,0,0.25,0.5,1.0,1.0,0.0,0.0,0,0,15.53,11.54,10.429999,0.13,0.7349582,0,nan,nan,0.0,0.0,0,3,0,0,1,10,0,0,0
237032000,0,36.6627758,126.34625369999999,49.633,49.633,1725513316057596,0,0.25,0.5,1.0,1.0,0.0,0.0,0,0,15.469999,11.28,10.57,0.19,0.7531095,0,nan,nan,0.0,0.0,0,3,0,0,1,10,0,0,0
237240000,0,36.6627971,126.34627929999999,49.577,49.577,1725513316269596,0,0.25,0.5,1.0,1.0,0.0,0.0,0,0,15.49,11.059999,10.88,0.35999998,0.7770206,0,nan,nan,0.0,0.0,0,3,0,0,1,10,0,0,0
237452000,0,36.6628171,126.3463046,49.459,49.459,1725513316473596,0,0.25,0.5,1.0,1.0,0.0,0.0,0,0,15.589999,10.83,11.21,0.79999995,0.80267686,0,nan,nan,0.0,0.0,0,3,0,0,1,10,0,0,0
237812000,0,36.6628519,126.3463522,49.111000000000004,49.111000000000004,1725513316837596,0,0.25,0.5,1.0,1.0,0.0,0.0,0,0,15.889999,10.37,12.009999,1.12,0.8585274,0,nan,nan,0.0,0.0,0,3,0,0,1,10,0,0,0
238020000,0,36.6628715,126.34638149999999,48.823,48.823,1725513317049596,0,0.25,0.5,1.0,1.0,0.0,0.0,0,0,16.18,10.23,12.54,1.5799999,0.8868017,0,nan,nan,0.0,0.0,0,3,0,0,1,10,0,0,0
238228000,0,36.6628901,126.34641099999999,48.513,48.513,1725513317253596,0,0.25,0.5,1.0,1.0,0.0,0.0,0,0,16.49,9.849999,13.19,1.16,0.9293878,0,nan,nan,0.0,0.0,0,3,0,0,1,10,0,0,0
238436000,0,36.662908699999996,126.3464432,48.235,48.235,1725513317465596,0,0.25,0.5,1.0,1.0,0.0,0.0,0,0,16.77,9.57,13.7699995,1.37,0.9632472,0,nan,nan,0.0,0.0,0,3,0,0,1,10,0,0,0
238644000,0,36.6629259,126.3464755,48.001,48.001,1725513317669596,0,0.25,0.5,1.0,1.0,0.0,0.0,0,0,17.0,9.12,14.34,1.0799999,1.0042624,0,nan,nan,0.0,0.0,0,3,0,0,1,10,0,0,0
238852000,0,36.662942799999996,126.34651009999999,47.807,47.807,1725513317881596,0,0.25,0.5,1.0,1.0,0.0,0.0,0,0,16.949999,8.429999,14.7,0.47,1.04999,0,nan,nan,0.0,0.0,0,3,0,0,1,10,0,0,0
239216000,0,36.6629679,126.34657109999999,47.887,47.887,1725513318245596,0,0.25,0.5,1.0,1.0,0.0,0.0,0,0,16.56,6.8399997,15.08,-0.96,1.1445869,0,nan,nan,0.0,0.0,0,3,0,0,1,10,0,0,0
239424000,0,36.662979899999996,126.346606,48.088,48.088,1725513318449596,0,0.25,0.5,1.0,1.0,0.0,0.0,0,0,16.529999,6.2799997,15.29,-0.83,1.1810642,0,nan,nan,0.0,0.0,0,3,0,0,1,10,0,0,0
239632000,0,36.6629912,126.34664269999999,48.261,48.261,1725513318661596,0,0.25,0.5,1.0,1.0,0.0,0.0,0,0,16.48,5.6,15.469999,-0.78999996,1.2233012,0,nan,nan,0.0,0.0,0,3,0,0,1,10,0,0,0
239840000,0,36.663001,126.3466783,48.393,48.393,1725513318865596,0,0.25,0.5,1.0,1.0,0.0,0.0,0,0,16.27,4.94,15.53,-0.78999996,1.2625711,0,nan,nan,0.0,0.0,0,3,0,0,1,10,0,0,0
240048000,0,36.663009699999996,126.3467151,48.615,48.615,1725513319077596,0,0.25,0.5,1.0,1.0,0.0,0.0,0,0,15.929999,4.18,15.38,-1.11,1.3051572,0,nan,nan,0.0,0.0,0,3,0,0,1,10,0,0,0
240408000,0,36.6630214,126.3467768,49.129,49.129,1725513319437596,0,0.25,0.5,1.0,1.0,0.0,0.0,0,0,15.42,3.06,15.13,-1.4699999,1.3707815,0,nan,nan,0.0,0.0,0,3,0,0,1,10,0,0,0
240620000,0,36.663026699999996,126.3468125,49.443,49.443,1725513319649596,0,0.25,0.5,1.0,1.0,0.0,0.0,0,0,15.12,2.5,14.91,-1.7099999,1.4041173,0,nan,nan,0.0,0.0,0,3,0,0,1,10,0,0,0
240828000,0,36.663031,126.34684739999999,49.723,49.723,1725513319857596,0,0.25,0.5,1.0,1.0,0.0,0.0,0,0,14.929999,2.1599998,14.7699995,-1.1999999,1.4254104,0,nan,nan,0.0,0.0,0,3,0,0,1,10,0,0,0
241036000,0,36.663034599999996,126.34688109999999,49.971000000000004,49.971000000000004,1725513320061596,0,0.25,0.5,1.0,1.0,0.0,0.0,0,0,14.67,1.78,14.57,-1.1,1.4491469,0,nan,nan,0.0,0.0,0,3,0,0,1,10,0,0,0
241244000,0,36.6630375,126.3469154,50.22,50.22,1725513320273596,0,0.25,0.5,1.0,1.0,0.0,0.0,0,0,14.37,1.25,14.32,-1.35,1.4833553,0,nan,nan,0.0,0.0,0,3,0,0,1,10,0,0,0
241452000,0,36.6630396,126.3469482,50.458,50.458,1725513320477596,0,0.25,0.5,1.0,1.0,0.0,0.0,0,0,14.23,0.91999996,14.2,-1.04,1.5056955,0,nan,nan,0.0,0.0,0,3,0,0,1,10,0,0,0
241816000,0,36.6630415,126.34700629999999,50.832,50.832,1725513320845596,0,0.25,0.5,1.0,1.0,0.0,0.0,0,0,13.87,0.22,13.87,-0.94,1.5542156,0,nan,nan,0.0,0.0,0,3,0,0,1,10,0,0,0
242024000,0,36.6630415,126.34703789999999,51.017,51.017,1725513321049596,0,0.25,0.5,1.0,1.0,0.0,0.0,0,0,13.639999,-0.19,13.639999,-0.87,1.5849334,0,nan,nan,0.0,0.0,0,3,0,0,1,10,0,0,0
242232000,0,36.663040699999996,126.3470701,51.214,51.214,1725513321261596,0,0.25,0.5,1.0,1.0,0.0,0.0,0,0,13.4,-0.61,13.389999,-1.09,1.6166984,0,nan,nan,0.0,0.0,0,3,0,0,1,10,0,0,0
242440000,0,36.6630393,126.34710059999999,51.405,51.405,1725513321465596,0,0.25,0.5,1.0,1.0,0.0,0.0,0,0,13.2699995,-0.96,13.259999,-0.81,1.6430529,0,nan,nan,0.0,0.0,0,3,0,0,1,10,0,0,0
242648000,0,36.6630371,126.34713199999999,51.561,51.561,1725513321677596,0,0.25,0.5,1.0,1.0,0.0,0.0,0,0,13.17,-1.28,13.099999,-0.59,1.6681856,0,nan,nan,0.0,0.0,0,3,0,0,1,10,0,0,0
243012000,0,36.6630319,126.347185,51.698,51.698,1725513322041596,0,0.25,0.5,1.0,1.0,0.0,0.0,0,0,12.94,-1.8399999,12.799999,-0.29,1.7139132,0,nan,nan,0.0,0.0,0,3,0,0,1,10,0,0,0
243220000,0,36.6630283,126.34721429999999,51.737,51.737,1725513322245596,0,0.25,0.5,1.0,1.0,0.0,0.0,0,0,12.88,-2.1599998,12.71,-0.099999994,1.7397442,0,nan,nan,0.0,0.0,0,3,0,0,1,10,0,0,0
243428000,0,36.6630238,126.34724449999999,51.716,51.716,1725513322457596,0,0.25,0.5,1.0,1.0,0.0,0.0,0,0,12.9,-2.51,12.67,0.28,1.7667967,0,nan,nan,0.0,0.0,0,3,0,0,1,10,0,0,0
243636000,0,36.6630189,126.3472735,51.627,51.627,1725513322661596,0,0.25,0.5,1.0,1.0,0.0,0.0,0,0,12.98,-2.85,12.65,0.57,1.7928022,0,nan,nan,0.0,0.0,0,3,0,0,1,10,0,0,0
243844000,0,36.6630131,126.3473039,51.499,51.499,1725513322873596,0,0.25,0.5,1.0,1.0,0.0,0.0,0,0,13.139999,-3.1499999,12.75,0.79999995,1.813048,0,nan,nan,0.0,0.0,0,3,0,0,1,10,0,0,0
244052000,0,36.6630071,126.34733329999999,51.299,51.299,1725513323077596,0,0.25,0.5,1.0,1.0,0.0,0.0,0,0,13.349999,-3.4099998,12.88,1.1,1.8299776,0,nan,nan,0.0,0.0,0,3,0,0,1,10,0,0,0
244416000,0,36.662994999999995,126.3473866,50.807,50.807,1725513323441596,0,0.25,0.5,1.0,1.0,0.0,0.0,0,0,13.7,-3.97,13.09,1.3299999,1.8657569,0,nan,nan,0.0,0.0,0,3,0,0,1,10,0,0,0
244624000,0,36.662987,126.3474179,50.509,50.509,1725513323653596,0,0.25,0.5,1.0,1.0,0.0,0.0,0,0,13.88,-4.39,13.179999,1.4,1.892286,0,nan,nan,0.0,0.0,0,3,0,0,1,10,0,0,0
244832000,0,36.662978599999995,126.3474481,50.24,50.24,1725513323857596,0,0.25,0.5,1.0,1.0,0.0,0.0,0,0,13.969999,-4.8199997,13.13,1.17,1.9230038,0,nan,nan,0.0,0.0,0,3,0,0,1,10,0,0,0
245040000,0,36.6629687,126.3474791,50.042,50.042,1725513324069596,0,0.25,0.5,1.0,1.0,0.0,0.0,0,0,13.98,-5.35,12.92,0.75,1.9638444,0,nan,nan,0.0,0.0,0,3,0,0,1,10,0,0,0
245248000,0,36.6629584,126.34750849999999,49.918,49.918,1725513324273596,0,0.25,0.5,1.0,1.0,0.0,0.0,0,0,13.96,-5.7999997,12.719999,0.65,1.9989256,0,nan,nan,0.0,0.0,0,3,0,0,1,10,0,0,0
245612000,0,36.6629382,126.3475594,49.762,49.762,1725513324637596,0,0.25,0.5,1.0,1.0,0.0,0.0,0,0,13.799999,-6.52,12.17,0.26,2.0626302,0,nan,nan,0.0,0.0,0,3,0,0,1,10,0,0,0
245816000,0,36.6629252,126.3475879,49.828,49.828,1725513324849596,0,0.25,0.5,1.0,1.0,0.0,0.0,0,0,13.759999,-6.93,11.9,-0.24,2.0982347,0,nan,nan,0.0,0.0,0,3,0,0,1,10,0,0,0
246028000,0,36.6629122,126.3476151,49.852000000000004,49.852000000000004,1725513325053596,0,0.25,0.5,1.0,1.0,0.0,0.0,0,0,13.7699995,-7.2,11.719999,-0.19,2.121622,0,nan,nan,0.0,0.0,0,3,0,0,1,10,0,0,0
246236000,0,36.6628981,126.3476426,49.957,49.957,1725513325265596,0,0.25,0.5,1.0,1.0,0.0,0.0,0,0,13.62,-7.5499997,11.33,-0.65,2.1587977,0,nan,nan,0.0,0.0,0,3,0,0,1,10,0,0,0
246444000,0,36.662884,126.34766809999999,50.132,50.132,1725513325469596,0,0.25,0.5,1.0,1.0,0.0,0.0,0,0,13.34,-7.75,10.84,-1.05,2.1916099,0,nan,nan,0.0,0.0,0,3,0,0,1,10,0,0,0
246652000,0,36.662869,126.34769329999999,50.39,50.39,1725513325681596,0,0.25,0.5,1.0,1.0,0.0,0.0,0,0,13.09,-7.89,10.42,-0.97999996,2.219186,0,nan,nan,0.0,0.0,0,3,0,0,1,10,0,0,0
247016000,0,36.662842999999995,126.34773489999999,50.649,50.649,1725513326045596,0,0.25,0.5,1.0,1.0,0.0,0.0,0,0,12.599999,-7.8999996,9.809999,-0.58,2.2488565,0,nan,nan,0.0,0.0,0,3,0,0,1,10,0,0,0
247224000,0,36.662828399999995,126.34775699999999,50.823,50.823,1725513326249596,0,0.25,0.5,1.0,1.0,0.0,0.0,0,0,12.29,-7.96,9.349999,-1.3,2.2759092,0,nan,nan,0.0,0.0,0,3,0,0,1,10,0,0,0
247436000,0,36.6628131,126.3477791,51.028,51.028,1725513326461596,0,0.25,0.5,1.0,1.0,0.0,0.0,0,0,12.2699995,-8.07,9.24,-0.56,2.2888248,0,nan,nan,0.0,0.0,0,3,0,0,1,10,0,0,0
247636000,0,36.662798099999996,126.34779999999999,51.115,51.115,1725513326665596,0,0.25,0.5,1.0,1.0,0.0,0.0,0,0,12.23,-8.25,9.0199995,-0.5,2.311863,0,nan,nan,0.0,0.0,0,3,0,0,1,10,0,0,0
247848000,0,36.6627821,126.34782129999999,51.234,51.234,1725513326877596,0,0.25,0.5,1.0,1.0,0.0,0.0,0,0,12.2,-8.47,8.79,-0.52,2.3375194,0,nan,nan,0.0,0.0,0,3,0,0,1,10,0,0,0
248212000,0,36.662753599999995,126.34785649999999,51.32,51.32,1725513327241596,0,0.25,0.5,1.0,1.0,0.0,0.0,0,0,12.309999,-8.86,8.57,0.39999998,2.372775,0,nan,nan,0.0,0.0,0,3,0,0,1,10,0,0,0
248420000,0,36.662737199999995,126.34787589999999,51.22,51.22,1725513327445596,0,0.25,0.5,1.0,1.0,0.0,0.0,0,0,12.34,-9.059999,8.36,0.42,2.395988,0,nan,nan,0.0,0.0,0,3,0,0,1,10,0,0,0
248628000,0,36.662719599999996,126.34789579999999,51.117000000000004,51.117000000000004,1725513327657596,0,0.25,0.5,1.0,1.0,0.0,0.0,0,0,12.4,-9.2699995,8.22,0.55,2.4162338,0,nan,nan,0.0,0.0,0,3,0,0,1,10,0,0,0
248836000,0,36.6627024,126.34791449999999,51.022,51.022,1725513327861596,0,0.25,0.5,1.0,1.0,0.0,0.0,0,0,12.429999,-9.46,8.07,0.53999996,2.435258,0,nan,nan,0.0,0.0,0,3,0,0,1,10,0,0,0
249044000,0,36.6626841,126.3479335,50.922000000000004,50.922000000000004,1725513328073596,0,0.25,0.5,1.0,1.0,0.0,0.0,0,0,12.45,-9.67,7.83,0.35999998,2.4607396,0,nan,nan,0.0,0.0,0,3,0,0,1,10,0,0,0
249252000,0,36.662666099999996,126.34795109999999,50.864000000000004,50.864000000000004,1725513328277596,0,0.25,0.5,1.0,1.0,0.0,0.0,0,0,12.429999,-9.9,7.5499997,0.29999998,2.4902356,0,nan,nan,0.0,0.0,0,3,0,0,1,10,0,0,0
249616000,0,36.6626331,126.34798079999999,50.79,50.79,1725513328641596,0,0.25,0.5,1.0,1.0,0.0,0.0,0,0,12.38,-10.24,6.95,0.19999999,2.5452137,0,nan,nan,0.0,0.0,0,3,0,0,1,10,0,0,0
249820000,0,36.662613199999996,126.3479972,50.656,50.656,1725513328853596,0,0.25,0.5,1.0,1.0,0.0,0.0,0,0,12.44,-10.44,6.7599998,0.78999996,2.5668557,0,nan,nan,0.0,0.0,0,3,0,0,1,10,0,0,0
250032000,0,36.6625939,126.34801239999999,50.484,50.484,1725513329057596,0,0.25,0.5,1.0,1.0,0.0,0.0,0,0,12.42,-10.58,6.5,0.89,2.5905921,0,nan,nan,0.0,0.0,0,3,0,0,1,10,0,0,0
250240000,0,36.6625734,126.3480275,50.32,50.32,1725513329269596,0,0.25,0.5,1.0,1.0,0.0,0.0,0,0,12.41,-10.74,6.19,0.55,2.618343,0,nan,nan,0.0,0.0,0,3,0,0,1,10,0,0,0
250448000,0,36.6625535,126.34804159999999,50.177,50.177,1725513329473596,0,0.25,0.5,1.0,1.0,0.0,0.0,0,0,12.46,-10.92,6.04,0.82,2.6363199,0,nan,nan,0.0,0.0,0,3,0,0,1,10,0,0,0
250812000,0,36.6625173,126.3480651,50.017,50.017,1725513329837596,0,0.25,0.5,1.0,1.0,0.0,0.0,0,0,12.5199995,-11.25,5.48,0.14999999,2.6883307,0,nan,nan,0.0,0.0,0,3,0,0,1,10,0,0,0
251020000,0,36.6624954,126.34807789999999,49.932,49.932,1725513330049596,0,0.25,0.5,1.0,1.0,0.0,0.0,0,0,12.67,-11.55,5.22,0.58,2.716954,0,nan,nan,0.0,0.0,0,3,0,0,1,10,0,0,0
251228000,0,36.662473999999996,126.3480895,49.795,49.795,1725513330253596,0,0.25,0.5,1.0,1.0,0.0,0.0,0,0,12.759999,-11.8,4.89,0.9,2.7481952,0,nan,nan,0.0,0.0,0,3,0,0,1,10,0,0,0
251436000,0,36.6624512,126.3481005,49.667,49.667,1725513330465596,0,0.25,0.5,1.0,1.0,0.0,0.0,0,0,12.67,-11.9,4.36,0.42,2.7904322,0,nan,nan,0.0,0.0,0,3,0,0,1,10,0,0,0
251644000,0,36.6624293,126.3481099,49.613,49.613,1725513330669596,0,0.25,0.5,1.0,1.0,0.0,0.0,0,0,12.57,-11.95,3.86,-0.26999998,2.8291786,0,nan,nan,0.0,0.0,0,3,0,0,1,10,0,0,0
251852000,0,36.6624063,126.3481187,49.768,49.768,1725513330881596,0,0.25,0.5,1.0,1.0,0.0,0.0,0,0,12.65,-12.12,3.6299999,-0.45,2.8502972,0,nan,nan,0.0,0.0,0,3,0,0,1,10,0,0,0
252216000,0,36.662366,126.34813319999999,49.827,49.827,1725513331245596,0,0.25,0.5,1.0,1.0,0.0,0.0,0,0,12.889999,-12.41,3.4199998,0.32,2.8726373,0,nan,nan,0.0,0.0,0,3,0,0,1,10,0,0,0
252424000,0,36.6623431,126.34814069999999,49.771,49.771,1725513331449596,0,0.25,0.5,1.0,1.0,0.0,0.0,0,0,12.7699995,-12.4,3.07,0.21,2.8981192,0,nan,nan,0.0,0.0,0,3,0,0,1,10,0,0,0
252632000,0,36.662319499999995,126.34814759999999,49.749,49.749,1725513331661596,0,0.25,0.5,1.0,1.0,0.0,0.0,0,0,12.63,-12.349999,2.6599998,-0.01,2.928837,0,nan,nan,0.0,0.0,0,3,0,0,1,10,0,0,0
252836000,0,36.6622967,126.34815329999999,49.765,49.765,1725513331865596,0,0.25,0.5,1.0,1.0,0.0,0.0,0,0,12.679999,-12.46,2.31,0.03,2.957984,0,nan,nan,0.0,0.0,0,3,0,0,1,10,0,0,0
253052000,0,36.6622726,126.3481585,49.683,49.683,1725513332077596,0,0.25,0.5,1.0,1.0,0.0,0.0,0,0,12.86,-12.69,2.08,0.66999996,2.9784043,0,nan,nan,0.0,0.0,0,3,0,0,1,10,0,0,0
253412000,0,36.662230699999995,126.3481657,49.382,49.382,1725513332437596,0,0.25,0.5,1.0,1.0,0.0,0.0,0,0,13.219999,-13.12,1.4699999,0.96999997,3.029368,0,nan,nan,0.0,0.0,0,3,0,0,1,10,0,0,0
253620000,0,36.6622053,126.3481688,49.176,49.176,1725513332649596,0,0.25,0.5,1.0,1.0,0.0,0.0,0,0,13.45,-13.41,1.1,1.01,3.0595622,0,nan,nan,0.0,0.0,0,3,0,0,1,10,0,0,0
253828000,0,36.66218,126.34817109999999,48.841,48.841,1725513332857596,0,0.25,0.5,1.0,1.0,0.0,0.0,0,0,13.469999,-13.44,0.77,1.35,3.0843458,0,nan,nan,0.0,0.0,0,3,0,0,1,10,0,0,0
254036000,0,36.662155399999996,126.34817229999999,48.603,48.603,1725513333061596,0,0.25,0.5,1.0,1.0,0.0,0.0,0,0,13.32,-13.32,0.31,0.93,3.118205,0,nan,nan,0.0,0.0,0,3,0,0,1,10,0,0,0
254244000,0,36.66213,126.34817249999999,48.463,48.463,1725513333273596,0,0.25,0.5,1.0,1.0,0.0,0.0,0,0,13.299999,-13.309999,-0.17,0.32,3.1546826,0,nan,nan,0.0,0.0,0,3,0,0,1,10,0,0,0
254452000,0,36.6621054,126.3481719,48.34,48.34,1725513333477596,0,0.25,0.5,1.0,1.0,0.0,0.0,0,0,13.54,-13.54,-0.37,1.05,3.169169,0,nan,nan,0.0,0.0,0,3,0,0,1,10,0,0,0
254816000,0,36.6620597,126.34816909999999,47.854,47.854,1725513333845596,0,0.25,0.5,1.0,1.0,0.0,0.0,0,0,13.95,-13.92,-1.06,1.15,3.2180378,0,nan,nan,0.0,0.0,0,3,0,0,1,10,0,0,0
255024000,0,36.662034,126.3481661,47.656,47.656,1725513334049596,0,0.25,0.5,1.0,1.0,0.0,0.0,0,0,14.08,-13.99,-1.56,0.74,3.2525957,0,nan,nan,0.0,0.0,0,3,0,0,1,10,0,0,0
255232000,0,36.6620072,126.34816149999999,47.606,47.606,1725513334261596,0,0.25,0.5,1.0,1.0,0.0,0.0,0,0,14.179999,-14.009999,-2.26,-0.39999998,3.3016393,0,nan,nan,0.0,0.0,0,3,0,0,1,10,0,0,0
255440000,0,36.661981399999995,126.3481558,47.67,47.67,1725513334465596,0,0.25,0.5,1.0,1.0,0.0,0.0,0,0,14.28,-14.0,-2.7,-0.32999998,3.3325317,0,nan,nan,0.0,0.0,0,3,0,0,1,10,0,0,0
255648000,0,36.6619546,126.3481487,47.837,47.837,1725513334677596,0,0.25,0.5,1.0,1.0,0.0,0.0,0,0,14.29,-13.94,-3.24,-0.89,3.3705797,0,nan,nan,0.0,0.0,0,3,0,0,1,10,0,0,0
256012000,0,36.6619098,126.34813419999999,48.224000000000004,48.224000000000004,1725513335041596,0,0.25,0.5,1.0,1.0,0.0,0.0,0,0,13.84,-13.299999,-3.81,-1.4,3.4208453,0,nan,nan,0.0,0.0,0,3,0,0,1,10,0,0,0
256220000,0,36.6618857,126.34812509999999,48.521,48.521,1725513335245596,0,0.25,0.5,1.0,1.0,0.0,0.0,0,0,13.59,-12.96,-4.1,-1.4,3.447898,0,nan,nan,0.0,0.0,0,3,0,0,1,10,0,0,0
256428000,0,36.6618618,126.3481152,48.815,48.815,1725513335453596,0,0.25,0.5,1.0,1.0,0.0,0.0,0,0,13.34,-12.599999,-4.38,-1.4499999,3.4761722,0,nan,nan,0.0,0.0,0,3,0,0,1,10,0,0,0
256636000,0,36.6618379,126.34810449999999,49.115,49.115,1725513335665596,0,0.25,0.5,1.0,1.0,0.0,0.0,0,0,13.11,-12.28,-4.65,-1.55,3.5033994,0,nan,nan,0.0,0.0,0,3,0,0,1,10,0,0,0
256844000,0,36.6618153,126.3480932,49.480000000000004,49.480000000000004,1725513335873596,0,0.25,0.5,1.0,1.0,0.0,0.0,0,0,13.009999,-12.0199995,-5.0,-1.55,3.5358624,0,nan,nan,0.0,0.0,0,3,0,0,1,10,0,0,0
257052000,0,36.6617932,126.34808129999999,49.72,49.72,1725513336077596,0,0.25,0.5,1.0,1.0,0.0,0.0,0,0,13.08,-11.969999,-5.29,-1.02,3.5578535,0,nan,nan,0.0,0.0,0,3,0,0,1,10,0,0,0
257416000,0,36.6617539,126.3480584,49.975,49.975,1725513336445596,0,0.25,0.5,1.0,1.0,0.0,0.0,0,0,12.94,-11.599999,-5.77,-0.59999996,3.6034067,0,nan,nan,0.0,0.0,0,3,0,0,1,10,0,0,0
257624000,0,36.6617324,126.3480446,50.109,50.109,1725513336653596,0,0.25,0.5,1.0,1.0,0.0,0.0,0,0,12.7699995,-11.33,-5.92,-0.58,3.6227798,0,nan,nan,0.0,0.0,0,3,0,0,1,10,0,0,0
257832000,0,36.6617118,126.34803099999999,50.212,50.212,1725513336857596,0,0.25,0.5,1.0,1.0,0.0,0.0,0,0,12.7699995,-11.25,-6.02,-0.39999998,3.6329026,0,nan,nan,0.0,0.0,0,3,0,0,1,10,0,0,0
258040000,0,36.6616906,126.34801669999999,50.251,50.251,1725513337065596,0,0.25,0.5,1.0,1.0,0.0,0.0,0,0,12.849999,-11.2699995,-6.14,0.0,3.6407566,0,nan,nan,0.0,0.0,0,3,0,0,1,10,0,0,0
258248000,0,36.661668999999996,126.3480019,50.192,50.192,1725513337277596,0,0.25,0.5,1.0,1.0,0.0,0.0,0,0,12.95,-11.33,-6.3199997,0.62,3.650705,0,nan,nan,0.0,0.0,0,3,0,0,1,10,0,0,0
258612000,0,36.6616328,126.3479752,49.971000000000004,49.971000000000004,1725513337637596,0,0.25,0.5,1.0,1.0,0.0,0.0,0,0,12.929999,-10.95,-6.89,0.57,3.703065,0,nan,nan,0.0,0.0,0,3,0,0,1,10,0,0,0
258820000,0,36.6616125,126.3479584,49.871,49.871,1725513337845596,0,0.25,0.5,1.0,1.0,0.0,0.0,0,0,13.0,-10.67,-7.39,0.45999998,3.7473962,0,nan,nan,0.0,0.0,0,3,0,0,1,10,0,0,0
259028000,0,36.661592299999995,126.3479402,49.716,49.716,1725513338057596,0,0.25,0.5,1.0,1.0,0.0,0.0,0,0,13.16,-10.5199995,-7.91,0.88,3.7857935,0,nan,nan,0.0,0.0,0,3,0,0,1,10,0,0,0
259236000,0,36.6615728,126.347921,49.549,49.549,1725513338265596,0,0.25,0.5,1.0,1.0,0.0,0.0,0,0,13.32,-10.29,-8.44,0.68,3.8285542,0,nan,nan,0.0,0.0,0,3,0,0,1,10,0,0,0
259444000,0,36.6615538,126.3479012,49.397,49.397,1725513338469596,0,0.25,0.5,1.0,1.0,0.0,0.0,0,0,13.5,-10.25,-8.809999,0.84,3.851069,0,nan,nan,0.0,0.0,0,3,0,0,1,10,0,0,0
259652000,0,36.6615347,126.34788019999999,49.235,49.235,1725513338677596,0,0.25,0.5,1.0,1.0,0.0,0.0,0,0,13.67,-10.19,-9.15,0.69,3.873409,0,nan,nan,0.0,0.0,0,3,0,0,1,10,0,0,0
260012000,0,36.661501099999995,126.34784119999999,49.011,49.011,1725513339045596,0,0.25,0.5,1.0,1.0,0.0,0.0,0,0,13.98,-10.09,-9.71,0.65,3.9074428,0,nan,nan,0.0,0.0,0,3,0,0,1,10,0,0,0
