timestamp,timestamp_sample,latitude_deg,longitude_deg,altitude_msl_m,altitude_ellipsoid_m,time_utc_usec,device_id,s_variance_m_s,c_variance_rad,eph,epv,hdop,vdop,noise_per_ms,jamming_indicator,vel_m_s,vel_n_m_s,vel_e_m_s,vel_d_m_s,cog_rad,timestamp_time_relative,heading,heading_offset,heading_accuracy,rtcm_injection_rate,automatic_gain_control,fix_type,jamming_state,spoofing_state,vel_ned_valid,satellites_used,selected_rtcm_instance,rtcm_crc_failed,rtcm_msg_used
643745862,0,36.6609604,126.3418755,5.2010000000000005,22.856,1724641920399858,11141125,0.24400002,3.1415925,0.82900006,1.1650001,0.55,0.77,60,45,0.018000001,0.003,0.018000001,0.053000003,2.3612683,0,nan,0.0,0.0,0.0,0,3,2,1,1,30,0,0,0
643855885,0,36.6609604,126.3418755,5.213,22.867,1724641920499858,11141125,0.257,3.1415925,0.82900006,1.1650001,0.55,0.77,60,45,0.043,-0.017,-0.040000003,0.0050000004,2.3612683,0,nan,0.0,0.0,0.0,0,3,2,1,1,30,0,0,0
643946853,0,36.6609604,126.34187539999999,5.215,22.87,1724641920599858,11141125,0.28800002,3.1415925,0.82900006,1.1650001,0.55,0.77,60,30,0.054,0.038000003,-0.039,0.004,2.3612683,0,nan,0.0,0.0,0.0,0,3,2,1,1,30,0,0,0
644046842,0,36.6609604,126.34187539999999,5.211,22.865000000000002,1724641920699858,11141125,0.23300001,3.1415925,0.82900006,1.164,0.55,0.77,60,30,0.052,0.045,0.025,0.067,2.3612683,0,nan,0.0,0.0,0.0,0,3,2,1,1,30,0,0,0
644147843,0,36.6609605,126.34187539999999,5.22,22.875,1724641920799857,11141125,0.261,3.1415925,0.82800007,1.164,0.55,0.77,60,30,0.018000001,-0.017,-0.004,0.020000001,2.3612683,0,nan,0.0,0.0,0.0,0,3,2,1,1,30,0,0,0
644246842,0,36.6609605,126.34187539999999,5.214,22.869,1724641920899857,11141125,0.27400002,3.1415925,0.82800007,1.164,0.55,0.77,60,30,0.045,0.040000003,-0.021000002,0.025,2.3612683,0,nan,0.0,0.0,0.0,0,3,2,1,1,30,0,0,0
644348832,0,36.6609605,126.34187539999999,5.215,22.869,1724641920999858,11141125,0.246,3.1415925,0.82800007,1.164,0.55,0.77,60,30,0.006,-0.006,0.0,0.052,2.3612683,0,nan,0.0,0.0,0.0,0,3,2,1,1,30,0,0,0
644446835,0,36.6609605,126.34187539999999,5.215,22.869,1724641921099857,11141125,0.26200002,3.1415925,0.82800007,1.1630001,0.55,0.77,60,30,0.021000002,-0.004,-0.021000002,0.0050000004,2.3612683,0,nan,0.0,0.0,0.0,0,3,2,1,1,30,0,0,0
644546834,0,36.6609605,126.3418753,5.214,22.869,1724641921199857,11141125,0.25800002,3.1415925,0.82800007,1.1630001,0.55,0.77,60,30,0.033,0.002,-0.033,0.037,2.3612683,0,nan,0.0,0.0,0.0,0,3,2,1,1,30,0,0,0
644644838,0,36.6609605,126.3418753,5.212,22.866,1724641921299857,11141125,0.26200002,3.1415925,0.827,1.1630001,0.55,0.77,60,30,0.034,-0.034,0.0050000004,0.046000004,2.3612683,0,nan,0.0,0.0,0.0,0,3,2,1,1,30,0,0,0
644747856,0,36.6609605,126.3418753,5.223,22.877,1724641921399857,11141125,0.257,3.1415925,0.827,1.1620001,0.55,0.77,60,30,0.010000001,-0.010000001,0.002,0.021000002,2.3612683,0,nan,0.0,0.0,0.0,0,3,2,1,1,30,0,0,0
644846027,0,36.6609605,126.3418753,5.224,22.879,1724641921499857,11141125,0.252,3.1415925,0.827,1.1620001,0.55,0.77,60,30,0.038000003,-0.016,-0.035,0.049000002,2.3612683,0,nan,0.0,0.0,0.0,0,3,2,1,1,30,0,0,0
644946841,0,36.6609605,126.3418753,5.229,22.884,1724641921599857,11141125,0.261,3.1415925,0.827,1.1620001,0.55,0.77,60,44,0.006,-0.004,0.003,0.019000001,2.3612683,0,nan,0.0,0.0,0.0,0,3,2,1,1,30,0,0,0
645049833,0,36.6609605,126.3418753,5.231,22.886,1724641921699857,11141125,0.277,3.1415925,0.827,1.1620001,0.55,0.77,60,44,0.046000004,-0.039,0.025,0.043,2.3612683,0,nan,0.0,0.0,0.0,0,3,2,1,1,30,0,0,0
645146386,0,36.6609605,126.3418753,5.238,22.892,1724641921799857,11141125,0.24800001,3.1415925,0.827,1.161,0.55,0.77,60,44,0.009000001,0.003,0.009000001,-0.002,2.3612683,0,nan,0.0,0.0,0.0,0,3,2,1,1,30,0,0,0
645237543,0,36.6609605,126.3418753,5.239,22.894000000000002,1724641921899857,11141125,0.24100001,3.1415925,0.827,1.161,0.55,0.77,60,44,0.016,-0.015000001,-0.006,-0.014,2.3612683,0,nan,0.0,0.0,0.0,0,3,2,1,1,30,0,0,0
645357832,0,36.6609605,126.3418753,5.239,22.893,1724641921999858,11141125,0.23600002,3.1415925,0.82600003,1.161,0.55,0.77,60,44,0.010000001,0.009000001,0.0050000004,0.029000001,2.3612683,0,nan,0.0,0.0,0.0,0,3,2,1,1,30,0,0,0
645453834,0,36.6609605,126.3418753,5.243,22.897000000000002,1724641922099857,11141125,0.27100003,3.1415925,0.82600003,1.161,0.55,0.77,60,44,0.031000001,-0.028,0.013,0.029000001,2.3612683,0,nan,0.0,0.0,0.0,0,3,2,1,1,30,0,0,0
645544832,0,36.6609605,126.34187519999999,5.252,22.907,1724641922199857,11141125,0.24900001,3.1415925,0.82600003,1.1600001,0.55,0.77,60,44,0.020000001,-0.012,-0.016,0.004,2.3612683,0,nan,0.0,0.0,0.0,0,3,2,1,1,30,0,0,0
645649841,0,36.6609605,126.34187519999999,5.2540000000000004,22.909,1724641922299857,11141125,0.279,3.1415925,0.82600003,1.1600001,0.55,0.77,60,44,0.020000001,-0.015000001,0.013,0.014,2.3612683,0,nan,0.0,0.0,0.0,0,3,2,1,1,30,0,0,0
645745832,0,36.6609605,126.34187519999999,5.26,22.915,1724641922399857,11141125,0.259,3.1415925,0.82600003,1.1600001,0.55,0.77,60,44,0.031000001,-0.031000001,-0.001,0.042000003,2.3612683,0,nan,0.0,0.0,0.0,0,3,2,1,1,30,0,0,0
645845834,0,36.6609605,126.34187519999999,5.269,22.923000000000002,1724641922499857,11141125,0.264,3.1415925,0.82600003,1.1600001,0.55,0.77,60,44,0.026,0.022000002,-0.013,0.026,2.3612683,0,nan,0.0,0.0,0.0,0,3,2,1,1,30,0,0,0
645946835,0,36.6609605,126.34187519999999,5.274,22.929000000000002,1724641922599856,11141125,0.27600002,3.1415925,0.82500005,1.159,0.55,0.77,60,31,0.051000003,0.010000001,-0.05,0.004,2.3612683,0,nan,0.0,0.0,0.0,0,3,2,1,1,30,0,0,0
646047311,0,36.660960599999996,126.3418751,5.281,22.936,1724641922699856,11141125,0.268,3.1415925,0.82500005,1.159,0.55,0.77,60,31,0.028,0.014,-0.024,-0.028,2.3612683,0,nan,0.0,0.0,0.0,0,3,2,1,1,30,0,0,0
646140833,0,36.660960599999996,126.3418751,5.28,22.934,1724641922799856,11141125,0.284,3.1415925,0.82500005,1.159,0.55,0.77,60,31,0.036000002,-0.029000001,0.021000002,0.023000002,2.3612683,0,nan,0.0,0.0,0.0,0,3,2,1,1,30,0,0,0
646245835,0,36.660960599999996,126.3418751,5.287,22.941,1724641922899856,11141125,0.24900001,3.1415925,0.82500005,1.159,0.55,0.77,60,31,0.023000002,-0.012,-0.020000001,0.068,2.3612683,0,nan,0.0,0.0,0.0,0,3,2,1,1,30,0,0,0
646353834,0,36.6609605,126.3418751,5.285,22.94,1724641922999857,11141125,0.261,3.1415925,0.82500005,1.1580001,0.55,0.77,60,31,0.025,-0.025,-0.002,0.035,2.3612683,0,nan,0.0,0.0,0.0,0,3,2,1,1,30,0,0,0
646444833,0,36.660960599999996,126.3418751,5.29,22.945,1724641923099856,11141125,0.25800002,3.1415925,0.82500005,1.1580001,0.55,0.77,60,31,0.037,0.028,0.024,-0.025,2.3612683,0,nan,0.0,0.0,0.0,0,3,2,1,1,30,0,0,0
646548246,0,36.660960599999996,126.3418751,5.291,22.946,1724641923199856,11141125,0.273,3.1415925,0.82500005,1.1580001,0.55,0.77,60,31,0.044000003,0.006,-0.044000003,0.024,2.3612683,0,nan,0.0,0.0,0.0,0,3,2,1,1,30,0,0,0
646645832,0,36.660960599999996,126.3418751,5.297,22.952,1724641923299856,11141125,0.27100003,3.1415925,0.82500005,1.1580001,0.55,0.77,60,31,0.048,0.048,0.007,0.006,2.3612683,0,nan,0.0,0.0,0.0,0,3,2,1,1,30,0,0,0
646743840,0,36.660960599999996,126.3418751,5.303,22.958000000000002,1724641923399856,11141125,0.24800001,3.1415925,0.82500005,1.1580001,0.55,0.77,60,31,0.033,-0.033,0.002,-0.058000002,2.3612683,0,nan,0.0,0.0,0.0,0,3,2,1,1,30,0,0,0
646847189,0,36.660960599999996,126.3418751,5.301,22.956,1724641923499856,11141125,0.28,3.1415925,0.82400006,1.1570001,0.55,0.77,60,31,0.039,0.002,-0.039,0.0050000004,2.3612683,0,nan,0.0,0.0,0.0,0,3,2,1,1,30,0,0,0
646946833,0,36.660960599999996,126.3418751,5.304,22.959,1724641923599856,11141125,0.245,3.1415925,0.82400006,1.1570001,0.55,0.77,60,43,0.021000002,0.021000002,0.003,0.040000003,2.3612683,0,nan,0.0,0.0,0.0,0,3,2,1,1,30,0,0,0
647042832,0,36.660960599999996,126.3418751,5.3100000000000005,22.965,1724641923699856,11141125,0.25500003,3.1415925,0.82400006,1.1570001,0.55,0.77,60,43,0.027,-0.017,-0.021000002,-0.003,2.3612683,0,nan,0.0,0.0,0.0,0,3,2,1,1,30,0,0,0
647146833,0,36.660960599999996,126.3418751,5.3100000000000005,22.964000000000002,1724641923799856,11141125,0.289,3.1415925,0.82400006,1.1570001,0.55,0.77,60,43,0.041,-0.038000003,0.014,0.008,2.3612683,0,nan,0.0,0.0,0.0,0,3,2,1,1,30,0,0,0
647246895,0,36.660960599999996,126.34187499999999,5.316,22.971,1724641923899856,11141125,0.28500003,3.1415925,0.82400006,1.1570001,0.55,0.77,60,43,0.039,0.023000002,-0.032,0.022000002,2.3612683,0,nan,0.0,0.0,0.0,0,3,2,1,1,30,0,0,0
647353833,0,36.660960599999996,126.34187499999999,5.315,22.97,1724641923999857,11141125,0.252,3.1415925,0.82400006,1.1570001,0.55,0.77,60,43,0.012,0.0,-0.012,-0.020000001,2.3612683,0,nan,0.0,0.0,0.0,0,3,2,1,1,30,0,0,0
647454907,0,36.660960599999996,126.34187499999999,5.3260000000000005,22.98,1724641924099856,11141125,0.257,3.1415925,0.82400006,1.156,0.55,0.77,60,43,0.028,0.022000002,0.017,-0.021000002,2.3612683,0,nan,0.0,0.0,0.0,0,3,2,1,1,30,0,0,0
647544951,0,36.6609607,126.34187499999999,5.329,22.984,1724641924199856,11141125,0.26200002,3.1415925,0.82400006,1.156,0.55,0.77,60,43,0.0050000004,0.004,-0.003,0.010000001,2.3612683,0,nan,0.0,0.0,0.0,0,3,2,1,1,30,0,0,0
647644834,0,36.660960599999996,126.34187499999999,5.327,22.982,1724641924299856,11141125,0.25,3.1415925,0.82400006,1.156,0.55,0.77,60,43,0.07300001,-0.037,-0.064,0.006,2.3612683,0,nan,0.0,0.0,0.0,0,3,2,1,1,30,0,0,0
647746832,0,36.660960599999996,126.34187499999999,5.323,22.978,1724641924399855,11141125,0.23900001,3.1415925,0.82400006,1.156,0.55,0.77,60,43,0.023000002,0.022000002,0.006,0.034,2.3612683,0,nan,0.0,0.0,0.0,0,3,2,1,1,30,0,0,0
647842833,0,36.6609607,126.34187499999999,5.33,22.985,1724641924499855,11141125,0.27600002,3.1415925,0.82400006,1.156,0.55,0.77,60,43,0.017,0.0,0.017,-0.002,2.3612683,0,nan,0.0,0.0,0.0,0,3,2,1,1,30,0,0,0
647941848,0,36.6609607,126.34187499999999,5.338,22.993000000000002,1724641924599855,11141125,0.26900002,3.1415925,0.82400006,1.156,0.55,0.77,60,31,0.036000002,0.001,0.036000002,-0.0050000004,2.3612683,0,nan,0.0,0.0,0.0,0,3,2,1,1,30,0,0,0
648046833,0,36.6609607,126.34187499999999,5.336,22.990000000000002,1724641924699855,11141125,0.266,3.1415925,0.823,1.1550001,0.55,0.77,60,31,0.033,-0.009000001,0.032,0.025,2.3612683,0,nan,0.0,0.0,0.0,0,3,2,1,1,30,0,0,0
648144849,0,36.6609607,126.34187499999999,5.339,22.994,1724641924799855,11141125,0.25500003,3.1415925,0.823,1.1550001,0.55,0.77,60,31,0.007,0.002,-0.007,0.023000002,2.3612683,0,nan,0.0,0.0,0.0,0,3,2,1,1,30,0,0,0
648245838,0,36.660960599999996,126.34187499999999,5.345,23.0,1724641924899855,11141125,0.28500003,3.1415925,0.823,1.1550001,0.55,0.77,60,31,0.062000003,-0.059000004,0.020000001,-0.014,2.3612683,0,nan,0.0,0.0,0.0,0,3,2,1,1,30,0,0,0
648354833,0,36.660960599999996,126.34187499999999,5.341,22.996000000000002,1724641924999856,11141125,0.24200001,3.1415925,0.823,1.1550001,0.55,0.77,60,31,0.016,0.014,0.006,0.032,2.3612683,0,nan,0.0,0.0,0.0,0,3,2,1,1,30,0,0,0
648447356,0,36.6609607,126.34187499999999,5.344,22.998,1724641925099855,11141125,0.293,3.1415925,0.823,1.1550001,0.55,0.77,60,31,0.041,0.028,-0.030000001,-0.012,2.3612683,0,nan,0.0,0.0,0.0,0,3,2,1,1,30,0,0,0
648548252,0,36.6609607,126.34187499999999,5.348,23.002,1724641925199855,11141125,0.27,3.1415925,0.823,1.1550001,0.55,0.77,60,31,0.028,0.006,0.027,-0.010000001,2.3612683,0,nan,0.0,0.0,0.0,0,3,2,1,1,30,0,0,0
648649568,0,36.6609607,126.34187499999999,5.3500000000000005,23.005,1724641925299855,11141125,0.28,3.1415925,0.823,1.154,0.55,0.77,60,31,0.040000003,0.0050000004,-0.040000003,0.009000001,2.3612683,0,nan,0.0,0.0,0.0,0,3,2,1,1,30,0,0,0
648745835,0,36.6609607,126.34187499999999,5.359,23.013,1724641925399855,11141125,0.277,3.1415925,0.823,1.154,0.55,0.77,60,31,0.025,-0.014,0.020000001,0.018000001,2.3612683,0,nan,0.0,0.0,0.0,0,3,2,1,1,30,0,0,0
648841930,0,36.6609607,126.34187499999999,5.362,23.017,1724641925499855,11141125,0.268,3.1415925,0.823,1.154,0.55,0.77,60,31,0.016,0.008,-0.013,0.017,2.3612683,0,nan,0.0,0.0,0.0,0,3,2,1,1,30,0,0,0
648948848,0,36.6609607,126.34187499999999,5.37,23.024,1724641925599855,11141125,0.25300002,3.1415925,0.823,1.154,0.55,0.77,60,45,0.030000001,-0.004,-0.029000001,-0.019000001,2.3612683,0,nan,0.0,0.0,0.0,0,3,2,1,1,30,0,0,0
649045052,0,36.6609608,126.34187499999999,5.373,23.028000000000002,1724641925699855,11141125,0.259,3.1415925,0.823,1.154,0.55,0.77,60,45,0.038000003,0.024,0.030000001,-0.043,2.3612683,0,nan,0.0,0.0,0.0,0,3,2,1,1,30,0,0,0
649144853,0,36.6609608,126.34187499999999,5.378,23.033,1724641925799855,11141125,0.27400002,3.1415925,0.823,1.154,0.55,0.77,60,45,0.006,0.003,-0.0050000004,0.007,2.3612683,0,nan,0.0,0.0,0.0,0,3,2,1,1,30,0,0,0
649246889,0,36.6609608,126.34187499999999,5.378,23.033,1724641925899855,11141125,0.275,3.1415925,0.823,1.153,0.55,0.77,60,45,0.013,0.013,-0.001,-0.001,2.3612683,0,nan,0.0,0.0,0.0,0,3,2,1,1,30,0,0,0
649355833,0,36.6609608,126.34187499999999,5.375,23.029,1724641925999856,11141125,0.26700002,3.1415925,0.823,1.153,0.55,0.77,60,45,0.034,0.034,0.0050000004,-0.002,2.3612683,0,nan,0.0,0.0,0.0,0,3,2,1,1,30,0,0,0
649454247,0,36.6609608,126.34187499999999,5.3790000000000004,23.034,1724641926099854,11141125,0.275,3.1415925,0.822,1.153,0.55,0.77,60,45,0.028,-0.022000002,0.017,0.026,2.3612683,0,nan,0.0,0.0,0.0,0,3,2,1,1,30,0,0,0
649546834,0,36.6609608,126.34187499999999,5.373,23.028000000000002,1724641926199854,11141125,0.23700002,3.1415925,0.822,1.153,0.55,0.77,60,45,0.030000001,0.016,0.026,0.036000002,2.3612683,0,nan,0.0,0.0,0.0,0,3,2,1,1,30,0,0,0
649645832,0,36.6609609,126.34187499999999,5.3740000000000006,23.029,1724641926299854,11141125,0.291,3.1415925,0.822,1.153,0.55,0.77,60,45,0.066,0.044000003,-0.049000002,0.012,2.3612683,0,nan,0.0,0.0,0.0,0,3,2,1,1,30,0,0,0
649743009,0,36.6609609,126.34187499999999,5.3790000000000004,23.034,1724641926399854,11141125,0.24000001,3.1415925,0.822,1.153,0.55,0.77,60,45,0.024,0.007,0.023000002,0.041,2.3612683,0,nan,0.0,0.0,0.0,0,3,2,1,1,30,0,0,0
649849833,0,36.6609609,126.34187499999999,5.389,23.044,1724641926499854,11141125,0.25,3.1415925,0.822,1.153,0.55,0.77,60,45,0.011000001,-0.010000001,0.0050000004,0.046000004,2.3612683,0,nan,0.0,0.0,0.0,0,3,2,1,1,30,0,0,0
649949833,0,36.6609609,126.34187499999999,5.392,23.046,1724641926599854,11141125,0.26200002,3.1415925,0.822,1.1520001,0.55,0.77,60,29,0.011000001,-0.010000001,-0.004,0.011000001,2.3612683,0,nan,0.0,0.0,0.0,0,3,2,1,1,30,0,0,0
650049833,0,36.6609609,126.3418749,5.399,23.053,1724641926699854,11141125,0.26000002,3.1415925,0.822,1.1520001,0.55,0.77,60,29,0.039,-0.003,-0.039,-0.012,2.3612683,0,nan,0.0,0.0,0.0,0,3,2,1,1,30,0,0,0
650149833,0,36.6609609,126.3418749,5.393,23.048000000000002,1724641926799854,11141125,0.26700002,3.1415925,0.822,1.1520001,0.55,0.77,60,29,0.052,0.003,0.052,0.012,2.3612683,0,nan,0.0,0.0,0.0,0,3,2,1,1,30,0,0,0
650249272,0,36.6609609,126.3418749,5.397,23.051000000000002,1724641926899854,11141125,0.272,3.1415925,0.822,1.1520001,0.55,0.77,60,29,0.034,-0.002,-0.034,0.001,2.3612683,0,nan,0.0,0.0,0.0,0,3,2,1,1,30,0,0,0
650355833,0,36.6609609,126.3418749,5.406,23.06,1724641926999855,11141125,0.23900001,3.1415925,0.822,1.1520001,0.55,0.77,60,29,0.021000002,-0.010000001,-0.019000001,-0.019000001,2.3612683,0,nan,0.0,0.0,0.0,0,3,2,1,1,30,0,0,0
650451832,0,36.6609609,126.3418749,5.402,23.057000000000002,1724641927099854,11141125,0.252,3.1415925,0.822,1.1520001,0.55,0.77,60,29,0.014,-0.014,0.001,0.040000003,2.3612683,0,nan,0.0,0.0,0.0,0,3,2,1,1,30,0,0,0
650548833,0,36.6609609,126.3418749,5.404,23.058,1724641927199854,11141125,0.273,3.1415925,0.82100004,1.151,0.55,0.77,60,29,0.017,0.017,-0.001,-0.011000001,2.3612683,0,nan,0.0,0.0,0.0,0,3,2,1,1,30,0,0,0
650642833,0,36.660961,126.3418749,5.405,23.059,1724641927299854,11141125,0.25500003,3.1415925,0.82100004,1.151,0.55,0.77,60,29,0.013,0.011000001,0.007,-0.002,2.3612683,0,nan,0.0,0.0,0.0,0,3,2,1,1,30,0,0,0
650749834,0,36.660961,126.3418749,5.41,23.065,1724641927399854,11141125,0.238,3.1415925,0.82100004,1.151,0.55,0.77,60,29,0.010000001,0.009000001,0.0050000004,0.009000001,2.3612683,0,nan,0.0,0.0,0.0,0,3,2,1,1,30,0,0,0
650844840,0,36.660961,126.3418749,5.421,23.075,1724641927499854,11141125,0.28,3.1415925,0.82100004,1.151,0.55,0.77,60,29,0.008,0.007,-0.003,0.003,2.3612683,0,nan,0.0,0.0,0.0,0,3,2,1,1,30,0,0,0
650948291,0,36.660961,126.3418749,5.43,23.085,1724641927599854,11141125,0.264,3.1415925,0.82100004,1.151,0.55,0.77,60,40,0.043,-0.041,0.014,-0.035,2.3612683,0,nan,0.0,0.0,0.0,0,3,2,1,1,30,0,0,0
651050834,0,36.6609609,126.34187499999999,5.431,23.086000000000002,1724641927699854,11141125,0.259,3.1415925,0.82100004,1.151,0.55,0.77,60,40,0.043,-0.034,0.026,-0.059000004,2.3612683,0,nan,0.0,0.0,0.0,0,3,2,1,1,30,0,0,0
651147832,0,36.6609609,126.34187499999999,5.441,23.095,1724641927799854,11141125,0.256,3.1415925,0.82100004,1.1500001,0.55,0.77,60,40,0.065000005,0.014,0.063,-0.102000006,2.3612683,0,nan,0.0,0.0,0.0,0,3,2,1,1,30,0,0,0
651247881,0,36.6609609,126.3418751,5.461,23.116,1724641927899853,11141125,0.27400002,1.5412967,0.82100004,1.1500001,0.55,0.77,60,40,0.164,-0.059000004,0.15300001,-0.104,2.3612683,0,nan,0.0,0.0,0.0,0,3,2,1,1,30,0,0,0
651357849,0,36.6609608,126.3418753,5.471,23.125,1724641927999854,11141125,0.284,1.315491,0.82100004,1.1500001,0.55,0.77,60,40,0.192,-0.080000006,0.17500001,-0.059000004,2.3612683,0,nan,0.0,0.0,0.0,0,3,2,1,1,30,0,0,0
651459833,0,36.6609608,126.3418756,5.484,23.138,1724641928099853,11141125,0.286,0.9161378,0.82000005,1.1500001,0.55,0.77,60,40,0.277,-0.112,0.25300002,-0.09,2.3612683,0,nan,0.0,0.0,0.0,0,3,2,1,1,30,0,0,0
651543179,0,36.6609607,126.3418758,5.514,23.169,1724641928199853,11141125,0.275,0.92819434,0.82000005,1.1500001,0.55,0.77,60,40,0.26900002,-0.13800001,0.231,-0.187,2.3612683,0,nan,0.0,0.0,0.0,0,3,2,1,1,30,0,0,0
651649839,0,36.6609605,126.3418761,5.535,23.19,1724641928299853,11141125,0.27,0.90981203,0.82000005,1.1500001,0.55,0.77,60,40,0.28,-0.119,0.254,-0.238,2.3612683,0,nan,0.0,0.0,0.0,0,3,2,1,1,30,0,0,0
651745833,0,36.6609604,126.34187639999999,5.571,23.226,1724641928399853,11141125,0.272,0.78753316,0.82000005,1.1500001,0.55,0.77,60,40,0.32500002,-0.165,0.28,-0.25800002,2.3612683,0,nan,0.0,0.0,0.0,0,3,2,1,1,30,0,0,0
651846831,0,36.6609603,126.3418767,5.601,23.255,1724641928499853,11141125,0.27,0.9591453,0.82000005,1.1500001,0.55,0.77,60,40,0.26000002,-0.136,0.22100002,-0.24800001,2.3612683,0,nan,0.0,0.0,0.0,0,3,2,1,1,30,0,0,0
651950833,0,36.6609602,126.341877,5.641,23.295,1724641928599853,11141125,0.26200002,0.9510022,0.82000005,1.1500001,0.55,0.77,60,36,0.27800003,-0.075,0.268,-0.33800003,2.3612683,0,nan,0.0,0.0,0.0,0,3,2,1,1,30,0,0,0
652046832,0,36.6609601,126.3418772,5.6930000000000005,23.348,1724641928699853,11141125,0.25100002,1.4099367,0.82000005,1.1500001,0.55,0.77,60,36,0.18900001,-0.07,0.17600001,-0.49600002,2.3612683,0,nan,0.0,0.0,0.0,0,3,2,1,1,30,0,0,0
652146832,0,36.660959999999996,126.3418774,5.745,23.400000000000002,1724641928799853,11141125,0.252,1.138362,0.82000005,1.1500001,0.55,0.77,60,36,0.22800002,-0.158,0.163,-0.549,2.3612683,0,nan,0.0,0.0,0.0,0,3,2,1,1,30,0,0,0
652247847,0,36.660959999999996,126.34187759999999,5.814,23.468,1724641928899853,11141125,0.24900001,1.7304509,0.82000005,1.1500001,0.55,0.77,60,36,0.16600001,0.040000003,0.16100001,-0.68,2.3612683,0,nan,0.0,0.0,0.0,0,3,2,1,1,30,0,0,0
652355834,0,36.660959999999996,126.3418777,5.892,23.547,1724641928999854,11141125,0.24900001,2.066592,0.81900007,1.1500001,0.55,0.77,60,36,0.13100001,-0.026,0.12900001,-0.675,2.3612683,0,nan,0.0,0.0,0.0,0,3,2,1,1,30,0,0,0
652441112,0,36.660959999999996,126.34187779999999,5.965,23.619,1724641929099853,11141125,0.24800001,3.1415925,0.81900007,1.1500001,0.55,0.77,60,36,0.071,-0.024,0.067,-0.69600004,2.3612683,0,nan,0.0,0.0,0.0,0,3,2,1,1,30,0,0,0
652547833,0,36.660959999999996,126.3418779,6.035,23.69,1724641929199853,11141125,0.25,2.2968047,0.81900007,1.1500001,0.55,0.77,60,36,0.12100001,-0.008,0.12100001,-0.717,2.3612683,0,nan,0.0,0.0,0.0,0,3,2,1,1,30,0,0,0
652646832,0,36.660959999999996,126.341878,6.1080000000000005,23.763,1724641929299853,11141125,0.24900001,3.1415925,0.81900007,1.1500001,0.55,0.77,60,36,0.05,-0.017,0.047000002,-0.77800006,2.3612683,0,nan,0.0,0.0,0.0,0,3,2,1,1,30,0,0,0
652746835,0,36.660959999999996,126.34187809999999,6.186,23.84,1724641929399853,11141125,0.24900001,3.1415925,0.81900007,1.1500001,0.55,0.77,60,36,0.053000003,-0.016,0.05,-0.79800004,2.3612683,0,nan,0.0,0.0,0.0,0,3,2,1,1,30,0,0,0
652847839,0,36.6609599,126.3418782,6.264,23.919,1724641929499853,11141125,0.24800001,3.1415925,0.81900007,1.1500001,0.55,0.77,60,36,0.058000002,-0.054,0.022000002,-0.76600003,2.3612683,0,nan,0.0,0.0,0.0,0,3,2,1,1,30,0,0,0
652944833,0,36.6609599,126.3418782,6.335,23.989,1724641929599853,11141125,0.24800001,2.303964,0.81900007,1.151,0.55,0.77,60,32,0.113000005,-0.104,0.046000004,-0.78700006,2.3612683,0,nan,0.0,0.0,0.0,0,3,2,1,1,30,0,0,0
653045959,0,36.6609598,126.3418782,6.407,24.061,1724641929699852,11141125,0.24700001,3.1415925,0.81900007,1.151,0.55,0.77,60,32,0.059000004,-0.017,-0.056,-0.721,2.3612683,0,nan,0.0,0.0,0.0,0,3,2,1,1,30,0,0,0
653143839,0,36.6609598,126.34187809999999,6.48,24.134,1724641929799852,11141125,0.24200001,2.6129367,0.81900007,1.151,0.55,0.77,60,32,0.11100001,-0.094000004,-0.059000004,-0.54,2.3612683,0,nan,0.0,0.0,0.0,0,3,2,1,1,30,0,0,0
653241833,0,36.6609597,126.34187809999999,6.5280000000000005,24.183,1724641929899852,11141125,0.24700001,1.9394569,0.81900007,1.151,0.55,0.77,60,32,0.14600001,-0.143,-0.032,-0.40600002,2.3612683,0,nan,0.0,0.0,0.0,0,3,2,1,1,30,0,0,0
653346833,0,36.6609596,126.341878,6.577,24.231,1724641929999853,11141125,0.24400002,3.1415925,0.81900007,1.151,0.55,0.77,60,32,0.046000004,-0.013,-0.045,-0.416,2.3612683,0,nan,0.0,0.0,0.0,0,3,2,1,1,30,0,0,0
653453833,0,36.6609596,126.341878,6.62,24.275000000000002,1724641930099852,11141125,0.24300002,3.1415925,0.81900007,1.151,0.55,0.77,60,32,0.078,-0.016,-0.07700001,-0.42900002,2.3612683,0,nan,0.0,0.0,0.0,0,3,2,1,1,30,0,0,0
653546844,0,36.6609595,126.3418779,6.6690000000000005,24.324,1724641930199852,11141125,0.24700001,3.1415925,0.81900007,1.151,0.55,0.77,60,32,0.089,-0.059000004,-0.066,-0.52900004,2.3612683,0,nan,0.0,0.0,0.0,0,3,2,1,1,30,0,0,0
653646024,0,36.6609595,126.34187779999999,6.719,24.374,1724641930299852,11141125,0.246,2.7467337,0.81900007,1.151,0.55,0.77,60,32,0.106000006,-0.044000003,-0.096,-0.582,2.3612683,0,nan,0.0,0.0,0.0,0,3,2,1,1,30,0,0,0
653745834,0,36.660959399999996,126.34187779999999,6.784,24.438,1724641930399852,11141125,0.24700001,3.1415925,0.81900007,1.151,0.55,0.77,60,32,0.07,-0.069000006,-0.009000001,-0.623,2.3612683,0,nan,0.0,0.0,0.0,0,3,2,1,1,30,0,0,0
653843834,0,36.6609593,126.34187779999999,6.838,24.492,1724641930499852,11141125,0.245,1.896035,0.81900007,1.151,0.55,0.77,60,32,0.15200001,-0.133,-0.07300001,-0.65800005,2.3612683,0,nan,0.0,0.0,0.0,0,3,2,1,1,30,0,0,0
653943833,0,36.6609593,126.3418777,6.917,24.571,1724641930599852,11141125,0.24200001,3.1415925,0.81900007,1.151,0.55,0.77,60,43,0.080000006,-0.074,-0.031000001,-0.69200003,2.3612683,0,nan,0.0,0.0,0.0,0,3,2,1,1,30,0,0,0
654045191,0,36.6609592,126.34187759999999,6.9990000000000006,24.654,1724641930699852,11141125,0.24000001,2.1197662,0.81900007,1.151,0.55,0.77,60,43,0.13900001,-0.08400001,-0.11100001,-0.693,2.3612683,0,nan,0.0,0.0,0.0,0,3,2,1,1,30,0,0,0
654142832,0,36.6609591,126.3418775,7.0680000000000005,24.722,1724641930799852,11141125,0.23900001,2.2566013,0.818,1.1500001,0.55,0.77,60,43,0.12900001,-0.074,-0.106000006,-0.688,2.3612683,0,nan,0.0,0.0,0.0,0,3,2,1,1,30,0,0,0
654237833,0,36.6609591,126.3418774,7.157,24.812,1724641930899852,11141125,0.24100001,3.1415925,0.818,1.1500001,0.55,0.77,60,43,0.043,-0.035,-0.025,-0.75500005,2.3612683,0,nan,0.0,0.0,0.0,0,3,2,1,1,30,0,0,0
654350832,0,36.660959,126.3418773,7.242,24.897000000000002,1724641930999853,11141125,0.24000001,2.720857,0.818,1.1500001,0.55,0.77,60,43,0.108,-0.065000005,-0.087000005,-0.76100004,2.3612683,0,nan,0.0,0.0,0.0,0,3,2,1,1,30,0,0,0
654439840,0,36.6609589,126.3418773,7.32,24.974,1724641931099852,11141125,0.24300002,2.4397764,0.818,1.1500001,0.55,0.77,60,43,0.11800001,-0.10300001,-0.057000004,-0.77900004,2.3612683,0,nan,0.0,0.0,0.0,0,3,2,1,1,30,0,0,0
654542832,0,36.660958799999996,126.3418773,7.382000000000001,25.037,1724641931199852,11141125,0.24300002,3.1415925,0.818,1.149,0.55,0.77,60,43,0.079,-0.07700001,-0.020000001,-0.72900003,2.3612683,0,nan,0.0,0.0,0.0,0,3,2,1,1,30,0,0,0
654642840,0,36.660958799999996,126.3418772,7.465,25.12,1724641931299852,11141125,0.24100001,3.1415925,0.818,1.149,0.55,0.77,60,43,0.064,0.014,-0.062000003,-0.731,2.3612683,0,nan,0.0,0.0,0.0,0,3,2,1,1,30,0,0,0
654742833,0,36.660958799999996,126.34187709999999,7.549,25.203,1724641931399851,11141125,0.24000001,2.6738431,0.81700003,1.149,0.55,0.77,60,43,0.10700001,-0.038000003,-0.1,-0.73,2.3612683,0,nan,0.0,0.0,0.0,0,3,2,1,1,30,0,0,0
654842832,0,36.660958799999996,126.341877,7.627,25.281,1724641931499851,11141125,0.24100001,2.2643743,0.81700003,1.149,0.55,0.77,60,43,0.128,-0.055000003,-0.116000004,-0.74100006,2.3612683,0,nan,0.0,0.0,0.0,0,3,2,1,1,30,0,0,0
654943833,0,36.660958699999995,126.34187689999999,7.696,25.35,1724641931599851,11141125,0.24200001,3.1415925,0.81700003,1.149,0.55,0.77,60,26,0.068,-0.007,-0.067,-0.81000006,2.3612683,0,nan,0.0,0.0,0.0,0,3,2,1,1,30,0,0,0
655042833,0,36.660958799999996,126.3418768,7.775,25.43,1724641931699851,11141125,0.24400002,2.2824507,0.81700003,1.149,0.55,0.77,60,26,0.11400001,0.030000001,-0.11000001,-0.80500007,2.3612683,0,nan,0.0,0.0,0.0,0,3,2,1,1,30,0,0,0
655137835,0,36.6609589,126.3418767,7.868,25.523,1724641931799851,11141125,0.24900001,1.0666795,0.81700003,1.149,0.55,0.77,60,26,0.22800002,0.17,-0.15100001,-0.79700005,2.3612683,0,nan,0.0,0.0,0.0,0,3,2,1,1,30,0,0,0
655242838,0,36.660959,126.3418765,7.946,25.6,1724641931899851,11141125,0.246,1.854935,0.81700003,1.149,0.55,0.77,60,26,0.133,0.089,-0.098000005,-0.809,2.3612683,0,nan,0.0,0.0,0.0,0,3,2,1,1,30,0,0,0
655352399,0,36.660959,126.34187639999999,8.032,25.687,1724641931999852,11141125,0.24400002,3.0777922,0.81700003,1.149,0.55,0.77,60,26,0.082,0.036000002,-0.074,-0.84700006,2.3612683,0,nan,0.0,0.0,0.0,0,3,2,1,1,30,0,0,0
655446833,0,36.6609591,126.3418763,8.122,25.777,1724641932099851,11141125,0.246,1.6987869,0.81700003,1.149,0.55,0.77,60,26,0.14400001,0.106000006,-0.097,-0.897,2.3612683,0,nan,0.0,0.0,0.0,0,3,2,1,1,30,0,0,0
655543835,0,36.6609592,126.34187619999999,8.22,25.875,1724641932199851,11141125,0.245,2.2387254,0.81600004,1.149,0.55,0.77,60,26,0.11100001,0.059000004,-0.094000004,-0.90400004,2.3612683,0,nan,0.0,0.0,0.0,0,3,2,1,1,30,0,0,0
655646187,0,36.6609593,126.3418761,8.31,25.965,1724641932299851,11141125,0.246,1.4878687,0.81600004,1.149,0.55,0.77,60,26,0.164,0.124000005,-0.10700001,-0.901,2.3612683,0,nan,0.0,0.0,0.0,0,3,2,1,1,30,0,0,0
655743835,0,36.660959399999996,126.341876,8.398,26.053,1724641932399851,11141125,0.245,2.3520398,0.81600004,1.148,0.55,0.77,60,26,0.104,0.066,-0.080000006,-0.869,2.3612683,0,nan,0.0,0.0,0.0,0,3,2,1,1,30,0,0,0
655848835,0,36.6609595,126.341876,8.478,26.133,1724641932499851,11141125,0.245,2.2714903,0.81600004,1.148,0.55,0.77,60,26,0.108,0.085,-0.067,-0.878,2.3612683,0,nan,0.0,0.0,0.0,0,3,2,1,1,30,0,0,0
655947832,0,36.6609595,126.34187589999999,8.582,26.237000000000002,1724641932599851,11141125,0.24400002,3.1415925,0.81600004,1.148,0.55,0.77,60,13,0.066,0.066,-0.004,-0.896,2.3612683,0,nan,0.0,0.0,0.0,0,3,2,1,1,30,0,0,0
656042834,0,36.6609596,126.34187589999999,8.691,26.345,1724641932699851,11141125,0.24200001,3.1415925,0.81600004,1.148,0.55,0.77,60,13,0.060000002,-0.024,-0.055000003,-1.026,2.3612683,0,nan,0.0,0.0,0.0,0,3,2,1,1,30,0,0,0
656145835,0,36.6609596,126.3418758,8.794,26.448,1724641932799851,11141125,0.24400002,2.990578,0.81600004,1.148,0.55,0.77,60,13,0.082,0.056,-0.060000002,-1.1520001,2.3612683,0,nan,0.0,0.0,0.0,0,3,2,1,1,30,0,0,0
656243504,0,36.6609597,126.3418758,8.901,26.555,1724641932899851,11141125,0.245,2.2334342,0.81600004,1.148,0.55,0.77,60,13,0.117000006,0.113000005,-0.031000001,-1.322,2.3612683,0,nan,0.0,0.0,0.0,0,3,2,1,1,30,0,0,0
656350853,0,36.6609597,126.3418758,9.043000000000001,26.698,1724641932999852,11141125,0.24400002,3.1415925,0.81600004,1.148,0.55,0.77,60,13,0.018000001,-0.015000001,-0.010000001,-1.5050001,2.3612683,0,nan,0.0,0.0,0.0,0,3,2,1,1,30,0,0,0
656449833,0,36.6609597,126.3418758,9.216000000000001,26.871000000000002,1724641933099851,11141125,0.24400002,3.1415925,0.81500006,1.148,0.55,0.77,60,13,0.066,0.0,-0.066,-1.7830001,2.3612683,0,nan,0.0,0.0,0.0,0,3,2,1,1,30,0,0,0
656544838,0,36.6609597,126.34187569999999,9.41,27.065,1724641933199850,11141125,0.24300002,3.1415925,0.81500006,1.148,0.55,0.77,60,13,0.059000004,-0.026,-0.053000003,-2.025,2.3612683,0,nan,0.0,0.0,0.0,0,3,2,1,1,30,0,0,0
656643839,0,36.6609597,126.34187569999999,9.616,27.27,1724641933299850,11141125,0.24300002,3.1415925,0.81500006,1.148,0.55,0.77,60,13,0.034,0.033,0.007,-2.131,2.3612683,0,nan,0.0,0.0,0.0,0,3,2,1,1,30,0,0,0
656744834,0,36.6609597,126.3418758,9.832,27.487000000000002,1724641933399850,11141125,0.24300002,3.1056383,0.81500006,1.1470001,0.55,0.77,60,13,0.083000004,-0.018000001,0.081,-2.1520002,2.3612683,0,nan,0.0,0.0,0.0,0,3,2,1,1,30,0,0,0
656843833,0,36.6609597,126.3418758,10.039,27.693,1724641933499850,11141125,0.24300002,3.1415925,0.81500006,1.1470001,0.55,0.77,60,13,0.035,0.033,-0.013,-2.045,2.3612683,0,nan,0.0,0.0,0.0,0,3,2,1,1,30,0,0,0
656939834,0,36.6609598,126.3418758,10.234,27.889,1724641933599850,11141125,0.24300002,2.7599034,0.81500006,1.1470001,0.55,0.77,59,23,0.104,0.059000004,0.086,-1.8830001,2.3612683,0,nan,0.0,0.0,0.0,0,3,2,1,1,30,0,0,0
657048832,0,36.6609599,126.34187589999999,10.415000000000001,28.07,1724641933699850,11141125,0.24400002,2.4579227,0.814,1.1470001,0.55,0.77,59,23,0.10700001,0.106000006,-0.014,-1.8160001,2.3612683,0,nan,0.0,0.0,0.0,0,3,2,1,1,30,0,0,0
657146833,0,36.660959999999996,126.34187589999999,10.59,28.245,1724641933799850,11141125,0.24400002,1.7457254,0.814,1.1470001,0.55,0.77,59,23,0.149,0.14400001,-0.040000003,-1.7930001,2.3612683,0,nan,0.0,0.0,0.0,0,3,2,1,1,30,0,0,0
657245921,0,36.6609601,126.3418758,10.778,28.433,1724641933899850,11141125,0.24400002,1.8039231,0.814,1.1470001,0.55,0.77,59,23,0.143,0.135,-0.047000002,-1.8010001,2.3612683,0,nan,0.0,0.0,0.0,0,3,2,1,1,30,0,0,0
657362832,0,36.6609603,126.3418758,10.957,28.612000000000002,1724641933999851,11141125,0.24400002,1.5325693,0.814,1.1470001,0.55,0.77,59,23,0.165,0.14400001,-0.081,-1.8740001,2.3612683,0,nan,0.0,0.0,0.0,0,3,2,1,1,30,0,0,0
657446838,0,36.6609604,126.34187569999999,11.145,28.799,1724641934099850,11141125,0.245,2.0574582,0.814,1.1470001,0.55,0.77,59,23,0.126,0.12100001,-0.037,-1.8290001,2.3612683,0,nan,0.0,0.0,0.0,0,3,2,1,1,30,0,0,0
657547833,0,36.6609604,126.34187569999999,11.332,28.987000000000002,1724641934199850,11141125,0.24300002,3.1415925,0.814,1.1470001,0.55,0.77,59,23,0.060000002,0.016,0.058000002,-1.886,2.3612683,0,nan,0.0,0.0,0.0,0,3,2,1,1,30,0,0,0
657648840,0,36.6609605,126.34187569999999,11.507,29.162,1724641934299850,11141125,0.245,1.6213714,0.814,1.1470001,0.55,0.77,59,23,0.157,0.14,-0.071,-1.8140001,2.3612683,0,nan,0.0,0.0,0.0,0,3,2,1,1,30,0,0,0
657744908,0,36.660960599999996,126.34187569999999,11.698,29.353,1724641934399850,11141125,0.24400002,3.1415925,0.814,1.1470001,0.55,0.77,59,23,0.071,0.068,-0.022000002,-1.8520001,2.3612683,0,nan,0.0,0.0,0.0,0,3,2,1,1,30,0,0,0
657838835,0,36.6609607,126.3418756,11.884,29.538,1724641934499850,11141125,0.245,2.1235044,0.814,1.146,0.55,0.77,59,23,0.119,0.105000004,-0.057000004,-1.8970001,2.3612683,0,nan,0.0,0.0,0.0,0,3,2,1,1,30,0,0,0
657945834,0,36.6609608,126.3418756,12.065,29.72,1724641934599850,11141125,0.245,1.4758176,0.814,1.146,0.55,0.77,59,11,0.171,0.148,-0.086,-1.9050001,2.3612683,0,nan,0.0,0.0,0.0,0,3,1,1,1,30,0,0,0
658045832,0,36.6609609,126.3418755,12.261000000000001,29.916,1724641934699850,11141125,0.24400002,2.732139,0.814,1.146,0.55,0.77,59,11,0.09200001,0.080000006,-0.045,-1.9070001,2.3612683,0,nan,0.0,0.0,0.0,0,3,1,1,1,30,0,0,0
658144833,0,36.660961,126.3418755,12.442,30.096,1724641934799850,11141125,0.24400002,2.4624648,0.814,1.146,0.55,0.77,59,11,0.104,0.097,-0.037,-1.8920001,2.3612683,0,nan,0.0,0.0,0.0,0,3,1,1,1,30,0,0,0
658245918,0,36.6609611,126.3418755,12.635,30.29,1724641934899850,11141125,0.24400002,3.1415925,0.813,1.146,0.55,0.77,59,11,0.07300001,0.071,0.015000001,-1.904,2.3612683,0,nan,0.0,0.0,0.0,0,3,1,1,1,30,0,0,0
658352832,0,36.6609611,126.3418755,12.816,30.47,1724641934999850,11141125,0.24200001,3.1415925,0.813,1.146,0.55,0.77,59,11,0.048,-0.006,-0.048,-1.868,2.3612683,0,nan,0.0,0.0,0.0,0,3,1,1,1,30,0,0,0
658449834,0,36.6609611,126.34187539999999,13.005,30.659,1724641935099849,11141125,0.24200001,3.1415925,0.813,1.146,0.55,0.77,59,11,0.043,-0.040000003,-0.014,-1.8550001,2.3612683,0,nan,0.0,0.0,0.0,0,3,1,1,1,30,0,0,0
658544833,0,36.6609611,126.3418755,13.179,30.834,1724641935199849,11141125,0.24300002,3.1415925,0.813,1.146,0.55,0.77,59,11,0.033,0.032,-0.003,-1.8420001,2.3612683,0,nan,0.0,0.0,0.0,0,3,1,1,1,30,0,0,0
658644833,0,36.6609611,126.34187539999999,13.376,31.031000000000002,1724641935299849,11141125,0.24200001,3.1415925,0.813,1.146,0.55,0.77,59,11,0.067,-0.066,-0.008,-1.9100001,2.3612683,0,nan,0.0,0.0,0.0,0,3,1,1,1,30,0,0,0
658740832,0,36.6609611,126.3418755,13.564,31.218,1724641935399849,11141125,0.24300002,3.1415925,0.813,1.146,0.55,0.77,59,11,0.039,0.018000001,0.035,-1.9150001,2.3612683,0,nan,0.0,0.0,0.0,0,3,1,1,1,30,0,0,0
658844835,0,36.6609611,126.3418755,13.757,31.412,1724641935499849,11141125,0.24300002,3.1415925,0.813,1.146,0.55,0.77,59,11,0.008,-0.004,-0.007,-1.9010001,2.3612683,0,nan,0.0,0.0,0.0,0,3,1,1,1,30,0,0,0
658945831,0,36.6609611,126.3418755,13.942,31.596,1724641935599849,11141125,0.24300002,3.1415925,0.81200004,1.146,0.55,0.77,59,24,0.031000001,-0.001,-0.031000001,-1.9310001,2.3612683,0,nan,0.0,0.0,0.0,0,3,2,1,1,30,0,0,0
659043833,0,36.6609611,126.3418755,14.137,31.791,1724641935699849,11141125,0.24300002,2.9351234,0.81200004,1.146,0.55,0.77,59,24,0.086,-0.083000004,0.023000002,-1.9580001,2.3612683,0,nan,0.0,0.0,0.0,0,3,2,1,1,30,0,0,0
659144084,0,36.660961,126.3418755,14.331,31.985,1724641935799849,11141125,0.24300002,2.6486893,0.81200004,1.146,0.55,0.77,59,24,0.095000006,-0.087000005,0.037,-1.8830001,2.3612683,0,nan,0.0,0.0,0.0,0,3,2,1,1,30,0,0,0
659242910,0,36.6609609,126.3418755,14.514000000000001,32.169000000000004,1724641935899849,11141125,0.24300002,2.52722,0.81200004,1.146,0.55,0.77,59,24,0.10300001,-0.10300001,0.0050000004,-1.886,2.3612683,0,nan,0.0,0.0,0.0,0,3,2,1,1,30,0,0,0
659349839,0,36.6609608,126.3418756,14.708,32.363,1724641935999850,11141125,0.24300002,1.8357258,0.81200004,1.146,0.55,0.77,59,24,0.143,-0.142,0.012,-1.9290001,2.3612683,0,nan,0.0,0.0,0.0,0,3,2,1,1,30,0,0,0
659446832,0,36.6609607,126.3418756,14.889000000000001,32.543,1724641936099849,11141125,0.24300002,3.1415925,0.81200004,1.146,0.55,0.77,59,24,0.081,-0.074,-0.033,-1.927,2.3612683,0,nan,0.0,0.0,0.0,0,3,2,1,1,30,0,0,0
659544426,0,36.6609607,126.3418755,15.09,32.745,1724641936199849,11141125,0.24300002,2.417825,0.81200004,1.146,0.55,0.77,59,24,0.108,-0.10700001,0.013,-1.922,2.3612683,0,nan,0.0,0.0,0.0,0,3,2,1,1,30,0,0,0
659638833,0,36.660960599999996,126.3418755,15.287,32.941,1724641936299849,11141125,0.245,3.1415925,0.81200004,1.146,0.55,0.77,59,24,0.040000003,-0.024,-0.032,-1.9890001,2.3612683,0,nan,0.0,0.0,0.0,0,3,2,1,1,30,0,0,0
659744833,0,36.660960599999996,126.3418756,15.473,33.127,1724641936399849,11141125,0.245,3.1415925,0.81200004,1.146,0.55,0.77,59,24,0.017,-0.013,0.011000001,-1.9560001,2.3612683,0,nan,0.0,0.0,0.0,0,3,2,1,1,30,0,0,0
659843846,0,36.660960599999996,126.3418756,15.669,33.323,1724641936499849,11141125,0.245,3.1415925,0.81200004,1.146,0.55,0.77,59,24,0.038000003,-0.038000003,0.0,-1.8840001,2.3612683,0,nan,0.0,0.0,0.0,0,3,2,1,1,30,0,0,0
659942832,0,36.660960599999996,126.3418756,15.852,33.506,1724641936599849,11141125,0.246,3.1415925,0.81200004,1.146,0.55,0.77,59,13,0.006,0.0050000004,-0.003,-1.9290001,2.3612683,0,nan,0.0,0.0,0.0,0,3,2,1,1,30,0,0,0
660044840,0,36.660960599999996,126.3418756,16.039,33.694,1724641936699848,11141125,0.245,3.1415925,0.81200004,1.146,0.55,0.77,59,13,0.05,-0.039,-0.033,-1.9160001,2.3612683,0,nan,0.0,0.0,0.0,0,3,2,1,1,30,0,0,0
660145832,0,36.6609605,126.3418756,16.231,33.886,1724641936799848,11141125,0.245,3.1415925,0.81200004,1.146,0.55,0.77,59,13,0.067,-0.066,0.012,-1.894,2.3612683,0,nan,0.0,0.0,0.0,0,3,2,1,1,30,0,0,0
660243832,0,36.6609605,126.3418756,16.42,34.074,1724641936899848,11141125,0.245,3.1415925,0.81200004,1.146,0.55,0.77,59,13,0.024,-0.020000001,-0.012,-1.927,2.3612683,0,nan,0.0,0.0,0.0,0,3,2,1,1,30,0,0,0
660352831,0,36.6609605,126.3418756,16.611,34.266,1724641936999849,11141125,0.246,3.1415925,0.81200004,1.146,0.55,0.77,59,13,0.015000001,-0.013,-0.007,-1.9760001,2.3612683,0,nan,0.0,0.0,0.0,0,3,2,1,1,30,0,0,0
660445832,0,36.6609605,126.3418756,16.807,34.461,1724641937099848,11141125,0.24700001,3.1415925,0.81200004,1.146,0.55,0.77,59,13,0.089,0.05,0.07300001,-1.9580001,2.3612683,0,nan,0.0,0.0,0.0,0,3,2,1,1,30,0,0,0
660539850,0,36.6609605,126.34187569999999,16.991,34.646,1724641937199848,11141125,0.245,3.1415925,0.81200004,1.146,0.55,0.77,59,13,0.007,-0.0050000004,-0.004,-1.9130001,2.3612683,0,nan,0.0,0.0,0.0,0,3,2,1,1,30,0,0,0
660645032,0,36.6609605,126.34187569999999,17.192,34.846000000000004,1724641937299848,11141125,0.246,3.1415925,0.81200004,1.146,0.55,0.77,59,13,0.037,0.018000001,0.032,-1.914,2.3612683,0,nan,0.0,0.0,0.0,0,3,2,1,1,30,0,0,0
660744832,0,36.6609605,126.34187569999999,17.391000000000002,35.046,1724641937399848,11141125,0.245,3.1415925,0.81200004,1.146,0.55,0.77,59,13,0.036000002,-0.036000002,0.007,-1.9610001,2.3612683,0,nan,0.0,0.0,0.0,0,3,2,1,1,30,0,0,0
660845835,0,36.6609605,126.3418758,17.589,35.244,1724641937499848,11141125,0.246,3.1415925,0.81200004,1.1470001,0.55,0.77,59,13,0.031000001,0.022000002,0.023000002,-1.9640001,2.3612683,0,nan,0.0,0.0,0.0,0,3,2,1,1,30,0,0,0
660945846,0,36.6609605,126.3418758,17.78,35.434,1724641937599848,11141125,0.246,3.1415925,0.81200004,1.1470001,0.55,0.77,59,17,0.032,0.021000002,-0.025,-1.95,2.3612683,0,nan,0.0,0.0,0.0,0,3,1,1,1,30,0,0,0
661045006,0,36.6609605,126.34187569999999,17.973,35.628,1724641937699848,11141125,0.245,3.1415925,0.81200004,1.1470001,0.55,0.77,59,17,0.056,-0.021000002,-0.051000003,-1.9540001,2.3612683,0,nan,0.0,0.0,0.0,0,3,1,1,1,30,0,0,0
661144227,0,36.6609605,126.3418758,18.166,35.821,1724641937799848,11141125,0.246,3.1415925,0.81200004,1.1470001,0.55,0.77,59,17,0.079,-0.05,0.061000004,-1.9330001,2.3612683,0,nan,0.0,0.0,0.0,0,3,1,1,1,30,0,0,0
661245406,0,36.6609605,126.3418758,18.36,36.014,1724641937899848,11141125,0.246,3.1415925,0.81200004,1.1470001,0.55,0.77,59,17,0.022000002,-0.021000002,-0.007,-1.9460001,2.3612683,0,nan,0.0,0.0,0.0,0,3,1,1,1,30,0,0,0
661353833,0,36.6609605,126.3418758,18.556,36.21,1724641937999849,11141125,0.246,3.1415925,0.81200004,1.1470001,0.55,0.77,59,17,0.038000003,0.011000001,-0.037,-1.9670001,2.3612683,0,nan,0.0,0.0,0.0,0,3,1,1,1,30,0,0,0
661444932,0,36.6609605,126.3418758,18.748,36.403,1724641938099848,11141125,0.246,3.1415925,0.81200004,1.1470001,0.55,0.77,59,17,0.024,0.012,-0.021000002,-1.9660001,2.3612683,0,nan,0.0,0.0,0.0,0,3,1,1,1,30,0,0,0
661544839,0,36.6609605,126.34187569999999,18.946,36.6,1724641938199848,11141125,0.246,3.1415925,0.81200004,1.1470001,0.55,0.77,59,17,0.060000002,0.044000003,-0.040000003,-1.9540001,2.3612683,0,nan,0.0,0.0,0.0,0,3,1,1,1,30,0,0,0
661643831,0,36.6609605,126.34187569999999,19.143,36.798,1724641938299848,11141125,0.246,3.1415925,0.813,1.148,0.55,0.77,59,17,0.065000005,0.034,-0.055000003,-1.9840001,2.3612683,0,nan,0.0,0.0,0.0,0,3,1,1,1,30,0,0,0
661742833,0,36.660960599999996,126.34187569999999,19.34,36.995,1724641938399848,11141125,0.246,3.1415925,0.813,1.148,0.55,0.77,59,17,0.023000002,0.023000002,0.0,-1.9890001,2.3612683,0,nan,0.0,0.0,0.0,0,3,1,1,1,30,0,0,0
661844886,0,36.660960599999996,126.34187569999999,19.539,37.194,1724641938499847,11141125,0.246,3.1415925,0.813,1.148,0.55,0.77,59,17,0.067,-0.042000003,0.051000003,-1.9760001,2.3612683,0,nan,0.0,0.0,0.0,0,3,1,1,1,30,0,0,0
661944062,0,36.6609605,126.34187569999999,19.73,37.384,1724641938599847,11141125,0.246,3.1415925,0.813,1.148,0.55,0.77,59,24,0.040000003,-0.016,-0.037,-1.9410001,2.3612683,0,nan,0.0,0.0,0.0,0,3,1,1,1,30,0,0,0
662043832,0,36.6609605,126.34187569999999,19.926000000000002,37.581,1724641938699847,11141125,0.246,3.1415925,0.813,1.148,0.55,0.77,59,24,0.031000001,-0.031000001,0.0,-1.9440001,2.3612683,0,nan,0.0,0.0,0.0,0,3,1,1,1,30,0,0,0
662145834,0,36.6609605,126.3418758,20.117,37.772,1724641938799847,11141125,0.246,3.0957744,0.813,1.148,0.55,0.77,59,24,0.082,-0.062000003,0.053000003,-1.9760001,2.3612683,0,nan,0.0,0.0,0.0,0,3,1,1,1,30,0,0,0
662243833,0,36.6609604,126.3418758,20.314,37.968,1724641938899847,11141125,0.245,3.1415925,0.813,1.148,0.55,0.77,59,24,0.053000003,-0.051000003,0.015000001,-1.968,2.3612683,0,nan,0.0,0.0,0.0,0,3,1,1,1,30,0,0,0
662345833,0,36.6609604,126.3418758,20.511,38.165,1724641938999848,11141125,0.245,3.1415925,0.813,1.149,0.55,0.77,59,24,0.045,-0.043,0.012,-1.9990001,2.3612683,0,nan,0.0,0.0,0.0,0,3,1,1,1,30,0,0,0
662443832,0,36.6609604,126.34187589999999,20.701,38.356,1724641939099847,11141125,0.245,3.1415925,0.813,1.149,0.55,0.77,59,24,0.021000002,-0.019000001,0.009000001,-1.9560001,2.3612683,0,nan,0.0,0.0,0.0,0,3,1,1,1,30,0,0,0
662543833,0,36.6609604,126.34187589999999,20.891000000000002,38.546,1724641939199847,11141125,0.24200001,3.1415925,0.813,1.149,0.55,0.77,59,24,0.035,0.035,0.003,-1.9470001,2.3612683,0,nan,0.0,0.0,0.0,0,3,1,1,1,30,0,0,0
662643834,0,36.6609604,126.34187589999999,21.087,38.742,1724641939299847,11141125,0.24000001,3.1415925,0.81200004,1.149,0.55,0.77,59,24,0.039,0.0050000004,-0.039,-1.9900001,2.3612683,0,nan,0.0,0.0,0.0,0,3,1,1,1,30,0,0,0
662744838,0,36.6609604,126.34187589999999,21.282,38.937,1724641939399847,11141125,0.24200001,3.1415925,0.81200004,1.149,0.55,0.77,59,24,0.045,0.011000001,0.044000003,-1.9770001,2.3612683,0,nan,0.0,0.0,0.0,0,3,1,1,1,30,0,0,0
662843839,0,36.6609604,126.34187589999999,21.485,39.14,1724641939499847,11141125,0.23900001,3.1415925,0.81200004,1.149,0.55,0.77,59,24,0.087000005,-0.064,-0.059000004,-1.9470001,2.3612683,0,nan,0.0,0.0,0.0,0,3,1,1,1,30,0,0,0
662946471,0,36.6609604,126.3418758,21.684,39.339,1724641939599847,11141125,0.24200001,3.1415925,0.81200004,1.149,0.55,0.77,59,17,0.043,0.042000003,0.009000001,-1.9710001,2.3612683,0,nan,0.0,0.0,0.0,0,3,2,1,1,30,0,0,0
663046835,0,36.6609604,126.34187589999999,21.89,39.545,1724641939699847,11141125,0.24100001,3.1415925,0.81200004,1.149,0.55,0.77,59,17,0.044000003,-0.039,0.022000002,-2.015,2.3612683,0,nan,0.0,0.0,0.0,0,3,2,1,1,30,0,0,0
663144852,0,36.6609604,126.34187589999999,22.088,39.743,1724641939799847,11141125,0.24100001,3.1415925,0.81200004,1.149,0.55,0.77,59,17,0.045,-0.038000003,0.022000002,-2.002,2.3612683,0,nan,0.0,0.0,0.0,0,3,2,1,1,30,0,0,0
663242836,0,36.6609604,126.34187589999999,22.288,39.943,1724641939899847,11141125,0.24100001,3.1415925,0.81200004,1.149,0.55,0.77,59,17,0.055000003,0.015000001,-0.053000003,-1.9820001,2.3612683,0,nan,0.0,0.0,0.0,0,3,2,1,1,30,0,0,0
663362834,0,36.6609604,126.34187589999999,22.494,40.149,1724641939999848,11141125,0.24100001,3.1415925,0.81200004,1.149,0.55,0.77,59,17,0.037,-0.028,0.025,-2.029,2.3612683,0,nan,0.0,0.0,0.0,0,3,2,1,1,30,0,0,0
663449834,0,36.6609604,126.34187589999999,22.697,40.351,1724641940099847,11141125,0.24100001,3.1415925,0.81200004,1.149,0.55,0.77,59,17,0.040000003,0.009000001,-0.039,-2.0080001,2.3612683,0,nan,0.0,0.0,0.0,0,3,2,1,1,30,0,0,0
663550153,0,36.6609604,126.3418758,22.888,40.543,1724641940199847,11141125,0.24100001,3.1415925,0.81200004,1.149,0.55,0.77,59,17,0.025,0.023000002,0.010000001,-1.9820001,2.3612683,0,nan,0.0,0.0,0.0,0,3,2,1,1,30,0,0,0
663646834,0,36.6609604,126.34187589999999,23.080000000000002,40.735,1724641940299846,11141125,0.24100001,3.1415925,0.81200004,1.149,0.55,0.77,59,17,0.023000002,0.013,-0.018000001,-2.023,2.3612683,0,nan,0.0,0.0,0.0,0,3,2,1,1,30,0,0,0
663742833,0,36.6609604,126.3418758,23.279,40.933,1724641940399846,11141125,0.24000001,3.1415925,0.81100005,1.149,0.55,0.77,59,17,0.048,-0.034,-0.033,-2.025,2.3612683,0,nan,0.0,0.0,0.0,0,3,2,1,1,30,0,0,0
663842832,0,36.6609604,126.3418758,23.487000000000002,41.142,1724641940499846,11141125,0.24100001,3.1415925,0.81100005,1.149,0.55,0.77,59,17,0.021000002,-0.021000002,0.0050000004,-2.0270002,2.3612683,0,nan,0.0,0.0,0.0,0,3,2,1,1,30,0,0,0
663944833,0,36.6609603,126.3418758,23.689,41.344,1724641940599846,11141125,0.24100001,3.1415925,0.81100005,1.149,0.55,0.77,59,23,0.066,-0.064,0.017,-1.9890001,2.3612683,0,nan,0.0,0.0,0.0,0,3,2,1,1,30,0,0,0
664045834,0,36.6609603,126.34187589999999,23.881,41.535000000000004,1724641940699846,11141125,0.24200001,3.1415925,0.81100005,1.149,0.55,0.77,59,23,0.034,-0.015000001,0.031000001,-2.003,2.3612683,0,nan,0.0,0.0,0.0,0,3,2,1,1,30,0,0,0
664137833,0,36.6609602,126.34187589999999,24.075,41.730000000000004,1724641940799846,11141125,0.24100001,3.1415925,0.81100005,1.149,0.55,0.77,59,23,0.069000006,-0.069000006,-0.004,-2.0070002,2.3612683,0,nan,0.0,0.0,0.0,0,3,2,1,1,30,0,0,0
664244835,0,36.6609602,126.34187589999999,24.272000000000002,41.926,1724641940899846,11141125,0.24300002,3.1415925,0.81100005,1.149,0.55,0.77,59,23,0.065000005,0.039,0.051000003,-1.9610001,2.3612683,0,nan,0.0,0.0,0.0,0,3,2,1,1,30,0,0,0
664350933,0,36.6609602,126.341876,24.47,42.125,1724641940999847,11141125,0.24100001,2.8904202,0.81100005,1.149,0.55,0.77,59,23,0.083000004,-0.07300001,0.040000003,-1.9720001,2.3612683,0,nan,0.0,0.0,0.0,0,3,2,1,1,30,0,0,0
664443840,0,36.6609602,126.341876,24.666,42.32,1724641941099846,11141125,0.24100001,3.1415925,0.81100005,1.149,0.55,0.77,59,23,0.052,-0.049000002,0.016,-1.9970001,2.3612683,0,nan,0.0,0.0,0.0,0,3,2,1,1,30,0,0,0
664546330,0,36.6609601,126.341876,24.862000000000002,42.517,1724641941199846,11141125,0.24100001,3.1415925,0.81100005,1.1500001,0.55,0.77,59,23,0.041,-0.002,-0.041,-2.009,2.3612683,0,nan,0.0,0.0,0.0,0,3,2,1,1,30,0,0,0
664643834,0,36.6609601,126.341876,25.059,42.714,1724641941299846,11141125,0.24200001,3.1415925,0.81100005,1.1500001,0.55,0.77,59,23,0.044000003,-0.016,0.041,-1.95,2.3612683,0,nan,0.0,0.0,0.0,0,3,2,1,1,30,0,0,0
664743840,0,36.6609601,126.3418761,25.254,42.909,1724641941399846,11141125,0.24100001,3.1415925,0.81000006,1.1500001,0.55,0.77,59,23,0.055000003,-0.051000003,0.022000002,-1.9710001,2.3612683,0,nan,0.0,0.0,0.0,0,3,2,1,1,30,0,0,0
664844833,0,36.6609601,126.3418761,25.456,43.111000000000004,1724641941499846,11141125,0.24300002,3.1415925,0.81000006,1.1500001,0.55,0.77,59,23,0.062000003,0.021000002,0.059000004,-1.963,2.3612683,0,nan,0.0,0.0,0.0,0,3,2,1,1,30,0,0,0
664944833,0,36.6609601,126.3418761,25.647000000000002,43.302,1724641941599846,11141125,0.24200001,3.1415925,0.81000006,1.1500001,0.55,0.77,59,15,0.052,0.027,-0.045,-1.9470001,2.3612683,0,nan,0.0,0.0,0.0,0,3,1,1,1,30,0,0,0
665039835,0,36.6609601,126.3418761,25.84,43.494,1724641941699846,11141125,0.24100001,3.1415925,0.81000006,1.1500001,0.55,0.77,59,15,0.058000002,-0.039,-0.043,-1.917,2.3612683,0,nan,0.0,0.0,0.0,0,3,1,1,1,30,0,0,0
665144833,0,36.6609601,126.341876,26.033,43.688,1724641941799846,11141125,0.24200001,3.1415925,0.81000006,1.1500001,0.55,0.77,59,15,0.039,-0.026,-0.029000001,-1.9360001,2.3612683,0,nan,0.0,0.0,0.0,0,3,1,1,1,30,0,0,0
665243983,0,36.6609601,126.341876,26.222,43.876,1724641941899846,11141125,0.24100001,3.1415925,0.81000006,1.1500001,0.55,0.77,59,15,0.076000005,-0.010000001,-0.076000005,-1.9890001,2.3612683,0,nan,0.0,0.0,0.0,0,3,1,1,1,30,0,0,0
665356648,0,36.6609601,126.34187589999999,26.422,44.077,1724641941999846,11141125,0.24300002,3.1415925,0.81000006,1.1500001,0.55,0.77,59,15,0.066,0.061000004,-0.024,-1.9250001,2.3612683,0,nan,0.0,0.0,0.0,0,3,1,1,1,30,0,0,0
665456884,0,36.6609601,126.34187589999999,26.619,44.274,1724641942099845,11141125,0.24100001,3.1415925,0.81000006,1.1500001,0.55,0.77,59,15,0.0050000004,0.0050000004,0.002,-1.9990001,2.3612683,0,nan,0.0,0.0,0.0,0,3,1,1,1,30,0,0,0
665546834,0,36.6609601,126.34187589999999,26.815,44.469,1724641942199845,11141125,0.24000001,3.1415925,0.81000006,1.1500001,0.55,0.77,59,15,0.015000001,-0.014,-0.0050000004,-1.9770001,2.3612683,0,nan,0.0,0.0,0.0,0,3,1,1,1,30,0,0,0
665645832,0,36.6609601,126.34187589999999,27.015,44.67,1724641942299845,11141125,0.24000001,3.1415925,0.81000006,1.1500001,0.55,0.77,59,15,0.069000006,-0.044000003,-0.053000003,-2.002,2.3612683,0,nan,0.0,0.0,0.0,0,3,1,1,1,30,0,0,0
665749840,0,36.6609601,126.3418758,27.224,44.879,1724641942399845,11141125,0.24000001,3.1415925,0.809,1.1500001,0.55,0.77,59,15,0.054,-0.038000003,-0.038000003,-1.9930001,2.3612683,0,nan,0.0,0.0,0.0,0,3,1,1,1,30,0,0,0
665848832,0,36.6609601,126.3418758,27.421,45.075,1724641942499845,11141125,0.24100001,3.1415925,0.809,1.1500001,0.55,0.77,59,15,0.036000002,-0.029000001,-0.022000002,-1.9820001,2.3612683,0,nan,0.0,0.0,0.0,0,3,1,1,1,30,0,0,0
665942840,0,36.6609601,126.3418758,27.616,45.271,1724641942599845,11141125,0.24300002,3.1415925,0.809,1.1500001,0.55,0.77,59,25,0.052,0.046000004,0.024,-2.0300002,2.3612683,0,nan,0.0,0.0,0.0,0,3,1,1,1,30,0,0,0
666046910,0,36.6609601,126.3418758,27.810000000000002,45.465,1724641942699845,11141125,0.24200001,3.1415925,0.809,1.151,0.55,0.77,59,25,0.071,0.042000003,-0.056,-2.006,2.3612683,0,nan,0.0,0.0,0.0,0,3,1,1,1,30,0,0,0
666146425,0,36.6609601,126.34187569999999,28.015,45.67,1724641942799845,11141125,0.24200001,3.1415925,0.809,1.151,0.55,0.77,59,25,0.056,0.046000004,-0.032,-2.033,2.3612683,0,nan,0.0,0.0,0.0,0,3,1,1,1,30,0,0,0
666245833,0,36.6609602,126.34187569999999,28.21,45.865,1724641942899845,11141125,0.24200001,3.1415925,0.809,1.151,0.55,0.77,59,25,0.053000003,0.031000001,-0.044000003,-2.039,2.3612683,0,nan,0.0,0.0,0.0,0,3,1,1,1,30,0,0,0
666357059,0,36.6609602,126.34187569999999,28.408,46.062,1724641942999846,11141125,0.24200001,3.1415925,0.809,1.151,0.55,0.77,59,25,0.028,0.004,-0.028,-1.988,2.3612683,0,nan,0.0,0.0,0.0,0,3,1,1,1,30,0,0,0
666446890,0,36.6609601,126.3418756,28.608,46.263,1724641943099845,11141125,0.24100001,3.1415925,0.809,1.151,0.55,0.77,59,25,0.031000001,-0.018000001,-0.025,-2.019,2.3612683,0,nan,0.0,0.0,0.0,0,3,1,1,1,30,0,0,0
666543840,0,36.6609601,126.3418756,28.809,46.464,1724641943199845,11141125,0.24200001,3.1415925,0.809,1.151,0.55,0.77,59,25,0.035,0.016,0.031000001,-1.9850001,2.3612683,0,nan,0.0,0.0,0.0,0,3,1,1,1,30,0,0,0
666646057,0,36.6609601,126.34187569999999,29.007,46.662,1724641943299845,11141125,0.24100001,3.1415925,0.808,1.151,0.55,0.77,59,25,0.021000002,-0.015000001,0.015000001,-1.9940001,2.3612683,0,nan,0.0,0.0,0.0,0,3,1,1,1,30,0,0,0
666744841,0,36.6609601,126.34187569999999,29.204,46.859,1724641943399845,11141125,0.24100001,2.8985612,0.808,1.151,0.55,0.77,59,25,0.082,-0.053000003,0.062000003,-2.0080001,2.3612683,0,nan,0.0,0.0,0.0,0,3,1,1,1,30,0,0,0
666837834,0,36.6609601,126.3418758,29.401,47.056000000000004,1724641943499845,11141125,0.24200001,3.1415925,0.808,1.151,0.55,0.77,59,25,0.009000001,0.0050000004,-0.008,-2.025,2.3612683,0,nan,0.0,0.0,0.0,0,3,1,1,1,30,0,0,0
666944835,0,36.6609601,126.3418758,29.604,47.259,1724641943599845,11141125,0.24200001,3.1415925,0.808,1.151,0.55,0.77,59,26,0.010000001,-0.010000001,-0.001,-2.0440001,2.3612683,0,nan,0.0,0.0,0.0,0,3,1,1,1,30,0,0,0
667044833,0,36.6609601,126.34187569999999,29.796,47.451,1724641943699845,11141125,0.24200001,3.1415925,0.808,1.151,0.55,0.77,59,26,0.055000003,0.040000003,-0.038000003,-2.005,2.3612683,0,nan,0.0,0.0,0.0,0,3,1,1,1,30,0,0,0
667143219,0,36.6609601,126.34187569999999,29.995,47.649,1724641943799844,11141125,0.24100001,3.1415925,0.808,1.151,0.55,0.77,59,26,0.030000001,-0.021000002,0.021000002,-2.016,2.3612683,0,nan,0.0,0.0,0.0,0,3,1,1,1,30,0,0,0
667244833,0,36.660959999999996,126.3418758,30.199,47.853,1724641943899844,11141125,0.24000001,3.1415925,0.808,1.151,0.55,0.77,59,26,0.044000003,-0.044000003,-0.002,-2.003,2.3612683,0,nan,0.0,0.0,0.0,0,3,1,1,1,30,0,0,0
667354353,0,36.660959999999996,126.3418758,30.393,48.047000000000004,1724641943999845,11141125,0.24000001,3.1415925,0.808,1.151,0.55,0.77,59,26,0.059000004,-0.059000004,0.0,-1.9640001,2.3612683,0,nan,0.0,0.0,0.0,0,3,1,1,1,30,0,0,0
667449834,0,36.6609599,126.3418758,30.59,48.245000000000005,1724641944099844,11141125,0.24100001,1.9603373,0.808,1.151,0.55,0.77,59,26,0.120000005,-0.069000006,0.09900001,-2.025,2.3612683,0,nan,0.0,0.0,0.0,0,3,1,1,1,30,0,0,0
667544833,0,36.6609598,126.34187589999999,30.792,48.446,1724641944199844,11141125,0.23900001,2.609204,0.80700004,1.151,0.55,0.77,59,26,0.096,-0.095000006,0.018000001,-2.01,2.3612683,0,nan,0.0,0.0,0.0,0,3,1,1,1,30,0,0,0
667645834,0,36.6609598,126.34187589999999,30.990000000000002,48.644,1724641944299844,11141125,0.24000001,3.1415925,0.80700004,1.151,0.55,0.77,59,26,0.037,-0.019000001,-0.032,-2.023,2.3612683,0,nan,0.0,0.0,0.0,0,3,1,1,1,30,0,0,0
667740834,0,36.6609597,126.34187589999999,31.189,48.843,1724641944399844,11141125,0.24000001,3.1415925,0.80700004,1.151,0.55,0.77,59,26,0.060000002,-0.060000002,-0.006,-2.046,2.3612683,0,nan,0.0,0.0,0.0,0,3,1,1,1,30,0,0,0
667845833,0,36.6609597,126.34187589999999,31.395,49.049,1724641944499844,11141125,0.24200001,2.9556286,0.80700004,1.151,0.55,0.77,59,26,0.098000005,0.061000004,0.07700001,-2.0410001,2.3612683,0,nan,0.0,0.0,0.0,0,3,1,1,1,30,0,0,0
667944834,0,36.6609598,126.34187589999999,31.592000000000002,49.246,1724641944599844,11141125,0.24100001,3.1415925,0.80700004,1.151,0.55,0.77,59,26,0.048,0.024,-0.042000003,-2.0170002,2.3612683,0,nan,0.0,0.0,0.0,0,3,2,1,1,30,0,0,0
668044834,0,36.6609598,126.34187589999999,31.797,49.451,1724641944699844,11141125,0.24100001,3.1415925,0.80700004,1.151,0.55,0.77,59,26,0.067,-0.003,-0.067,-2.038,2.3612683,0,nan,0.0,0.0,0.0,0,3,2,1,1,30,0,0,0
668145833,0,36.6609598,126.3418758,31.995,49.65,1724641944799844,11141125,0.24200001,3.1415925,0.80700004,1.151,0.55,0.77,59,26,0.066,0.052,-0.041,-2.0530002,2.3612683,0,nan,0.0,0.0,0.0,0,3,2,1,1,30,0,0,0
668244834,0,36.6609598,126.3418758,32.196,49.85,1724641944899844,11141125,0.24100001,3.1415925,0.80700004,1.151,0.55,0.77,59,26,0.07,-0.008,-0.069000006,-2.062,2.3612683,0,nan,0.0,0.0,0.0,0,3,2,1,1,30,0,0,0
668353832,0,36.6609598,126.34187569999999,32.398,50.053000000000004,1724641944999845,11141125,0.24200001,3.1415925,0.80700004,1.151,0.55,0.77,59,26,0.068,0.054,-0.041,-2.0010002,2.3612683,0,nan,0.0,0.0,0.0,0,3,2,1,1,30,0,0,0
668453833,0,36.6609598,126.34187569999999,32.593,50.247,1724641945099844,11141125,0.24200001,3.1415925,0.80700004,1.1520001,0.55,0.77,59,26,0.022000002,-0.018000001,0.012,-2.01,2.3612683,0,nan,0.0,0.0,0.0,0,3,2,1,1,30,0,0,0
668545844,0,36.6609598,126.34187569999999,32.789,50.444,1724641945199844,11141125,0.24200001,3.1415925,0.80700004,1.1520001,0.55,0.77,59,26,0.022000002,0.008,-0.021000002,-2.0170002,2.3612683,0,nan,0.0,0.0,0.0,0,3,2,1,1,30,0,0,0
668640832,0,36.6609598,126.34187569999999,32.986000000000004,50.64,1724641945299844,11141125,0.24200001,3.1415925,0.80700004,1.1520001,0.55,0.77,59,26,0.009000001,0.004,-0.008,-2.01,2.3612683,0,nan,0.0,0.0,0.0,0,3,2,1,1,30,0,0,0
668745833,0,36.6609598,126.34187569999999,33.181,50.836,1724641945399844,11141125,0.24300002,3.1415925,0.80600005,1.1520001,0.55,0.77,59,26,0.051000003,0.05,0.011000001,-2.002,2.3612683,0,nan,0.0,0.0,0.0,0,3,2,1,1,30,0,0,0
668845839,0,36.6609599,126.34187569999999,33.39,51.044000000000004,1724641945499843,11141125,0.24200001,3.1415925,0.80600005,1.1520001,0.55,0.77,59,26,0.049000002,0.029000001,-0.039,-2.051,2.3612683,0,nan,0.0,0.0,0.0,0,3,2,1,1,30,0,0,0
668945833,0,36.6609599,126.34187569999999,33.595,51.25,1724641945599843,11141125,0.24300002,3.1415925,0.80600005,1.1520001,0.55,0.77,59,15,0.042000003,0.042000003,-0.002,-2.0470002,2.3612683,0,nan,0.0,0.0,0.0,0,3,2,1,1,30,0,0,0
669046835,0,36.660959999999996,126.34187569999999,33.794000000000004,51.448,1724641945699843,11141125,0.24300002,3.1415925,0.80600005,1.1520001,0.55,0.77,59,15,0.067,0.067,-0.001,-2.029,2.3612683,0,nan,0.0,0.0,0.0,0,3,2,1,1,30,0,0,0
669145009,0,36.660959999999996,126.34187569999999,33.991,51.645,1724641945799843,11141125,0.24200001,3.1415925,0.80600005,1.1520001,0.55,0.77,59,15,0.046000004,0.036000002,-0.030000001,-2.0210001,2.3612683,0,nan,0.0,0.0,0.0,0,3,2,1,1,30,0,0,0
669244546,0,36.660959999999996,126.34187569999999,34.19,51.844,1724641945899843,11141125,0.24200001,3.1415925,0.80600005,1.1520001,0.55,0.77,59,15,0.041,0.041,0.006,-1.978,2.3612683,0,nan,0.0,0.0,0.0,0,3,2,1,1,30,0,0,0
669351838,0,36.6609601,126.34187569999999,34.39,52.044000000000004,1724641945999844,11141125,0.24200001,3.1415925,0.80600005,1.1520001,0.55,0.77,59,15,0.018000001,0.018000001,-0.003,-1.9990001,2.3612683,0,nan,0.0,0.0,0.0,0,3,2,1,1,30,0,0,0
669447059,0,36.6609601,126.34187569999999,34.588,52.243,1724641946099843,11141125,0.24100001,3.1415925,0.80600005,1.1520001,0.55,0.77,59,15,0.042000003,-0.004,-0.042000003,-2.062,2.3612683,0,nan,0.0,0.0,0.0,0,3,2,1,1,30,0,0,0
669539848,0,36.660959999999996,126.34187569999999,34.787,52.442,1724641946199843,11141125,0.24200001,3.1415925,0.80600005,1.1520001,0.55,0.77,59,15,0.037,-0.028,0.024,-2.0240002,2.3612683,0,nan,0.0,0.0,0.0,0,3,2,1,1,30,0,0,0
669645832,0,36.6609601,126.34187569999999,34.997,52.652,1724641946299843,11141125,0.24200001,3.1415925,0.80600005,1.1520001,0.55,0.77,59,15,0.044000003,0.044000003,0.0050000004,-2.042,2.3612683,0,nan,0.0,0.0,0.0,0,3,2,1,1,30,0,0,0
669743833,0,36.6609601,126.34187569999999,35.195,52.85,1724641946399843,11141125,0.24200001,3.1415925,0.80600005,1.153,0.55,0.77,59,15,0.051000003,0.0050000004,0.051000003,-2.022,2.3612683,0,nan,0.0,0.0,0.0,0,3,2,1,1,30,0,0,0
669843957,0,36.6609601,126.34187569999999,35.397,53.052,1724641946499843,11141125,0.24100001,3.1415925,0.80600005,1.153,0.55,0.77,59,15,0.022000002,-0.020000001,-0.009000001,-1.9490001,2.3612683,0,nan,0.0,0.0,0.0,0,3,2,1,1,30,0,0,0
669945839,0,36.6609601,126.34187569999999,35.592,53.247,1724641946599843,11141125,0.24200001,3.1415925,0.80600005,1.153,0.55,0.77,59,15,0.021000002,0.020000001,0.0050000004,-1.9580001,2.3612683,0,nan,0.0,0.0,0.0,0,3,2,1,1,30,0,0,0
670045231,0,36.660959999999996,126.3418758,35.789,53.443,1724641946699843,11141125,0.24100001,2.7886424,0.80500007,1.153,0.55,0.77,59,15,0.085,-0.066,0.053000003,-1.9760001,2.3612683,0,nan,0.0,0.0,0.0,0,3,2,1,1,30,0,0,0
670143842,0,36.660959999999996,126.3418758,35.991,53.645,1724641946799843,11141125,0.24100001,3.1415925,0.80500007,1.153,0.55,0.77,59,15,0.057000004,-0.032,0.047000002,-1.996,2.3612683,0,nan,0.0,0.0,0.0,0,3,2,1,1,30,0,0,0
670245833,0,36.660959999999996,126.34187589999999,36.189,53.844,1724641946899843,11141125,0.24000001,3.1415925,0.80500007,1.153,0.55,0.77,59,15,0.049000002,-0.047000002,-0.014,-2.0110002,2.3612683,0,nan,0.0,0.0,0.0,0,3,2,1,1,30,0,0,0
670351833,0,36.660959999999996,126.34187589999999,36.393,54.047000000000004,1724641946999844,11141125,0.24100001,3.1415925,0.80500007,1.1520001,0.55,0.77,59,15,0.027,0.023000002,0.014,-2.003,2.3612683,0,nan,0.0,0.0,0.0,0,3,2,1,1,30,0,0,0
670445832,0,36.660959999999996,126.3418758,36.594,54.248000000000005,1724641947099843,11141125,0.23900001,3.1415925,0.80500007,1.1520001,0.55,0.77,59,15,0.071,-0.062000003,-0.033,-2.023,2.3612683,0,nan,0.0,0.0,0.0,0,3,2,1,1,30,0,0,0
670543833,0,36.6609599,126.3418758,36.786,54.441,1724641947199843,11141125,0.24000001,3.1415925,0.80500007,1.1520001,0.55,0.77,59,15,0.029000001,-0.029000001,-0.001,-1.991,2.3612683,0,nan,0.0,0.0,0.0,0,3,2,1,1,30,0,0,0
670642835,0,36.6609599,126.3418758,36.993,54.647,1724641947299842,11141125,0.24000001,3.1415925,0.80500007,1.1520001,0.55,0.77,59,15,0.07700001,-0.023000002,-0.074,-2.019,2.3612683,0,nan,0.0,0.0,0.0,0,3,2,1,1,30,0,0,0
670747835,0,36.6609599,126.34187569999999,37.188,54.842,1724641947399842,11141125,0.24100001,3.1415925,0.80500007,1.1520001,0.55,0.77,59,15,0.071,0.042000003,-0.057000004,-2.062,2.3612683,0,nan,0.0,0.0,0.0,0,3,2,1,1,30,0,0,0
670851833,0,36.6609599,126.34187569999999,37.389,55.044000000000004,1724641947499842,11141125,0.24000001,3.1415925,0.80500007,1.1520001,0.55,0.77,59,15,0.041,-0.039,0.010000001,-2.043,2.3612683,0,nan,0.0,0.0,0.0,0,3,2,1,1,30,0,0,0
