timestamp,timestamp_sample,latitude_deg,longitude_deg,altitude_msl_m,altitude_ellipsoid_m,time_utc_usec,device_id,s_variance_m_s,c_variance_rad,eph,epv,hdop,vdop,noise_per_ms,jamming_indicator,vel_m_s,vel_n_m_s,vel_e_m_s,vel_d_m_s,cog_rad,timestamp_time_relative,heading,heading_offset,heading_accuracy,rtcm_injection_rate,automatic_gain_control,fix_type,jamming_state,spoofing_state,vel_ned_valid,satellites_used,selected_rtcm_instance,rtcm_crc_failed,rtcm_msg_used
624445413,0,36.6609726,126.34187589999999,2.86,20.515,1724643200199849,11141125,0.27400002,3.1415925,0.85,1.19,0.48999998,0.72999996,64,63,0.057000004,-0.018000001,0.054,0.026,3.7489486,0,nan,0.0,0.0,0.0,0,3,2,1,1,32,0,0,0
624622819,0,36.6609725,126.3418758,2.861,20.516000000000002,1724643200399849,11141125,0.287,3.1415925,0.84900004,1.19,0.48999998,0.72999996,65,35,0.010000001,-0.008,0.006,-0.007,3.7489486,0,nan,0.0,0.0,0.0,0,3,2,1,1,32,0,0,0
624715891,0,36.6609725,126.3418758,2.864,20.519000000000002,1724643200499849,11141125,0.284,3.1415925,0.84900004,1.19,0.48999998,0.72999996,65,35,0.013,0.010000001,0.008,0.002,3.7489486,0,nan,0.0,0.0,0.0,0,3,2,1,1,32,0,0,0
624822336,0,36.6609725,126.3418758,2.859,20.514,1724643200599849,11141125,0.27600002,3.1415925,0.84900004,1.19,0.48999998,0.72999996,65,35,0.016,0.016,0.0050000004,0.014,3.7489486,0,nan,0.0,0.0,0.0,0,3,2,1,1,32,0,0,0
624922797,0,36.6609725,126.3418758,2.861,20.516000000000002,1724643200699849,11141125,0.28100002,3.1415925,0.84900004,1.19,0.48999998,0.72999996,65,35,0.026,-0.010000001,-0.024,0.034,3.7489486,0,nan,0.0,0.0,0.0,0,3,2,1,1,32,0,0,0
625018791,0,36.6609725,126.3418758,2.866,20.521,1724643200799849,11141125,0.289,3.1415925,0.84900004,1.19,0.48999998,0.72999996,65,35,0.0050000004,0.004,0.003,-0.001,3.7489486,0,nan,0.0,0.0,0.0,0,3,2,1,1,32,0,0,0
625122792,0,36.6609725,126.3418758,2.872,20.527,1724643200899849,11141125,0.287,3.1415925,0.84900004,1.189,0.48999998,0.72999996,65,35,0.034,-0.024,-0.024,0.0,3.7489486,0,nan,0.0,0.0,0.0,0,3,2,1,1,32,0,0,0
625230792,0,36.6609725,126.3418758,2.879,20.534,1724643200999850,11141125,0.287,3.1415925,0.84900004,1.189,0.48999998,0.72999996,65,35,0.026,-0.003,0.026,-0.008,3.7489486,0,nan,0.0,0.0,0.0,0,3,2,1,1,32,0,0,0
625324791,0,36.6609725,126.3418758,2.8810000000000002,20.536,1724643201099849,11141125,0.289,3.1415925,0.84900004,1.189,0.48999998,0.72999996,65,35,0.017,0.017,0.001,0.0050000004,3.7489486,0,nan,0.0,0.0,0.0,0,3,2,1,1,32,0,0,0
625418791,0,36.6609725,126.3418758,2.884,20.539,1724643201199849,11141125,0.28800002,3.1415925,0.84900004,1.189,0.48999998,0.72999996,65,35,0.025,0.024,-0.004,0.012,3.7489486,0,nan,0.0,0.0,0.0,0,3,2,1,1,32,0,0,0
625518230,0,36.6609725,126.3418758,2.8930000000000002,20.548000000000002,1724643201299849,11141125,0.29000002,3.1415925,0.84900004,1.189,0.48999998,0.72999996,65,35,0.048,-0.047000002,-0.010000001,-0.001,3.7489486,0,nan,0.0,0.0,0.0,0,3,2,1,1,32,0,0,0
625614790,0,36.6609725,126.3418758,2.891,20.546,1724643201399849,11141125,0.28800002,3.1415925,0.84900004,1.189,0.48999998,0.72999996,65,18,0.060000002,0.057000004,0.019000001,0.001,3.7489486,0,nan,0.0,0.0,0.0,0,3,2,1,1,32,0,0,0
625720790,0,36.6609725,126.3418758,2.894,20.549,1724643201499849,11141125,0.277,3.1415925,0.84800005,1.189,0.48999998,0.72999996,65,18,0.020000001,0.004,-0.020000001,0.041,3.7489486,0,nan,0.0,0.0,0.0,0,3,2,1,1,32,0,0,0
625821805,0,36.6609725,126.3418758,2.896,20.55,1724643201599848,11141125,0.28300002,3.1415925,0.84800005,1.189,0.48999998,0.72999996,65,18,0.068,0.021000002,0.064,-0.004,3.7489486,0,nan,0.0,0.0,0.0,0,3,2,1,1,32,0,0,0
625919794,0,36.6609725,126.3418758,2.8970000000000002,20.551000000000002,1724643201699848,11141125,0.284,3.1415925,0.84800005,1.189,0.48999998,0.72999996,65,18,0.036000002,-0.027,-0.023000002,0.006,3.7489486,0,nan,0.0,0.0,0.0,0,3,2,1,1,32,0,0,0
626020792,0,36.6609725,126.3418758,2.907,20.562,1724643201799848,11141125,0.284,3.1415925,0.84800005,1.189,0.48999998,0.72999996,65,18,0.071,0.006,0.071,0.003,3.7489486,0,nan,0.0,0.0,0.0,0,3,2,1,1,32,0,0,0
626117795,0,36.6609725,126.3418758,2.916,20.571,1724643201899848,11141125,0.29000002,3.1415925,0.84800005,1.189,0.48999998,0.72999996,65,18,0.026,-0.010000001,0.024,-0.015000001,3.7489486,0,nan,0.0,0.0,0.0,0,3,2,1,1,32,0,0,0
626224790,0,36.6609725,126.3418758,2.918,20.572,1724643201999849,11141125,0.268,3.1415925,0.84800005,1.1880001,0.48999998,0.72999996,65,18,0.020000001,0.010000001,-0.018000001,-0.030000001,3.7489486,0,nan,0.0,0.0,0.0,0,3,2,1,1,32,0,0,0
626328792,0,36.6609725,126.3418758,2.924,20.578,1724643202099848,11141125,0.26700002,3.1415925,0.84800005,1.1880001,0.48999998,0.72999996,65,18,0.016,-0.011000001,-0.011000001,-0.09200001,3.7489486,0,nan,0.0,0.0,0.0,0,3,2,1,1,32,0,0,0
626424790,0,36.6609725,126.3418758,2.922,20.577,1724643202199848,11141125,0.27600002,3.1415925,0.84800005,1.1880001,0.48999998,0.72999996,65,18,0.026,-0.022000002,0.013,0.027,3.7489486,0,nan,0.0,0.0,0.0,0,3,2,1,1,32,0,0,0
626514790,0,36.6609725,126.3418758,2.923,20.578,1724643202299848,11141125,0.293,3.1415925,0.84800005,1.1880001,0.48999998,0.72999996,65,18,0.013,-0.010000001,0.007,-0.004,3.7489486,0,nan,0.0,0.0,0.0,0,3,2,1,1,32,0,0,0
626618821,0,36.6609725,126.3418758,2.924,20.579,1724643202399848,11141125,0.289,3.1415925,0.84800005,1.1880001,0.48999998,0.72999996,65,36,0.058000002,0.052,0.027,-0.026,3.7489486,0,nan,0.0,0.0,0.0,0,3,2,1,1,32,0,0,0
626717792,0,36.6609725,126.3418758,2.924,20.579,1724643202499848,11141125,0.26500002,3.1415925,0.84800005,1.1880001,0.48999998,0.72999996,65,36,0.018000001,-0.008,-0.017,-0.008,3.7489486,0,nan,0.0,0.0,0.0,0,3,2,1,1,32,0,0,0
626821792,0,36.6609725,126.3418758,2.922,20.576,1724643202599848,11141125,0.28500003,3.1415925,0.84800005,1.1880001,0.48999998,0.72999996,65,36,0.051000003,-0.017,-0.048,0.049000002,3.7489486,0,nan,0.0,0.0,0.0,0,3,2,1,1,32,0,0,0
626918789,0,36.6609725,126.34187569999999,2.927,20.582,1724643202699848,11141125,0.289,3.1415925,0.84800005,1.1880001,0.48999998,0.72999996,65,36,0.039,0.039,0.002,0.003,3.7489486,0,nan,0.0,0.0,0.0,0,3,2,1,1,32,0,0,0
627016824,0,36.6609725,126.34187569999999,2.931,20.585,1724643202799848,11141125,0.291,3.1415925,0.84700006,1.1880001,0.48999998,0.72999996,65,36,0.012,-0.012,-0.001,0.002,3.7489486,0,nan,0.0,0.0,0.0,0,3,2,1,1,32,0,0,0
627117790,0,36.6609725,126.34187569999999,2.931,20.585,1724643202899848,11141125,0.26000002,3.1415925,0.84700006,1.1880001,0.48999998,0.72999996,65,36,0.011000001,0.009000001,0.007,0.030000001,3.7489486,0,nan,0.0,0.0,0.0,0,3,2,1,1,32,0,0,0
627227073,0,36.6609725,126.34187569999999,2.944,20.598,1724643202999849,11141125,0.27,3.1415925,0.84700006,1.187,0.48999998,0.72999996,65,36,0.030000001,-0.006,0.030000001,0.010000001,3.7489486,0,nan,0.0,0.0,0.0,0,3,2,1,1,32,0,0,0
627324790,0,36.6609725,126.34187569999999,2.943,20.597,1724643203099848,11141125,0.273,3.1415925,0.84700006,1.187,0.48999998,0.72999996,65,36,0.022000002,-0.010000001,-0.020000001,-0.003,3.7489486,0,nan,0.0,0.0,0.0,0,3,2,1,1,32,0,0,0
627411791,0,36.6609725,126.34187569999999,2.947,20.602,1724643203199848,11141125,0.263,3.1415925,0.84700006,1.187,0.48999998,0.72999996,65,36,0.054,0.036000002,0.040000003,0.035,3.7489486,0,nan,0.0,0.0,0.0,0,3,2,1,1,32,0,0,0
627518792,0,36.6609725,126.3418758,2.953,20.607,1724643203299848,11141125,0.263,3.1415925,0.84700006,1.187,0.48999998,0.72999996,65,36,0.019000001,-0.011000001,0.015000001,0.025,3.7489486,0,nan,0.0,0.0,0.0,0,3,2,1,1,32,0,0,0
627619451,0,36.6609725,126.3418758,2.953,20.608,1724643203399848,11141125,0.256,3.1415925,0.846,1.1860001,0.48999998,0.72999996,64,18,0.017,0.001,0.017,0.045,3.7489486,0,nan,0.0,0.0,0.0,0,3,2,1,1,32,0,0,0
627717790,0,36.6609725,126.3418758,2.955,20.61,1724643203499848,11141125,0.26200002,3.1415925,0.846,1.1860001,0.48999998,0.72999996,64,18,0.035,-0.020000001,0.028,0.058000002,3.7489486,0,nan,0.0,0.0,0.0,0,3,2,1,1,32,0,0,0
627818796,0,36.6609725,126.3418758,2.951,20.606,1724643203599847,11141125,0.28300002,3.1415925,0.846,1.1860001,0.48999998,0.72999996,64,18,0.052,0.022000002,-0.047000002,0.026,3.7489486,0,nan,0.0,0.0,0.0,0,3,2,1,1,32,0,0,0
627917792,0,36.6609725,126.34187569999999,2.96,20.615000000000002,1724643203699847,11141125,0.284,3.1415925,0.846,1.1860001,0.48999998,0.72999996,64,18,0.043,-0.040000003,-0.017,0.0,3.7489486,0,nan,0.0,0.0,0.0,0,3,2,1,1,32,0,0,0
628016792,0,36.6609725,126.34187569999999,2.96,20.615000000000002,1724643203799847,11141125,0.26900002,3.1415925,0.846,1.1860001,0.48999998,0.72999996,64,18,0.059000004,0.037,0.046000004,0.023000002,3.7489486,0,nan,0.0,0.0,0.0,0,3,2,1,1,32,0,0,0
628122950,0,36.6609725,126.3418758,2.964,20.619,1724643203899847,11141125,0.27600002,3.1415925,0.846,1.1850001,0.48999998,0.72999996,64,18,0.012,-0.002,0.012,-0.019000001,3.7489486,0,nan,0.0,0.0,0.0,0,3,2,1,1,32,0,0,0
628235920,0,36.6609725,126.3418758,2.964,20.618000000000002,1724643203999848,11141125,0.282,3.1415925,0.846,1.1850001,0.48999998,0.72999996,64,18,0.020000001,0.008,0.018000001,-0.021000002,3.7489486,0,nan,0.0,0.0,0.0,0,3,2,1,1,32,0,0,0
628316791,0,36.6609725,126.3418758,2.964,20.619,1724643204099847,11141125,0.28500003,3.1415925,0.845,1.1850001,0.48999998,0.72999996,64,18,0.055000003,0.045,-0.030000001,0.0050000004,3.7489486,0,nan,0.0,0.0,0.0,0,3,2,1,1,32,0,0,0
628419817,0,36.6609725,126.3418758,2.969,20.624,1724643204199847,11141125,0.26700002,3.1415925,0.845,1.1850001,0.48999998,0.72999996,64,18,0.020000001,-0.020000001,0.003,0.056,3.7489486,0,nan,0.0,0.0,0.0,0,3,2,1,1,32,0,0,0
628518797,0,36.6609725,126.34187569999999,2.971,20.626,1724643204299847,11141125,0.268,3.1415925,0.845,1.1850001,0.48999998,0.72999996,64,18,0.011000001,0.011000001,-0.004,0.028,3.7489486,0,nan,0.0,0.0,0.0,0,3,2,1,1,32,0,0,0
628618797,0,36.6609725,126.34187569999999,2.976,20.631,1724643204399847,11141125,0.26200002,3.1415925,0.845,1.1850001,0.48999998,0.72999996,64,43,0.027,0.025,0.010000001,0.040000003,3.7489486,0,nan,0.0,0.0,0.0,0,3,2,1,1,32,0,0,0
628719848,0,36.6609725,126.34187569999999,2.978,20.633,1724643204499847,11141125,0.27600002,3.1415925,0.845,1.184,0.48999998,0.72999996,64,43,0.032,-0.001,-0.032,0.040000003,3.7489486,0,nan,0.0,0.0,0.0,0,3,2,1,1,32,0,0,0
628817791,0,36.6609725,126.34187569999999,2.979,20.634,1724643204599847,11141125,0.266,3.1415925,0.84400004,1.184,0.48999998,0.72999996,64,43,0.012,-0.009000001,0.007,0.015000001,3.7489486,0,nan,0.0,0.0,0.0,0,3,2,1,1,32,0,0,0
628918798,0,36.6609725,126.34187569999999,2.976,20.631,1724643204699847,11141125,0.263,3.1415925,0.84400004,1.184,0.48999998,0.72999996,64,43,0.052,0.013,0.05,0.056,3.7489486,0,nan,0.0,0.0,0.0,0,3,2,1,1,32,0,0,0
629018791,0,36.6609725,126.3418758,2.98,20.635,1724643204799847,11141125,0.28300002,3.1415925,0.84400004,1.184,0.48999998,0.72999996,64,43,0.009000001,0.0050000004,0.008,0.001,3.7489486,0,nan,0.0,0.0,0.0,0,3,2,1,1,32,0,0,0
629118792,0,36.6609725,126.34187569999999,2.99,20.644000000000002,1724643204899847,11141125,0.282,3.1415925,0.84400004,1.184,0.48999998,0.72999996,64,43,0.066,0.003,-0.066,0.030000001,3.7489486,0,nan,0.0,0.0,0.0,0,3,2,1,1,32,0,0,0
629219789,0,36.6609725,126.34187569999999,2.991,20.646,1724643204999848,11141125,0.282,3.1415925,0.84400004,1.1830001,0.48999998,0.72999996,64,43,0.027,0.019000001,0.020000001,-0.007,3.7489486,0,nan,0.0,0.0,0.0,0,3,2,1,1,32,0,0,0
629321793,0,36.6609725,126.34187569999999,2.997,20.652,1724643205099847,11141125,0.27800003,3.1415925,0.84400004,1.1830001,0.48999998,0.72999996,64,43,0.042000003,-0.021000002,-0.036000002,-0.0050000004,3.7489486,0,nan,0.0,0.0,0.0,0,3,2,1,1,32,0,0,0
629418849,0,36.6609725,126.3418756,3.003,20.658,1724643205199847,11141125,0.279,3.1415925,0.84300005,1.1830001,0.48999998,0.72999996,64,43,0.059000004,0.058000002,0.006,-0.042000003,3.7489486,0,nan,0.0,0.0,0.0,0,3,2,1,1,32,0,0,0
629518816,0,36.6609725,126.3418756,3.023,20.678,1724643205299847,11141125,0.264,3.1415925,0.84300005,1.1830001,0.48999998,0.72999996,64,43,0.046000004,0.046000004,-0.003,-0.142,3.7489486,0,nan,0.0,0.0,0.0,0,3,2,1,1,32,0,0,0
629620790,0,36.6609726,126.3418756,3.0460000000000003,20.7,1724643205399847,11141125,0.26200002,3.1415925,0.84300005,1.1830001,0.48999998,0.72999996,64,18,0.024,0.023000002,0.004,-0.17500001,3.7489486,0,nan,0.0,0.0,0.0,0,3,2,1,1,32,0,0,0
629719864,0,36.6609726,126.3418756,3.061,20.716,1724643205499847,11141125,0.26900002,3.1415925,0.84300005,1.182,0.48999998,0.72999996,64,18,0.075,0.074,0.007,-0.132,3.7489486,0,nan,0.0,0.0,0.0,0,3,2,1,1,32,0,0,0
629824790,0,36.660972699999995,126.3418756,3.091,20.745,1724643205599846,11141125,0.27,2.299101,0.84200007,1.182,0.48999998,0.72999996,64,18,0.11800001,0.11800001,-0.012,-0.15400001,3.7489486,0,nan,0.0,0.0,0.0,0,3,2,1,1,32,0,0,0
629925791,0,36.660972799999996,126.3418756,3.112,20.767,1724643205699846,11141125,0.273,1.7833792,0.84200007,1.182,0.48999998,0.72999996,64,18,0.15400001,0.15,-0.035,-0.109000005,3.7489486,0,nan,0.0,0.0,0.0,0,3,2,1,1,32,0,0,0
630025796,0,36.6609729,126.3418755,3.1310000000000002,20.785,1724643205799846,11141125,0.27,1.7469738,0.84200007,1.182,0.48999998,0.72999996,64,18,0.156,0.156,-0.010000001,-0.185,3.7489486,0,nan,0.0,0.0,0.0,0,3,2,1,1,32,0,0,0
630117797,0,36.6609731,126.3418755,3.164,20.819,1724643205899846,11141125,0.26700002,1.5453173,0.84200007,1.182,0.48999998,0.72999996,64,18,0.18200001,0.18100001,-0.018000001,-0.286,3.7489486,0,nan,0.0,0.0,0.0,0,3,2,1,1,32,0,0,0
630235797,0,36.660973299999995,126.3418755,3.208,20.862000000000002,1724643205999847,11141125,0.26900002,1.5916578,0.84200007,1.182,0.48999998,0.72999996,64,18,0.177,0.17600001,0.022000002,-0.39000002,3.7489486,0,nan,0.0,0.0,0.0,0,3,2,1,1,32,0,0,0
630325792,0,36.660973399999996,126.3418755,3.255,20.91,1724643206099846,11141125,0.26900002,2.1717994,0.841,1.182,0.48999998,0.72999996,64,18,0.13000001,0.128,0.024,-0.49,3.7489486,0,nan,0.0,0.0,0.0,0,3,2,1,1,32,0,0,0
630431790,0,36.6609735,126.3418755,3.315,20.97,1724643206199846,11141125,0.26500002,2.1728947,0.841,1.182,0.48999998,0.72999996,64,18,0.133,0.133,-0.010000001,-0.56600004,3.7489486,0,nan,0.0,0.0,0.0,0,3,2,1,1,32,0,0,0
630526804,0,36.6609736,126.3418755,3.3850000000000002,21.04,1724643206299846,11141125,0.26700002,3.1415925,0.841,1.182,0.48999998,0.72999996,64,18,0.08400001,0.083000004,-0.010000001,-0.58000004,3.7489486,0,nan,0.0,0.0,0.0,0,3,2,1,1,32,0,0,0
630624790,0,36.6609736,126.3418756,3.444,21.099,1724643206399846,11141125,0.266,3.1415925,0.841,1.182,0.48999998,0.72999996,64,12,0.076000005,-0.05,0.058000002,-0.59900004,3.7489486,0,nan,0.0,0.0,0.0,0,3,1,1,1,32,0,0,0
630719792,0,36.6609735,126.3418756,3.5260000000000002,21.181,1724643206499846,11141125,0.266,3.1415925,0.841,1.182,0.48999998,0.72999996,64,12,0.064,-0.055000003,0.034,-0.79700005,3.7489486,0,nan,0.0,0.0,0.0,0,3,1,1,1,32,0,0,0
630819791,0,36.6609735,126.3418756,3.605,21.259,1724643206599846,11141125,0.26700002,3.1415925,0.841,1.1830001,0.48999998,0.72999996,64,12,0.05,-0.049000002,0.008,-0.80200005,3.7489486,0,nan,0.0,0.0,0.0,0,3,1,1,1,32,0,0,0
630918795,0,36.660973399999996,126.3418756,3.6910000000000003,21.346,1724643206699846,11141125,0.26500002,3.1415925,0.841,1.1830001,0.48999998,0.72999996,64,12,0.083000004,-0.081,-0.018000001,-0.77800006,3.7489486,0,nan,0.0,0.0,0.0,0,3,1,1,1,32,0,0,0
631013791,0,36.660973299999995,126.3418756,3.7800000000000002,21.435,1724643206799846,11141125,0.26700002,2.881219,0.841,1.1830001,0.48999998,0.72999996,64,12,0.09900001,-0.089,-0.043,-0.85,3.7489486,0,nan,0.0,0.0,0.0,0,3,1,1,1,32,0,0,0
631119791,0,36.660973299999995,126.3418755,3.879,21.533,1724643206899846,11141125,0.26700002,3.1415925,0.841,1.1830001,0.48999998,0.72999996,64,12,0.059000004,-0.053000003,-0.024,-0.96900004,3.7489486,0,nan,0.0,0.0,0.0,0,3,1,1,1,32,0,0,0
631229792,0,36.6609732,126.3418755,3.975,21.63,1724643206999847,11141125,0.26900002,3.1415925,0.841,1.184,0.48999998,0.72999996,64,12,0.049000002,-0.046000004,0.017,-0.91400003,3.7489486,0,nan,0.0,0.0,0.0,0,3,1,1,1,32,0,0,0
631321792,0,36.6609732,126.3418755,4.07,21.725,1724643207099846,11141125,0.26700002,3.1415925,0.841,1.184,0.48999998,0.72999996,64,12,0.062000003,-0.040000003,-0.048,-0.88900006,3.7489486,0,nan,0.0,0.0,0.0,0,3,1,1,1,32,0,0,0
631420790,0,36.6609731,126.3418755,4.165,21.82,1724643207199846,11141125,0.26900002,3.004473,0.841,1.184,0.48999998,0.72999996,64,12,0.096,-0.096,0.004,-0.859,3.7489486,0,nan,0.0,0.0,0.0,0,3,1,1,1,32,0,0,0
631522014,0,36.660973,126.34187539999999,4.2620000000000005,21.917,1724643207299846,11141125,0.268,3.1415925,0.841,1.184,0.48999998,0.72999996,64,12,0.085,-0.07700001,-0.037,-0.82000005,3.7489486,0,nan,0.0,0.0,0.0,0,3,1,1,1,32,0,0,0
631619792,0,36.6609729,126.34187539999999,4.349,22.004,1724643207399846,11141125,0.268,1.984314,0.841,1.1850001,0.48999998,0.72999996,64,17,0.14400001,-0.142,-0.025,-0.809,3.7489486,0,nan,0.0,0.0,0.0,0,3,1,1,1,32,0,0,0
631719791,0,36.660972799999996,126.34187539999999,4.428,22.083000000000002,1724643207499846,11141125,0.268,3.1415925,0.841,1.1850001,0.48999998,0.72999996,64,17,0.066,-0.062000003,0.023000002,-0.85800004,3.7489486,0,nan,0.0,0.0,0.0,0,3,1,1,1,32,0,0,0
631821811,0,36.660972799999996,126.3418753,4.5040000000000004,22.159,1724643207599845,11141125,0.26700002,3.1415925,0.841,1.1850001,0.48999998,0.72999996,64,17,0.058000002,0.011000001,-0.057000004,-0.83900005,3.7489486,0,nan,0.0,0.0,0.0,0,3,1,1,1,32,0,0,0
631913790,0,36.6609729,126.3418753,4.599,22.254,1724643207699845,11141125,0.26700002,2.3386922,0.841,1.1850001,0.48999998,0.72999996,64,17,0.12100001,0.09,-0.081,-0.883,3.7489486,0,nan,0.0,0.0,0.0,0,3,1,1,1,32,0,0,0
632019791,0,36.660973,126.3418751,4.704,22.359,1724643207799845,11141125,0.266,1.9711856,0.84000003,1.1850001,0.48999998,0.72999996,64,17,0.143,0.095000006,-0.10700001,-0.95000005,3.7489486,0,nan,0.0,0.0,0.0,0,3,1,1,1,32,0,0,0
632122791,0,36.660973,126.34187499999999,4.813,22.468,1724643207899845,11141125,0.26700002,3.1415925,0.84000003,1.1850001,0.48999998,0.72999996,64,17,0.09,0.08400001,-0.032,-1.0040001,3.7489486,0,nan,0.0,0.0,0.0,0,3,1,1,1,32,0,0,0
632226790,0,36.6609731,126.34187499999999,4.923,22.578,1724643207999846,11141125,0.26700002,2.221619,0.84000003,1.1860001,0.48999998,0.72999996,64,17,0.132,0.120000005,-0.053000003,-1.0810001,3.7489486,0,nan,0.0,0.0,0.0,0,3,1,1,1,32,0,0,0
632326792,0,36.6609732,126.34187499999999,5.039,22.694,1724643208099845,11141125,0.26900002,3.043721,0.84000003,1.1860001,0.48999998,0.72999996,64,17,0.095000006,0.094000004,0.014,-1.1120001,3.7489486,0,nan,0.0,0.0,0.0,0,3,1,1,1,32,0,0,0
632421886,0,36.660973299999995,126.34187499999999,5.156,22.811,1724643208199845,11141125,0.268,3.1415925,0.84000003,1.1860001,0.48999998,0.72999996,64,17,0.044000003,0.040000003,0.018000001,-1.0830001,3.7489486,0,nan,0.0,0.0,0.0,0,3,1,1,1,32,0,0,0
632518792,0,36.660973299999995,126.34187499999999,5.272,22.926000000000002,1724643208299845,11141125,0.268,3.1415925,0.84000003,1.1860001,0.48999998,0.72999996,64,17,0.011000001,-0.008,0.008,-1.1400001,3.7489486,0,nan,0.0,0.0,0.0,0,3,1,1,1,32,0,0,0
632621790,0,36.6609732,126.34187499999999,5.378,23.033,1724643208399845,11141125,0.268,3.1415925,0.84000003,1.1860001,0.48999998,0.72999996,64,13,0.083000004,-0.081,0.017,-1.09,3.7489486,0,nan,0.0,0.0,0.0,0,3,1,1,1,32,0,0,0
632720790,0,36.6609731,126.34187499999999,5.505,23.159,1724643208499845,11141125,0.26900002,2.1067958,0.84000003,1.1860001,0.48999998,0.72999996,64,13,0.134,-0.113000005,0.072000004,-1.1220001,3.7489486,0,nan,0.0,0.0,0.0,0,3,1,1,1,32,0,0,0
632813834,0,36.660973,126.3418751,5.628,23.282,1724643208599845,11141125,0.268,2.298524,0.84000003,1.187,0.48999998,0.72999996,64,13,0.125,-0.10300001,0.071,-1.172,3.7489486,0,nan,0.0,0.0,0.0,0,3,1,1,1,32,0,0,0
632919800,0,36.660973,126.34187519999999,5.75,23.404,1724643208699845,11141125,0.268,3.1415925,0.84000003,1.187,0.48999998,0.72999996,64,13,0.041,-0.036000002,0.020000001,-1.2490001,3.7489486,0,nan,0.0,0.0,0.0,0,3,1,1,1,32,0,0,0
633020027,0,36.660973,126.34187519999999,5.897,23.552,1724643208799845,11141125,0.268,3.1415925,0.84000003,1.187,0.48999998,0.72999996,64,13,0.05,-0.032,0.039,-1.3640001,3.7489486,0,nan,0.0,0.0,0.0,0,3,1,1,1,32,0,0,0
633119792,0,36.6609729,126.34187519999999,6.04,23.695,1724643208899845,11141125,0.268,3.095337,0.84000003,1.187,0.48999998,0.72999996,64,13,0.09200001,-0.055000003,0.07300001,-1.353,3.7489486,0,nan,0.0,0.0,0.0,0,3,1,1,1,32,0,0,0
633228797,0,36.660972799999996,126.3418753,6.1850000000000005,23.84,1724643208999846,11141125,0.268,2.2477562,0.84000003,1.187,0.48999998,0.72999996,64,13,0.125,-0.101,0.07300001,-1.304,3.7489486,0,nan,0.0,0.0,0.0,0,3,1,1,1,32,0,0,0
633319997,0,36.660972699999995,126.34187539999999,6.315,23.97,1724643209099845,11141125,0.268,1.702821,0.84000003,1.1880001,0.48999998,0.72999996,64,13,0.163,-0.157,0.046000004,-1.2360001,3.7489486,0,nan,0.0,0.0,0.0,0,3,1,1,1,32,0,0,0
633419790,0,36.6609726,126.3418755,6.448,24.103,1724643209199845,11141125,0.26900002,1.6771513,0.84000003,1.1880001,0.48999998,0.72999996,64,13,0.16600001,-0.12200001,0.113000005,-1.264,3.7489486,0,nan,0.0,0.0,0.0,0,3,1,1,1,32,0,0,0
633520790,0,36.6609725,126.3418756,6.582,24.236,1724643209299845,11141125,0.26900002,2.6727912,0.84000003,1.1880001,0.48999998,0.72999996,64,13,0.105000004,-0.09,0.053000003,-1.2570001,3.7489486,0,nan,0.0,0.0,0.0,0,3,1,1,1,32,0,0,0
633622151,0,36.6609725,126.3418756,6.726,24.38,1724643209399845,11141125,0.268,3.1415925,0.83900005,1.1880001,0.48999998,0.72999996,64,14,0.027,0.006,-0.027,-1.4000001,3.7489486,0,nan,0.0,0.0,0.0,0,3,2,1,1,32,0,0,0
633713955,0,36.6609725,126.3418755,6.86,24.515,1724643209499845,11141125,0.268,3.1415925,0.83900005,1.1880001,0.48999998,0.72999996,64,14,0.057000004,0.057000004,-0.002,-1.338,3.7489486,0,nan,0.0,0.0,0.0,0,3,2,1,1,32,0,0,0
633819805,0,36.6609725,126.3418755,6.9990000000000006,24.654,1724643209599844,11141125,0.26700002,3.1415925,0.83900005,1.1880001,0.48999998,0.72999996,64,14,0.079,0.071,-0.034,-1.332,3.7489486,0,nan,0.0,0.0,0.0,0,3,2,1,1,32,0,0,0
633920132,0,36.6609726,126.3418755,7.141,24.795,1724643209699844,11141125,0.268,2.0928867,0.83900005,1.1880001,0.48999998,0.72999996,64,14,0.133,0.127,-0.038000003,-1.332,3.7489486,0,nan,0.0,0.0,0.0,0,3,2,1,1,32,0,0,0
634018816,0,36.660972699999995,126.34187539999999,7.265000000000001,24.92,1724643209799844,11141125,0.26700002,2.5713952,0.83900005,1.1880001,0.48999998,0.72999996,64,14,0.109000005,0.076000005,-0.078,-1.258,3.7489486,0,nan,0.0,0.0,0.0,0,3,2,1,1,32,0,0,0
634119798,0,36.660972799999996,126.3418753,7.399,25.053,1724643209899844,11141125,0.26700002,3.0032253,0.83900005,1.189,0.48999998,0.72999996,64,14,0.093,0.087000005,-0.031000001,-1.2600001,3.7489486,0,nan,0.0,0.0,0.0,0,3,2,1,1,32,0,0,0
634229797,0,36.660972799999996,126.3418753,7.534,25.189,1724643209999845,11141125,0.26700002,3.1415925,0.83900005,1.189,0.48999998,0.72999996,64,14,0.074,0.063,-0.040000003,-1.279,3.7489486,0,nan,0.0,0.0,0.0,0,3,2,1,1,32,0,0,0
634318891,0,36.6609729,126.34187519999999,7.6610000000000005,25.316,1724643210099844,11141125,0.266,3.0822256,0.83900005,1.189,0.48999998,0.72999996,64,14,0.091000006,0.043,-0.080000006,-1.3210001,3.7489486,0,nan,0.0,0.0,0.0,0,3,2,1,1,32,0,0,0
634420790,0,36.660973,126.34187519999999,7.79,25.445,1724643210199844,11141125,0.268,2.026472,0.83900005,1.189,0.48999998,0.72999996,64,14,0.13700001,0.135,-0.026,-1.3750001,3.7489486,0,nan,0.0,0.0,0.0,0,3,2,1,1,32,0,0,0
634520792,0,36.660973,126.3418751,7.933,25.588,1724643210299844,11141125,0.266,3.1415925,0.83800006,1.189,0.48999998,0.72999996,64,14,0.074,0.05,-0.055000003,-1.391,3.7489486,0,nan,0.0,0.0,0.0,0,3,2,1,1,32,0,0,0
634614812,0,36.6609731,126.3418751,8.067,25.722,1724643210399844,11141125,0.268,2.6710484,0.83800006,1.189,0.48999998,0.72999996,64,24,0.105000004,0.076000005,-0.07300001,-1.332,3.7489486,0,nan,0.0,0.0,0.0,0,3,2,1,1,32,0,0,0
634721790,0,36.6609731,126.34187499999999,8.219,25.874,1724643210499844,11141125,0.266,3.1415925,0.83800006,1.189,0.48999998,0.72999996,64,24,0.067,0.0,-0.067,-1.299,3.7489486,0,nan,0.0,0.0,0.0,0,3,2,1,1,32,0,0,0
634824797,0,36.6609732,126.3418749,8.352,26.006,1724643210599844,11141125,0.268,3.1415925,0.83800006,1.189,0.48999998,0.72999996,64,24,0.071,0.071,-0.009000001,-1.3620001,3.7489486,0,nan,0.0,0.0,0.0,0,3,2,1,1,32,0,0,0
634921791,0,36.6609732,126.3418749,8.497,26.152,1724643210699844,11141125,0.266,3.1415925,0.83800006,1.19,0.48999998,0.72999996,64,24,0.076000005,-0.002,-0.076000005,-1.3330001,3.7489486,0,nan,0.0,0.0,0.0,0,3,2,1,1,32,0,0,0
635017792,0,36.6609732,126.3418748,8.64,26.295,1724643210799844,11141125,0.268,3.1415925,0.83800006,1.19,0.48999998,0.72999996,64,24,0.080000006,0.079,0.010000001,-1.3750001,3.7489486,0,nan,0.0,0.0,0.0,0,3,2,1,1,32,0,0,0
635123790,0,36.660973299999995,126.3418749,8.782,26.437,1724643210899844,11141125,0.268,3.1415925,0.83800006,1.19,0.48999998,0.72999996,64,24,0.063,0.060000002,0.018000001,-1.432,3.7489486,0,nan,0.0,0.0,0.0,0,3,2,1,1,32,0,0,0
635229824,0,36.660973299999995,126.3418749,8.934000000000001,26.588,1724643210999845,11141125,0.268,3.1415925,0.83800006,1.19,0.48999998,0.72999996,64,24,0.036000002,0.032,-0.017,-1.394,3.7489486,0,nan,0.0,0.0,0.0,0,3,2,1,1,32,0,0,0
635323437,0,36.660973399999996,126.3418749,9.076,26.731,1724643211099844,11141125,0.268,3.1415925,0.83800006,1.19,0.48999998,0.72999996,64,24,0.053000003,0.025,0.047000002,-1.429,3.7489486,0,nan,0.0,0.0,0.0,0,3,2,1,1,32,0,0,0
635417796,0,36.660973399999996,126.3418749,9.211,26.866,1724643211199844,11141125,0.268,3.1415925,0.83800006,1.19,0.48999998,0.72999996,64,24,0.074,0.062000003,0.039,-1.3770001,3.7489486,0,nan,0.0,0.0,0.0,0,3,2,1,1,32,0,0,0
635511917,0,36.660973399999996,126.34187499999999,9.366,27.02,1724643211299844,11141125,0.268,3.1415925,0.83800006,1.1910001,0.48999998,0.72999996,64,24,0.048,0.0,0.048,-1.4360001,3.7489486,0,nan,0.0,0.0,0.0,0,3,2,1,1,32,0,0,0
635617791,0,36.660973399999996,126.34187499999999,9.511000000000001,27.166,1724643211399844,11141125,0.268,3.1415925,0.83800006,1.1910001,0.48999998,0.72999996,64,44,0.07,0.037,0.060000002,-1.483,3.7489486,0,nan,0.0,0.0,0.0,0,3,2,1,1,32,0,0,0
635724815,0,36.660973399999996,126.3418751,9.671,27.326,1724643211499844,11141125,0.26700002,3.1415925,0.837,1.1910001,0.48999998,0.72999996,64,44,0.068,-0.016,0.066,-1.468,3.7489486,0,nan,0.0,0.0,0.0,0,3,2,1,1,32,0,0,0
635821797,0,36.6609735,126.3418751,9.822000000000001,27.476,1724643211599843,11141125,0.268,3.1415925,0.837,1.1910001,0.48999998,0.72999996,64,44,0.076000005,0.069000006,0.031000001,-1.4810001,3.7489486,0,nan,0.0,0.0,0.0,0,3,2,1,1,32,0,0,0
635922791,0,36.6609735,126.34187519999999,9.97,27.625,1724643211699843,11141125,0.26700002,3.1415925,0.837,1.1910001,0.48999998,0.72999996,64,44,0.069000006,-0.013,0.068,-1.445,3.7489486,0,nan,0.0,0.0,0.0,0,3,2,1,1,32,0,0,0
636022796,0,36.6609735,126.3418753,10.116,27.77,1724643211799843,11141125,0.268,3.0829566,0.837,1.1910001,0.48999998,0.72999996,64,44,0.09200001,0.061000004,0.069000006,-1.429,3.7489486,0,nan,0.0,0.0,0.0,0,3,2,1,1,32,0,0,0
636121796,0,36.6609735,126.3418753,10.258000000000001,27.913,1724643211899843,11141125,0.266,3.1415925,0.837,1.1910001,0.48999998,0.72999996,64,44,0.029000001,0.015000001,-0.025,-1.4130001,3.7489486,0,nan,0.0,0.0,0.0,0,3,2,1,1,32,0,0,0
636231796,0,36.6609735,126.34187539999999,10.393,28.048000000000002,1724643211999844,11141125,0.26900002,2.1830585,0.837,1.1910001,0.48999998,0.72999996,64,44,0.13000001,0.015000001,0.12900001,-1.442,3.7489486,0,nan,0.0,0.0,0.0,0,3,2,1,1,32,0,0,0
636324852,0,36.6609736,126.3418755,10.544,28.198,1724643212099843,11141125,0.268,2.8246212,0.837,1.1910001,0.48999998,0.72999996,64,44,0.1,0.068,0.074,-1.434,3.7489486,0,nan,0.0,0.0,0.0,0,3,2,1,1,32,0,0,0
636419792,0,36.6609737,126.3418755,10.685,28.34,1724643212199843,11141125,0.268,2.6002963,0.837,1.192,0.48999998,0.72999996,64,44,0.108,0.106000006,0.021000002,-1.427,3.7489486,0,nan,0.0,0.0,0.0,0,3,2,1,1,32,0,0,0
636521791,0,36.6609737,126.3418756,10.832,28.487000000000002,1724643212299843,11141125,0.26900002,2.0553236,0.837,1.192,0.48999998,0.72999996,64,44,0.13700001,0.11000001,0.082,-1.4130001,3.7489486,0,nan,0.0,0.0,0.0,0,3,2,1,1,32,0,0,0
636618790,0,36.6609738,126.3418756,10.981,28.636,1724643212399843,11141125,0.266,3.1415925,0.836,1.192,0.48999998,0.72999996,64,26,0.072000004,0.062000003,0.035,-1.4100001,3.7489486,0,nan,0.0,0.0,0.0,0,3,2,1,1,32,0,0,0
636717791,0,36.6609738,126.3418756,11.124,28.779,1724643212499843,11141125,0.268,3.1415925,0.836,1.192,0.48999998,0.72999996,64,26,0.039,0.020000001,-0.033,-1.3790001,3.7489486,0,nan,0.0,0.0,0.0,0,3,2,1,1,32,0,0,0
636818791,0,36.6609739,126.34187569999999,11.258000000000001,28.913,1724643212599843,11141125,0.27,2.6369321,0.836,1.192,0.48999998,0.72999996,64,26,0.10700001,0.071,0.080000006,-1.475,3.7489486,0,nan,0.0,0.0,0.0,0,3,2,1,1,32,0,0,0
636917792,0,36.6609739,126.34187569999999,11.411,29.066,1724643212699843,11141125,0.26700002,3.1415925,0.836,1.192,0.48999998,0.72999996,64,26,0.052,-0.030000001,0.043,-1.44,3.7489486,0,nan,0.0,0.0,0.0,0,3,2,1,1,32,0,0,0
637017790,0,36.6609738,126.3418758,11.553,29.207,1724643212799843,11141125,0.268,3.1415925,0.836,1.1930001,0.48999998,0.72999996,64,26,0.061000004,-0.036000002,0.049000002,-1.404,3.7489486,0,nan,0.0,0.0,0.0,0,3,2,1,1,32,0,0,0
637118791,0,36.6609738,126.3418758,11.704,29.359,1724643212899843,11141125,0.26900002,3.1415925,0.836,1.1930001,0.48999998,0.72999996,64,26,0.07700001,-0.056,0.052,-1.391,3.7489486,0,nan,0.0,0.0,0.0,0,3,2,1,1,32,0,0,0
637226791,0,36.6609737,126.34187589999999,11.839,29.493000000000002,1724643212999844,11141125,0.26900002,3.1415925,0.836,1.1930001,0.48999998,0.72999996,64,26,0.036000002,-0.004,0.036000002,-1.414,3.7489486,0,nan,0.0,0.0,0.0,0,3,2,1,1,32,0,0,0
637312328,0,36.6609737,126.34187589999999,11.985,29.64,1724643213099843,11141125,0.26900002,3.1415925,0.836,1.1930001,0.48999998,0.72999996,64,26,0.022000002,-0.004,0.022000002,-1.4120001,3.7489486,0,nan,0.0,0.0,0.0,0,3,2,1,1,32,0,0,0
637418792,0,36.6609737,126.34187589999999,12.129,29.784,1724643213199843,11141125,0.27100003,3.1415925,0.836,1.194,0.48999998,0.72999996,64,26,0.072000004,-0.002,0.072000004,-1.3870001,3.7489486,0,nan,0.0,0.0,0.0,0,3,2,1,1,32,0,0,0
637515791,0,36.6609737,126.341876,12.281,29.935000000000002,1724643213299843,11141125,0.27100003,3.1415925,0.836,1.194,0.48999998,0.72999996,64,26,0.021000002,-0.010000001,0.018000001,-1.493,3.7489486,0,nan,0.0,0.0,0.0,0,3,2,1,1,32,0,0,0
637621892,0,36.6609737,126.341876,12.422,30.076,1724643213399843,11141125,0.272,3.1415925,0.836,1.194,0.48999998,0.72999996,64,30,0.067,0.048,0.047000002,-1.483,3.7489486,0,nan,0.0,0.0,0.0,0,3,2,1,1,32,0,0,0
637716806,0,36.6609737,126.3418761,12.58,30.234,1724643213499843,11141125,0.27100003,3.1415925,0.83500004,1.194,0.48999998,0.72999996,64,30,0.071,0.015000001,0.069000006,-1.4770001,3.7489486,0,nan,0.0,0.0,0.0,0,3,2,1,1,32,0,0,0
637815799,0,36.6609737,126.3418761,12.742,30.397000000000002,1724643213599843,11141125,0.26900002,3.1415925,0.83500004,1.194,0.48999998,0.72999996,64,30,0.0050000004,-0.0050000004,-0.001,-1.5320001,3.7489486,0,nan,0.0,0.0,0.0,0,3,2,1,1,32,0,0,0
637914801,0,36.6609738,126.34187619999999,12.888,30.543,1724643213699842,11141125,0.272,3.1415925,0.83500004,1.195,0.48999998,0.72999996,64,30,0.089,0.046000004,0.07700001,-1.5380001,3.7489486,0,nan,0.0,0.0,0.0,0,3,2,1,1,32,0,0,0
638015791,0,36.6609738,126.34187619999999,13.037,30.692,1724643213799842,11141125,0.27100003,3.1415925,0.83500004,1.195,0.48999998,0.72999996,64,30,0.030000001,-0.008,0.028,-1.4380001,3.7489486,0,nan,0.0,0.0,0.0,0,3,2,1,1,32,0,0,0
638120796,0,36.6609738,126.3418763,13.17,30.825,1724643213899842,11141125,0.273,3.1415925,0.83500004,1.195,0.48999998,0.72999996,64,30,0.062000003,0.012,0.060000002,-1.4310001,3.7489486,0,nan,0.0,0.0,0.0,0,3,2,1,1,32,0,0,0
638220804,0,36.6609737,126.34187639999999,13.328,30.982,1724643213999843,11141125,0.27100003,3.1415925,0.83500004,1.195,0.48999998,0.72999996,64,30,0.076000005,-0.028,0.07,-1.4790001,3.7489486,0,nan,0.0,0.0,0.0,0,3,2,1,1,32,0,0,0
638328796,0,36.6609738,126.34187639999999,13.483,31.137,1724643214099842,11141125,0.272,3.1415925,0.83500004,1.195,0.48999998,0.72999996,64,30,0.055000003,0.051000003,0.020000001,-1.577,3.7489486,0,nan,0.0,0.0,0.0,0,3,2,1,1,32,0,0,0
638420797,0,36.6609738,126.34187639999999,13.667,31.322,1724643214199842,11141125,0.26900002,3.1415925,0.83500004,1.1960001,0.48999998,0.72999996,64,30,0.060000002,0.047000002,-0.036000002,-1.7870001,3.7489486,0,nan,0.0,0.0,0.0,0,3,2,1,1,32,0,0,0
638519797,0,36.6609739,126.34187639999999,13.859,31.514,1724643214299842,11141125,0.27,2.4862487,0.83500004,1.1960001,0.48999998,0.72999996,64,30,0.113000005,0.113000005,0.011000001,-2.023,3.7489486,0,nan,0.0,0.0,0.0,0,3,2,1,1,32,0,0,0
638621791,0,36.660973999999996,126.34187639999999,14.074,31.728,1724643214399842,11141125,0.27,2.7581325,0.83500004,1.1960001,0.48999998,0.72999996,64,36,0.102000006,0.1,0.018000001,-2.062,3.7489486,0,nan,0.0,0.0,0.0,0,3,2,1,1,32,0,0,0
638720904,0,36.660973999999996,126.34187639999999,14.272,31.926000000000002,1724643214499842,11141125,0.26900002,3.1415925,0.83500004,1.1960001,0.48999998,0.72999996,64,36,0.049000002,0.038000003,0.030000001,-2.005,3.7489486,0,nan,0.0,0.0,0.0,0,3,2,1,1,32,0,0,0
638820791,0,36.6609741,126.3418765,14.477,32.131,1724643214599842,11141125,0.272,2.7563286,0.83500004,1.1960001,0.48999998,0.72999996,64,36,0.10300001,0.023000002,0.1,-1.9470001,3.7489486,0,nan,0.0,0.0,0.0,0,3,2,1,1,32,0,0,0
638919796,0,36.6609741,126.34187659999999,14.674,32.328,1724643214699842,11141125,0.27400002,3.1415925,0.83500004,1.1960001,0.48999998,0.72999996,64,36,0.048,-0.009000001,0.047000002,-1.868,3.7489486,0,nan,0.0,0.0,0.0,0,3,2,1,1,32,0,0,0
639022789,0,36.6609741,126.34187659999999,14.85,32.505,1724643214799842,11141125,0.27400002,3.1415925,0.83500004,1.197,0.48999998,0.72999996,64,36,0.045,-0.022000002,0.039,-1.8290001,3.7489486,0,nan,0.0,0.0,0.0,0,3,2,1,1,32,0,0,0
639113806,0,36.660973999999996,126.3418767,15.040000000000001,32.695,1724643214899842,11141125,0.275,3.1415925,0.83500004,1.197,0.48999998,0.72999996,64,36,0.058000002,-0.032,0.048,-1.8270001,3.7489486,0,nan,0.0,0.0,0.0,0,3,2,1,1,32,0,0,0
639229790,0,36.660973999999996,126.3418767,15.234,32.888,1724643214999843,11141125,0.272,3.1415925,0.83500004,1.197,0.48999998,0.72999996,64,36,0.069000006,-0.027,-0.064,-1.8240001,3.7489486,0,nan,0.0,0.0,0.0,0,3,2,1,1,32,0,0,0
639325791,0,36.660973999999996,126.3418767,15.417,33.072,1724643215099842,11141125,0.273,3.1415925,0.83500004,1.197,0.48999998,0.72999996,64,36,0.025,-0.003,0.025,-1.8780001,3.7489486,0,nan,0.0,0.0,0.0,0,3,2,1,1,32,0,0,0
639419790,0,36.660973999999996,126.3418767,15.602,33.257,1724643215199842,11141125,0.27,3.1415925,0.83400005,1.1980001,0.48999998,0.72999996,64,36,0.07700001,-0.076000005,-0.016,-1.802,3.7489486,0,nan,0.0,0.0,0.0,0,3,2,1,1,32,0,0,0
639520800,0,36.6609739,126.34187659999999,15.799,33.454,1724643215299842,11141125,0.26900002,3.1415925,0.83400005,1.1980001,0.48999998,0.72999996,64,36,0.074,-0.067,-0.032,-1.8270001,3.7489486,0,nan,0.0,0.0,0.0,0,3,2,1,1,32,0,0,0
639618906,0,36.6609738,126.34187659999999,15.988,33.643,1724643215399842,11141125,0.27100003,3.1415925,0.83400005,1.1980001,0.48999998,0.72999996,64,31,0.037,-0.026,0.026,-1.8490001,3.7489486,0,nan,0.0,0.0,0.0,0,3,2,1,1,32,0,0,0
639715792,0,36.6609738,126.34187659999999,16.186,33.84,1724643215499842,11141125,0.27,3.1415925,0.83400005,1.1980001,0.48999998,0.72999996,64,31,0.065000005,-0.065000005,-0.0050000004,-1.8870001,3.7489486,0,nan,0.0,0.0,0.0,0,3,2,1,1,32,0,0,0
639819796,0,36.6609738,126.3418767,16.365000000000002,34.019,1724643215599842,11141125,0.27100003,3.1415925,0.83400005,1.1980001,0.48999998,0.72999996,64,31,0.053000003,-0.021000002,0.049000002,-1.8650001,3.7489486,0,nan,0.0,0.0,0.0,0,3,2,1,1,32,0,0,0
639916797,0,36.6609737,126.3418767,16.568,34.223,1724643215699841,11141125,0.27100003,3.1415925,0.83400005,1.1980001,0.48999998,0.72999996,64,31,0.058000002,-0.030000001,0.05,-1.9250001,3.7489486,0,nan,0.0,0.0,0.0,0,3,2,1,1,32,0,0,0
640010789,0,36.6609737,126.3418768,16.761,34.416000000000004,1724643215799841,11141125,0.27,3.1415925,0.83400005,1.199,0.48999998,0.72999996,64,31,0.011000001,0.009000001,-0.0050000004,-1.8600001,3.7489486,0,nan,0.0,0.0,0.0,0,3,2,1,1,32,0,0,0
640121791,0,36.6609737,126.3418768,16.944,34.599000000000004,1724643215899841,11141125,0.27100003,3.1415925,0.83400005,1.199,0.48999998,0.72999996,64,31,0.045,0.018000001,0.041,-1.868,3.7489486,0,nan,0.0,0.0,0.0,0,3,2,1,1,32,0,0,0
640230790,0,36.6609737,126.3418768,17.141000000000002,34.796,1724643215999842,11141125,0.27100003,3.1415925,0.83400005,1.199,0.48999998,0.72999996,64,31,0.057000004,-0.035,0.045,-1.9210001,3.7489486,0,nan,0.0,0.0,0.0,0,3,2,1,1,32,0,0,0
640319792,0,36.6609738,126.34187689999999,17.334,34.988,1724643216099841,11141125,0.272,2.528251,0.83400005,1.199,0.48999998,0.72999996,64,31,0.11000001,0.09200001,0.060000002,-1.909,3.7489486,0,nan,0.0,0.0,0.0,0,3,2,1,1,32,0,0,0
640422799,0,36.6609738,126.341877,17.53,35.184,1724643216199841,11141125,0.27100003,3.1415925,0.83400005,1.199,0.48999998,0.72999996,64,31,0.057000004,-0.014,0.055000003,-1.927,3.7489486,0,nan,0.0,0.0,0.0,0,3,2,1,1,32,0,0,0
640520829,0,36.6609738,126.341877,17.727,35.381,1724643216299841,11141125,0.272,2.4557133,0.83300006,1.2,0.48999998,0.72999996,64,31,0.113000005,0.095000006,0.061000004,-1.9620001,3.7489486,0,nan,0.0,0.0,0.0,0,3,2,1,1,32,0,0,0
640620797,0,36.660973999999996,126.34187709999999,17.931,35.586,1724643216399841,11141125,0.272,1.6553962,0.83300006,1.2,0.48999998,0.72999996,64,36,0.16900001,0.149,0.079,-1.9890001,3.7489486,0,nan,0.0,0.0,0.0,0,3,2,1,1,32,0,0,0
640720792,0,36.6609741,126.3418772,18.126,35.781,1724643216499841,11141125,0.273,2.6127017,0.83300006,1.2,0.48999998,0.72999996,64,36,0.10700001,0.105000004,0.022000002,-1.968,3.7489486,0,nan,0.0,0.0,0.0,0,3,2,1,1,32,0,0,0
640823797,0,36.6609742,126.3418772,18.322,35.977000000000004,1724643216599841,11141125,0.275,1.6935582,0.83300006,1.2,0.48999998,0.72999996,64,36,0.165,0.155,0.058000002,-1.8970001,3.7489486,0,nan,0.0,0.0,0.0,0,3,2,1,1,32,0,0,0
640914790,0,36.6609743,126.3418773,18.519000000000002,36.174,1724643216699841,11141125,0.27400002,3.1415925,0.83300006,1.2010001,0.48999998,0.72999996,64,36,0.067,0.052,0.042000003,-1.96,3.7489486,0,nan,0.0,0.0,0.0,0,3,2,1,1,32,0,0,0
641020791,0,36.6609743,126.3418773,18.727,36.382,1724643216799841,11141125,0.275,2.1405234,0.83300006,1.2010001,0.48999998,0.72999996,64,36,0.133,0.115,0.066,-1.9510001,3.7489486,0,nan,0.0,0.0,0.0,0,3,2,1,1,32,0,0,0
641122985,0,36.6609744,126.3418774,18.925,36.579,1724643216899841,11141125,0.27600002,2.5435264,0.83300006,1.2010001,0.48999998,0.72999996,64,36,0.113000005,0.09,0.069000006,-1.9570001,3.7489486,0,nan,0.0,0.0,0.0,0,3,2,1,1,32,0,0,0
641229790,0,36.6609745,126.3418775,19.131,36.786,1724643216999842,11141125,0.28,2.2559745,0.83300006,1.202,0.48999998,0.72999996,64,36,0.126,0.117000006,0.047000002,-2.003,3.7489486,0,nan,0.0,0.0,0.0,0,3,2,1,1,32,0,0,0
641322791,0,36.660974599999996,126.34187759999999,19.328,36.983000000000004,1724643217099841,11141125,0.279,2.3720114,0.83300006,1.202,0.48999998,0.72999996,64,36,0.119,0.097,0.068,-1.9810001,3.7489486,0,nan,0.0,0.0,0.0,0,3,2,1,1,32,0,0,0
641420910,0,36.6609747,126.34187759999999,19.534,37.189,1724643217199841,11141125,0.279,2.2293005,0.83300006,1.202,0.48999998,0.72999996,64,36,0.127,0.11400001,0.055000003,-1.9660001,3.7489486,0,nan,0.0,0.0,0.0,0,3,2,1,1,32,0,0,0
641520796,0,36.6609748,126.3418777,19.737000000000002,37.392,1724643217299841,11141125,0.277,3.1415925,0.83300006,1.2030001,0.48999998,0.72999996,64,36,0.040000003,0.040000003,0.0,-1.96,3.7489486,0,nan,0.0,0.0,0.0,0,3,2,1,1,32,0,0,0
641617791,0,36.6609748,126.3418777,19.933,37.588,1724643217399841,11141125,0.27800003,2.5340927,0.83300006,1.2030001,0.48999998,0.72999996,64,44,0.113000005,0.097,0.058000002,-1.9180001,3.7489486,0,nan,0.0,0.0,0.0,0,3,2,1,1,32,0,0,0
641717791,0,36.6609749,126.3418777,20.129,37.784,1724643217499841,11141125,0.277,3.1415925,0.83300006,1.2030001,0.48999998,0.72999996,64,44,0.081,0.080000006,0.007,-1.9230001,3.7489486,0,nan,0.0,0.0,0.0,0,3,2,1,1,32,0,0,0
641809091,0,36.660975,126.34187779999999,20.311,37.966,1724643217599841,11141125,0.277,3.1415925,0.83300006,1.2040001,0.48999998,0.72999996,64,44,0.05,0.046000004,0.021000002,-1.9100001,3.7489486,0,nan,0.0,0.0,0.0,0,3,2,1,1,32,0,0,0
641919112,0,36.660975,126.34187779999999,20.51,38.164,1724643217699840,11141125,0.277,3.1415925,0.83300006,1.2040001,0.48999998,0.72999996,64,44,0.048,0.019000001,0.044000003,-1.8790001,3.7489486,0,nan,0.0,0.0,0.0,0,3,2,1,1,32,0,0,0
642017791,0,36.660975,126.34187779999999,20.7,38.354,1724643217799840,11141125,0.27600002,3.1415925,0.83300006,1.2040001,0.48999998,0.72999996,64,44,0.040000003,-0.037,-0.015000001,-1.8560001,3.7489486,0,nan,0.0,0.0,0.0,0,3,2,1,1,32,0,0,0
642116791,0,36.6609749,126.34187779999999,20.905,38.56,1724643217899840,11141125,0.27600002,1.9573301,0.83300006,1.205,0.48999998,0.72999996,64,44,0.148,-0.148,0.010000001,-1.8700001,3.7489486,0,nan,0.0,0.0,0.0,0,3,2,1,1,32,0,0,0
642224230,0,36.6609748,126.3418779,21.09,38.745,1724643217999841,11141125,0.27600002,2.8778749,0.83300006,1.205,0.48999998,0.72999996,64,44,0.1,-0.094000004,0.034,-1.8080001,3.7489486,0,nan,0.0,0.0,0.0,0,3,2,1,1,32,0,0,0
642318797,0,36.6609747,126.3418779,21.287,38.942,1724643218099840,11141125,0.275,2.7110004,0.83300006,1.205,0.48999998,0.72999996,64,44,0.10700001,-0.10700001,-0.010000001,-1.8610001,3.7489486,0,nan,0.0,0.0,0.0,0,3,2,1,1,32,0,0,0
642418078,0,36.660974599999996,126.3418779,21.479,39.133,1724643218199840,11141125,0.27400002,2.4520853,0.83300006,1.2060001,0.48999998,0.72999996,64,44,0.119,-0.117000006,0.019000001,-1.927,3.7489486,0,nan,0.0,0.0,0.0,0,3,2,1,1,32,0,0,0
642519790,0,36.6609745,126.3418779,21.674,39.329,1724643218299840,11141125,0.275,3.1415925,0.83300006,1.2060001,0.48999998,0.72999996,64,44,0.055000003,-0.026,0.049000002,-1.9280001,3.7489486,0,nan,0.0,0.0,0.0,0,3,2,1,1,32,0,0,0
642619791,0,36.6609745,126.341878,21.867,39.521,1724643218399840,11141125,0.275,3.1415925,0.83300006,1.2060001,0.48999998,0.72999996,63,36,0.043,-0.035,0.025,-1.899,3.7489486,0,nan,0.0,0.0,0.0,0,3,2,1,1,32,0,0,0
642710796,0,36.6609744,126.341878,22.056,39.71,1724643218499840,11141125,0.27400002,2.88339,0.83300006,1.2060001,0.5,0.71,63,36,0.101,-0.085,0.055000003,-1.8670001,3.7489486,0,nan,0.0,0.0,0.0,0,3,2,1,1,32,0,0,0
642817790,0,36.6609743,126.341878,22.248,39.902,1724643218599840,11141125,0.27400002,2.2532623,0.83300006,1.2060001,0.5,0.74,63,36,0.133,-0.12200001,-0.051000003,-1.8010001,3.7489486,0,nan,0.0,0.0,0.0,0,3,2,1,1,32,0,0,0
642916019,0,36.6609742,126.341878,22.441,40.096000000000004,1724643218699840,11141125,0.27400002,2.197938,0.83300006,1.2060001,0.5,0.74,63,36,0.134,-0.13000001,-0.032,-1.863,3.7489486,0,nan,0.0,0.0,0.0,0,3,2,1,1,32,0,0,0
643015791,0,36.6609741,126.3418779,22.623,40.277,1724643218799840,11141125,0.27400002,2.3290613,0.83300006,1.207,0.5,0.74,63,36,0.128,-0.123,-0.035,-1.8570001,3.7489486,0,nan,0.0,0.0,0.0,0,3,2,1,1,32,0,0,0
643117790,0,36.660973999999996,126.3418779,22.828,40.483000000000004,1724643218899840,11141125,0.27400002,3.1415925,0.83400005,1.207,0.5,0.74,63,36,0.087000005,-0.081,-0.031000001,-1.858,3.7489486,0,nan,0.0,0.0,0.0,0,3,2,1,1,31,0,0,0
643223791,0,36.660973999999996,126.3418779,23.008,40.663000000000004,1724643218999841,11141125,0.27400002,2.3647752,0.83400005,1.207,0.51,0.74,63,36,0.127,-0.116000004,-0.052,-1.871,3.7489486,0,nan,0.0,0.0,0.0,0,3,2,1,1,31,0,0,0
643317923,0,36.6609739,126.34187779999999,23.207,40.862,1724643219099840,11141125,0.275,3.1415925,0.83400005,1.207,0.51,0.74,63,36,0.020000001,0.017,-0.010000001,-1.8720001,3.7489486,0,nan,0.0,0.0,0.0,0,3,2,1,1,31,0,0,0
643417005,0,36.6609739,126.34187779999999,23.413,41.068,1724643219199840,11141125,0.27400002,3.1415925,0.83400005,1.207,0.51,0.74,63,36,0.072000004,-0.060000002,-0.040000003,-1.8540001,3.7489486,0,nan,0.0,0.0,0.0,0,3,2,1,1,31,0,0,0
643516873,0,36.6609739,126.34187779999999,23.608,41.263,1724643219299840,11141125,0.27400002,3.1415925,0.83400005,1.207,0.51,0.74,63,36,0.049000002,-0.046000004,-0.015000001,-1.8790001,3.7489486,0,nan,0.0,0.0,0.0,0,3,2,1,1,31,0,0,0
643610999,0,36.6609738,126.3418777,23.81,41.465,1724643219399840,11141125,0.275,3.1415925,0.83400005,1.207,0.51,0.74,63,33,0.054,-0.054,-0.0050000004,-1.9020001,3.7489486,0,nan,0.0,0.0,0.0,0,3,2,1,1,31,0,0,0
643715790,0,36.6609738,126.3418777,24.002,41.657000000000004,1724643219499840,11141125,0.27400002,3.0821252,0.83500004,1.207,0.51,0.74,63,33,0.097,-0.094000004,-0.023000002,-1.9010001,3.7489486,0,nan,0.0,0.0,0.0,0,3,2,1,1,32,0,0,0
643816148,0,36.6609737,126.3418777,24.201,41.855000000000004,1724643219599840,11141125,0.273,3.1415925,0.83500004,1.2080001,0.5,0.74,63,33,0.071,-0.051000003,-0.05,-1.9540001,3.7489486,0,nan,0.0,0.0,0.0,0,3,2,1,1,32,0,0,0
643914791,0,36.6609737,126.34187759999999,24.401,42.056,1724643219699839,11141125,0.272,3.1415925,0.83500004,1.2080001,0.5,0.74,63,33,0.044000003,-0.025,-0.036000002,-1.9580001,3.7489486,0,nan,0.0,0.0,0.0,0,3,2,1,1,32,0,0,0
644015792,0,36.6609737,126.34187759999999,24.597,42.252,1724643219799839,11141125,0.27400002,3.1415925,0.83500004,1.2080001,0.5,0.74,63,33,0.041,-0.041,0.003,-1.927,3.7489486,0,nan,0.0,0.0,0.0,0,3,2,1,1,32,0,0,0
644116197,0,36.6609736,126.3418777,24.805,42.46,1724643219899839,11141125,0.27400002,3.1415925,0.83500004,1.2080001,0.5,0.74,63,33,0.054,-0.032,0.043,-1.945,3.7489486,0,nan,0.0,0.0,0.0,0,3,2,1,1,32,0,0,0
644222796,0,36.6609736,126.3418777,24.991,42.645,1724643219999840,11141125,0.27400002,2.7221115,0.83500004,1.2080001,0.5,0.74,63,33,0.112,-0.108,-0.026,-1.9210001,3.7489486,0,nan,0.0,0.0,0.0,0,3,2,1,1,32,0,0,0
644316838,0,36.6609735,126.3418777,25.188,42.843,1724643220099839,11141125,0.275,3.1415925,0.836,1.2080001,0.5,0.74,63,33,0.078,-0.069000006,0.036000002,-1.889,3.7489486,0,nan,0.0,0.0,0.0,0,3,2,1,1,32,0,0,0
644416799,0,36.6609735,126.3418777,25.388,43.043,1724643220199839,11141125,0.27400002,3.1415925,0.836,1.2080001,0.5,0.74,63,33,0.027,-0.013,-0.023000002,-1.8690001,3.7489486,0,nan,0.0,0.0,0.0,0,3,2,1,1,32,0,0,0
644510789,0,36.6609735,126.3418777,25.573,43.228,1724643220299839,11141125,0.275,3.1415925,0.836,1.2090001,0.5,0.74,63,33,0.062000003,-0.062000003,0.008,-1.8920001,3.7489486,0,nan,0.0,0.0,0.0,0,3,2,1,1,32,0,0,0
644616819,0,36.6609735,126.3418777,25.76,43.415,1724643220399839,11141125,0.275,3.1415925,0.836,1.2090001,0.5,0.74,63,42,0.047000002,-0.032,-0.035,-1.927,3.7489486,0,nan,0.0,0.0,0.0,0,3,2,1,1,32,0,0,0
644719799,0,36.660973399999996,126.3418777,25.965,43.619,1724643220499839,11141125,0.275,3.1415925,0.836,1.2090001,0.5,0.74,63,42,0.065000005,-0.058000002,-0.030000001,-1.9620001,3.7489486,0,nan,0.0,0.0,0.0,0,3,2,1,1,32,0,0,0
644819792,0,36.660973399999996,126.34187759999999,26.16,43.814,1724643220599839,11141125,0.275,3.1415925,0.837,1.2090001,0.5,0.74,63,42,0.054,-0.036000002,-0.041,-1.8960001,3.7489486,0,nan,0.0,0.0,0.0,0,3,2,1,1,32,0,0,0
644920790,0,36.660973299999995,126.34187759999999,26.358,44.013,1724643220699839,11141125,0.27600002,3.0188365,0.837,1.2090001,0.5,0.74,63,42,0.1,-0.09900001,0.009000001,-1.9280001,3.7489486,0,nan,0.0,0.0,0.0,0,3,2,1,1,32,0,0,0
645021619,0,36.660973299999995,126.34187759999999,26.557000000000002,44.212,1724643220799839,11141125,0.27600002,3.1415925,0.837,1.21,0.5,0.74,63,42,0.053000003,-0.038000003,0.037,-1.9340001,3.7489486,0,nan,0.0,0.0,0.0,0,3,2,1,1,32,0,0,0
645118791,0,36.660973299999995,126.34187759999999,26.765,44.419000000000004,1724643220899839,11141125,0.275,3.1415925,0.837,1.21,0.5,0.74,63,42,0.042000003,-0.018000001,-0.038000003,-1.9070001,3.7489486,0,nan,0.0,0.0,0.0,0,3,2,1,1,32,0,0,0
645229262,0,36.6609732,126.34187759999999,26.955000000000002,44.61,1724643220999840,11141125,0.27600002,3.1415925,0.837,1.21,0.5,0.74,63,42,0.05,-0.049000002,0.011000001,-1.9350001,3.7489486,0,nan,0.0,0.0,0.0,0,3,2,1,1,32,0,0,0
645322112,0,36.6609732,126.34187759999999,27.152,44.807,1724643221099839,11141125,0.275,3.1415925,0.837,1.21,0.5,0.74,63,42,0.022000002,-0.021000002,-0.007,-1.9280001,3.7489486,0,nan,0.0,0.0,0.0,0,3,2,1,1,32,0,0,0
645413790,0,36.6609732,126.3418777,27.353,45.008,1724643221199839,11141125,0.275,3.1415925,0.83800006,1.21,0.5,0.74,63,42,0.066,-0.010000001,0.065000005,-1.937,3.7489486,0,nan,0.0,0.0,0.0,0,3,2,1,1,32,0,0,0
645515815,0,36.6609732,126.34187779999999,27.558,45.212,1724643221299839,11141125,0.275,3.1415925,0.83800006,1.21,0.5,0.74,63,42,0.079,-0.029000001,0.074,-1.932,3.7489486,0,nan,0.0,0.0,0.0,0,3,2,1,1,32,0,0,0
645615847,0,36.6609732,126.34187779999999,27.749000000000002,45.403,1724643221399839,11141125,0.27400002,3.1415925,0.83800006,1.2110001,0.5,0.74,63,36,0.049000002,-0.035,0.035,-1.9010001,3.7489486,0,nan,0.0,0.0,0.0,0,3,2,1,1,32,0,0,0
645716790,0,36.6609731,126.3418779,27.945,45.6,1724643221499839,11141125,0.27400002,3.1415925,0.83800006,1.2110001,0.5,0.74,63,36,0.048,-0.032,0.036000002,-1.9030001,3.7489486,0,nan,0.0,0.0,0.0,0,3,2,1,1,32,0,0,0
645817978,0,36.6609731,126.3418779,28.14,45.795,1724643221599839,11141125,0.27400002,3.1415925,0.83800006,1.2110001,0.5,0.74,63,36,0.024,0.006,0.023000002,-1.9200001,3.7489486,0,nan,0.0,0.0,0.0,0,3,2,1,1,32,0,0,0
645917791,0,36.6609731,126.3418779,28.346,46.001,1724643221699838,11141125,0.273,3.1415925,0.83800006,1.2110001,0.5,0.74,63,36,0.022000002,-0.022000002,0.0050000004,-1.8830001,3.7489486,0,nan,0.0,0.0,0.0,0,3,2,1,1,32,0,0,0
646016791,0,36.6609731,126.341878,28.541,46.196,1724643221799838,11141125,0.272,2.5180397,0.83800006,1.2110001,0.5,0.74,63,36,0.113000005,0.015000001,0.112,-1.9010001,3.7489486,0,nan,0.0,0.0,0.0,0,3,2,1,1,32,0,0,0
646117790,0,36.6609731,126.34187809999999,28.741,46.395,1724643221899838,11141125,0.272,3.1415925,0.83800006,1.2110001,0.5,0.74,63,36,0.091000006,-0.069000006,0.059000004,-1.9070001,3.7489486,0,nan,0.0,0.0,0.0,0,3,2,1,1,32,0,0,0
646223791,0,36.6609731,126.3418782,28.934,46.588,1724643221999839,11141125,0.272,3.1415925,0.83900005,1.2110001,0.5,0.74,63,36,0.046000004,-0.001,0.046000004,-1.9190001,3.7489486,0,nan,0.0,0.0,0.0,0,3,2,1,1,32,0,0,0
646311790,0,36.660973,126.3418782,29.126,46.781,1724643222099838,11141125,0.272,3.1415925,0.83900005,1.2110001,0.5,0.74,63,36,0.07,-0.067,-0.022000002,-1.866,3.7489486,0,nan,0.0,0.0,0.0,0,3,2,1,1,32,0,0,0
646417790,0,36.660973,126.3418782,29.32,46.975,1724643222199838,11141125,0.272,3.1415925,0.83900005,1.2110001,0.5,0.74,63,36,0.060000002,-0.036000002,0.048,-1.8790001,3.7489486,0,nan,0.0,0.0,0.0,0,3,2,1,1,32,0,0,0
646515790,0,36.660973,126.34187829999999,29.511,47.165,1724643222299838,11141125,0.27100003,3.1415925,0.83900005,1.212,0.5,0.74,63,36,0.08400001,-0.053000003,0.065000005,-1.8690001,3.7489486,0,nan,0.0,0.0,0.0,0,3,2,1,1,32,0,0,0
646615790,0,36.6609729,126.34187829999999,29.707,47.361000000000004,1724643222399838,11141125,0.27,3.1415925,0.83900005,1.212,0.5,0.74,63,35,0.060000002,-0.059000004,-0.015000001,-1.8980001,3.7489486,0,nan,0.0,0.0,0.0,0,3,2,1,1,32,0,0,0
646716790,0,36.6609729,126.34187829999999,29.905,47.56,1724643222499838,11141125,0.27100003,3.1415925,0.83900005,1.212,0.5,0.74,63,35,0.043,-0.030000001,0.031000001,-1.9130001,3.7489486,0,nan,0.0,0.0,0.0,0,3,2,1,1,32,0,0,0
646815791,0,36.6609729,126.3418784,30.105,47.759,1724643222599838,11141125,0.27100003,3.1415925,0.83900005,1.212,0.5,0.74,63,35,0.045,0.001,0.045,-1.9050001,3.7489486,0,nan,0.0,0.0,0.0,0,3,2,1,1,32,0,0,0
646914843,0,36.6609729,126.3418784,30.299,47.953,1724643222699838,11141125,0.27,3.1415925,0.83900005,1.212,0.5,0.74,63,35,0.065000005,0.016,-0.063,-1.82,3.7489486,0,nan,0.0,0.0,0.0,0,3,2,1,1,32,0,0,0
647016790,0,36.6609729,126.34187829999999,30.493000000000002,48.147,1724643222799838,11141125,0.27,3.1415925,0.83900005,1.212,0.5,0.74,63,35,0.044000003,0.012,-0.042000003,-1.8460001,3.7489486,0,nan,0.0,0.0,0.0,0,3,2,1,1,32,0,0,0
647115793,0,36.6609729,126.3418782,30.695,48.35,1724643222899838,11141125,0.27,3.1415925,0.83900005,1.212,0.5,0.74,63,35,0.091000006,-0.030000001,-0.086,-1.9300001,3.7489486,0,nan,0.0,0.0,0.0,0,3,2,1,1,32,0,0,0
647218463,0,36.6609729,126.3418782,30.893,48.548,1724643222999839,11141125,0.27,3.1415925,0.83900005,1.212,0.5,0.74,63,35,0.025,0.025,-0.004,-1.9620001,3.7489486,0,nan,0.0,0.0,0.0,0,3,2,1,1,32,0,0,0
647316790,0,36.6609729,126.3418782,31.105,48.759,1724643223099838,11141125,0.27,3.1415925,0.83900005,1.212,0.5,0.74,63,35,0.027,0.009000001,-0.026,-1.996,3.7489486,0,nan,0.0,0.0,0.0,0,3,2,1,1,32,0,0,0
647417828,0,36.6609729,126.3418782,31.306,48.961,1724643223199838,11141125,0.27100003,3.1415925,0.84000003,1.213,0.5,0.74,63,35,0.029000001,-0.029000001,0.003,-1.9640001,3.7489486,0,nan,0.0,0.0,0.0,0,3,2,1,1,32,0,0,0
647515790,0,36.6609729,126.34187809999999,31.505,49.160000000000004,1724643223299838,11141125,0.27,3.1415925,0.84000003,1.213,0.5,0.74,63,35,0.08400001,-0.033,-0.078,-1.9120001,3.7489486,0,nan,0.0,0.0,0.0,0,3,2,1,1,32,0,0,0
647617797,0,36.6609729,126.341878,31.713,49.368,1724643223399838,11141125,0.27,3.1415925,0.84000003,1.213,0.5,0.74,63,42,0.07700001,-0.019000001,-0.075,-1.9240001,3.7489486,0,nan,0.0,0.0,0.0,0,3,2,1,1,32,0,0,0
647716791,0,36.660972799999996,126.341878,31.909,49.563,1724643223499838,11141125,0.27,2.9894786,0.84000003,1.213,0.5,0.74,63,42,0.097,-0.061000004,-0.076000005,-1.9200001,3.7489486,0,nan,0.0,0.0,0.0,0,3,2,1,1,32,0,0,0
647815790,0,36.660972799999996,126.3418779,32.116,49.771,1724643223599838,11141125,0.26900002,3.1415925,0.84000003,1.213,0.5,0.74,63,42,0.074,0.0,-0.074,-1.9690001,3.7489486,0,nan,0.0,0.0,0.0,0,3,2,1,1,32,0,0,0
647916790,0,36.660972799999996,126.34187779999999,32.324,49.979,1724643223699837,11141125,0.26900002,3.1415925,0.84000003,1.213,0.5,0.74,63,42,0.057000004,0.049000002,-0.028,-1.9860001,3.7489486,0,nan,0.0,0.0,0.0,0,3,2,1,1,32,0,0,0
648016789,0,36.660972799999996,126.34187779999999,32.53,50.184,1724643223799837,11141125,0.27,3.1415925,0.84000003,1.213,0.5,0.74,63,42,0.055000003,-0.039,-0.039,-2.0070002,3.7489486,0,nan,0.0,0.0,0.0,0,3,2,1,1,32,0,0,0
648110790,0,36.660972799999996,126.34187779999999,32.735,50.389,1724643223899837,11141125,0.27,3.1415925,0.84000003,1.213,0.5,0.74,63,42,0.009000001,0.006,-0.007,-2.038,3.7489486,0,nan,0.0,0.0,0.0,0,3,2,1,1,32,0,0,0
648223797,0,36.660972799999996,126.34187779999999,32.944,50.599000000000004,1724643223999838,11141125,0.26900002,3.1415925,0.84000003,1.213,0.5,0.74,63,42,0.044000003,0.042000003,-0.014,-1.932,3.7489486,0,nan,0.0,0.0,0.0,0,3,2,1,1,32,0,0,0
648317807,0,36.6609729,126.3418777,33.146,50.800000000000004,1724643224099837,11141125,0.26900002,3.1415925,0.84000003,1.2140001,0.5,0.74,63,42,0.07300001,0.011000001,-0.072000004,-1.9900001,3.7489486,0,nan,0.0,0.0,0.0,0,3,2,1,1,32,0,0,0
648415813,0,36.6609729,126.3418777,33.357,51.012,1724643224199837,11141125,0.27,3.1415925,0.84000003,1.2140001,0.5,0.74,63,42,0.007,-0.003,0.006,-1.9740001,3.7489486,0,nan,0.0,0.0,0.0,0,3,2,1,1,32,0,0,0
648517792,0,36.6609729,126.3418777,33.566,51.221000000000004,1724643224299837,11141125,0.27,3.1415925,0.84000003,1.2140001,0.5,0.74,63,42,0.027,0.014,-0.023000002,-2.0340002,3.7489486,0,nan,0.0,0.0,0.0,0,3,2,1,1,32,0,0,0
648616790,0,36.6609729,126.3418777,33.768,51.423,1724643224399837,11141125,0.27,3.1415925,0.84000003,1.2140001,0.5,0.74,63,40,0.024,0.015000001,0.019000001,-2.002,3.7489486,0,nan,0.0,0.0,0.0,0,3,2,1,1,32,0,0,0
648715790,0,36.6609729,126.3418777,33.967,51.621,1724643224499837,11141125,0.26900002,3.1415925,0.84000003,1.2140001,0.5,0.74,63,40,0.039,0.033,-0.022000002,-1.945,3.7489486,0,nan,0.0,0.0,0.0,0,3,2,1,1,32,0,0,0
648816810,0,36.660973,126.3418777,34.178,51.832,1724643224599837,11141125,0.26900002,3.1415925,0.84000003,1.2140001,0.5,0.74,63,40,0.071,0.042000003,-0.058000002,-1.9210001,3.7489486,0,nan,0.0,0.0,0.0,0,3,2,1,1,32,0,0,0
648915789,0,36.660973,126.34187759999999,34.38,52.035000000000004,1724643224699837,11141125,0.26900002,3.1415925,0.84000003,1.2140001,0.5,0.74,63,40,0.038000003,0.034,-0.017,-2.0,3.7489486,0,nan,0.0,0.0,0.0,0,3,2,1,1,32,0,0,0
649009790,0,36.660973,126.34187759999999,34.586,52.241,1724643224799837,11141125,0.268,3.1415925,0.84000003,1.2140001,0.5,0.74,63,40,0.071,0.071,0.008,-2.022,3.7489486,0,nan,0.0,0.0,0.0,0,3,2,1,1,32,0,0,0
649116790,0,36.6609731,126.3418777,34.784,52.439,1724643224899837,11141125,0.26900002,3.1415925,0.84000003,1.215,0.5,0.74,63,40,0.036000002,0.019000001,0.031000001,-1.9490001,3.7489486,0,nan,0.0,0.0,0.0,0,3,2,1,1,32,0,0,0
649224796,0,36.6609731,126.3418777,34.986000000000004,52.64,1724643224999838,11141125,0.26700002,3.1415925,0.84000003,1.215,0.5,0.74,63,40,0.033,0.030000001,-0.012,-2.023,3.7489486,0,nan,0.0,0.0,0.0,0,3,2,1,1,32,0,0,0
649319790,0,36.6609731,126.3418777,35.191,52.846000000000004,1724643225099837,11141125,0.26700002,3.1415925,0.84000003,1.215,0.48999998,0.7,63,40,0.040000003,0.021000002,0.033,-1.9720001,3.7489486,0,nan,0.0,0.0,0.0,0,3,2,1,1,32,0,0,0
649415796,0,36.6609731,126.3418777,35.388,53.042,1724643225199837,11141125,0.266,3.1415925,0.84000003,1.215,0.48999998,0.7,63,40,0.049000002,-0.017,-0.045,-1.9210001,3.7489486,0,nan,0.0,0.0,0.0,0,3,2,1,1,32,0,0,0
649515791,0,36.6609732,126.3418777,35.58,53.235,1724643225299837,11141125,0.268,3.1415925,0.84000003,1.215,0.48999998,0.7,63,40,0.029000001,0.028,0.006,-1.9310001,3.7489486,0,nan,0.0,0.0,0.0,0,3,2,1,1,32,0,0,0
649615790,0,36.6609732,126.3418777,35.781,53.435,1724643225399837,11141125,0.268,3.1415925,0.84000003,1.2140001,0.48999998,0.7,63,36,0.025,0.025,0.001,-1.9030001,3.7489486,0,nan,0.0,0.0,0.0,0,3,2,1,1,32,0,0,0
649716796,0,36.6609732,126.34187779999999,35.976,53.63,1724643225499837,11141125,0.268,3.1415925,0.84000003,1.2140001,0.48999998,0.7,63,36,0.019000001,0.018000001,-0.003,-1.9640001,3.7489486,0,nan,0.0,0.0,0.0,0,3,2,1,1,32,0,0,0
649815789,0,36.6609732,126.34187779999999,36.18,53.834,1724643225599837,11141125,0.26500002,3.1415925,0.84000003,1.2140001,0.48999998,0.7,63,36,0.011000001,0.011000001,0.0,-2.0210001,3.7489486,0,nan,0.0,0.0,0.0,0,3,2,1,1,32,0,0,0
649909791,0,36.660973299999995,126.34187779999999,36.393,54.047000000000004,1724643225699836,11141125,0.26500002,3.0083566,0.84000003,1.2140001,0.48999998,0.7,63,36,0.096,0.082,0.05,-2.026,3.7489486,0,nan,0.0,0.0,0.0,0,3,2,1,1,32,0,0,0
650015811,0,36.660973299999995,126.34187779999999,36.598,54.252,1724643225799836,11141125,0.26700002,3.1415925,0.84000003,1.2140001,0.48999998,0.7,63,36,0.051000003,0.051000003,0.003,-1.9560001,3.7489486,0,nan,0.0,0.0,0.0,0,3,2,1,1,32,0,0,0
650115796,0,36.660973299999995,126.3418779,36.805,54.459,1724643225899836,11141125,0.26700002,2.9436655,0.84000003,1.2140001,0.48999998,0.7,63,36,0.095000006,-0.006,0.094000004,-1.9850001,3.7489486,0,nan,0.0,0.0,0.0,0,3,2,1,1,32,0,0,0
650221790,0,36.660973399999996,126.341878,37.011,54.666000000000004,1724643225999837,11141125,0.266,3.1415925,0.84000003,1.2140001,0.48999998,0.7,63,36,0.063,0.063,0.001,-1.9300001,3.7489486,0,nan,0.0,0.0,0.0,0,3,2,1,1,32,0,0,0
650315791,0,36.660973399999996,126.341878,37.195,54.849000000000004,1724643226099836,11141125,0.26500002,3.1415925,0.84000003,1.2140001,0.48999998,0.7,63,36,0.078,-0.059000004,-0.052,-1.927,3.7489486,0,nan,0.0,0.0,0.0,0,3,2,1,1,32,0,0,0
650415789,0,36.660973399999996,126.3418779,37.388,55.043,1724643226199836,11141125,0.264,3.1415925,0.84000003,1.2140001,0.48999998,0.7,63,36,0.052,0.043,-0.028,-2.002,3.7489486,0,nan,0.0,0.0,0.0,0,3,2,1,1,32,0,0,0
650514790,0,36.660973399999996,126.3418779,37.586,55.24,1724643226299836,11141125,0.266,3.1415925,0.84000003,1.2140001,0.48999998,0.7,63,36,0.033,0.033,0.0050000004,-2.029,3.7489486,0,nan,0.0,0.0,0.0,0,3,2,1,1,32,0,0,0
650615791,0,36.6609735,126.341878,37.784,55.439,1724643226399836,11141125,0.26700002,3.1415925,0.84000003,1.2140001,0.48999998,0.7,63,42,0.071,-0.0050000004,0.071,-2.019,3.7489486,0,nan,0.0,0.0,0.0,0,3,2,1,1,32,0,0,0
650714790,0,36.6609735,126.34187809999999,37.983000000000004,55.637,1724643226499836,11141125,0.26700002,3.1415925,0.84000003,1.2140001,0.48999998,0.7,63,42,0.044000003,0.041,0.016,-1.9520001,3.7489486,0,nan,0.0,0.0,0.0,0,3,2,1,1,32,0,0,0
