timestamp,timestamp_sample,latitude_deg,longitude_deg,altitude_msl_m,altitude_ellipsoid_m,time_utc_usec,device_id,s_variance_m_s,c_variance_rad,eph,epv,hdop,vdop,noise_per_ms,jamming_indicator,vel_m_s,vel_n_m_s,vel_e_m_s,vel_d_m_s,cog_rad,timestamp_time_relative,heading,heading_offset,heading_accuracy,rtcm_injection_rate,automatic_gain_control,fix_type,jamming_state,spoofing_state,vel_ned_valid,satellites_used,selected_rtcm_instance,rtcm_crc_failed,rtcm_msg_used
583795790,0,37.4559157,126.9541677,171.793,190.25,1725539358200041,11141125,0.34100002,3.1415925,0.94900006,1.353,0.59999996,0.89,66,47,0.036000002,-0.006,0.035,0.004,5.527105,0,nan,0.0,0.0,0.0,0,4,2,1,1,28,0,0,0
583903366,0,37.4559157,126.9541677,171.781,190.238,1725539358300041,11141125,0.323,3.1415925,0.94900006,1.3520001,0.59999996,0.89,66,47,0.009000001,0.001,-0.009000001,0.025,5.527105,0,nan,0.0,0.0,0.0,0,4,2,1,1,28,0,0,0
583997804,0,37.4559156,126.9541677,171.779,190.236,1725539358400041,11141125,0.28100002,3.1415925,0.94900006,1.3520001,0.59999996,0.89,66,47,0.019000001,0.015000001,0.011000001,-0.003,5.527105,0,nan,0.0,0.0,0.0,0,4,2,1,1,28,0,0,0
584095836,0,37.4559156,126.9541677,171.77,190.227,1725539358500041,11141125,0.291,3.1415925,0.94900006,1.3520001,0.59999996,0.89,66,47,0.055000003,-0.041,-0.037,-0.004,5.527105,0,nan,0.0,0.0,0.0,0,4,2,1,1,28,0,0,0
584193808,0,37.4559156,126.9541677,171.772,190.229,1725539358600041,11141125,0.324,3.1415925,0.94900006,1.3520001,0.59999996,0.89,66,47,0.043,0.042000003,-0.006,-0.009000001,5.527105,0,nan,0.0,0.0,0.0,0,4,2,1,1,28,0,0,0
584297783,0,37.4559156,126.9541677,171.763,190.219,1725539358700041,11141125,0.342,3.1415925,0.94900006,1.3510001,0.59999996,0.89,66,47,0.027,-0.010000001,0.026,0.010000001,5.527105,0,nan,0.0,0.0,0.0,0,4,2,1,1,28,0,0,0
584396807,0,37.455915499999996,126.9541677,171.763,190.219,1725539358800041,11141125,0.279,3.1415925,0.94900006,1.3510001,0.59999996,0.89,66,47,0.046000004,-0.039,-0.024,0.018000001,5.527105,0,nan,0.0,0.0,0.0,0,4,2,1,1,28,0,0,0
584494808,0,37.455915499999996,126.9541677,171.761,190.21800000000002,1725539358900041,11141125,0.307,3.1415925,0.94900006,1.3510001,0.59999996,0.89,66,47,0.067,0.065000005,0.013,0.001,5.527105,0,nan,0.0,0.0,0.0,0,4,2,1,1,28,0,0,0
584603161,0,37.455915499999996,126.9541677,171.757,190.214,1725539359000041,11141125,0.298,3.1415925,0.94900006,1.35,0.59999996,0.89,66,47,0.036000002,0.030000001,0.018000001,0.055000003,5.527105,0,nan,0.0,0.0,0.0,0,4,2,1,1,28,0,0,0
584698828,0,37.455915499999996,126.9541677,171.75900000000001,190.216,1725539359100041,11141125,0.32500002,3.1415925,0.94900006,1.35,0.59999996,0.89,66,47,0.041,-0.038000003,0.016,0.019000001,5.527105,0,nan,0.0,0.0,0.0,0,4,2,1,1,28,0,0,0
584791783,0,37.455915499999996,126.9541678,171.757,190.214,1725539359200041,11141125,0.317,3.1415925,0.94900006,1.35,0.59999996,0.89,66,53,0.012,0.002,0.011000001,-0.007,5.527105,0,nan,0.0,0.0,0.0,0,4,2,1,1,28,0,0,0
584896784,0,37.455915399999995,126.9541678,171.752,190.208,1725539359300041,11141125,0.365,3.1415925,0.94900006,1.35,0.59999996,0.89,66,53,0.068,-0.041,0.054,0.004,5.527105,0,nan,0.0,0.0,0.0,0,4,2,1,1,28,0,0,0
584994801,0,37.455915399999995,126.9541678,171.746,190.203,1725539359400041,11141125,0.33800003,3.1415925,0.94900006,1.3490001,0.59999996,0.89,66,53,0.039,-0.007,0.039,0.013,5.527105,0,nan,0.0,0.0,0.0,0,4,2,1,1,28,0,0,0
585094783,0,37.455915399999995,126.95416789999999,171.746,190.203,1725539359500041,11141125,0.27800003,3.1415925,0.9480001,1.3490001,0.59999996,0.89,66,53,0.019000001,0.014,0.012,-0.029000001,5.527105,0,nan,0.0,0.0,0.0,0,4,2,1,1,28,0,0,0
585196828,0,37.455915399999995,126.95416789999999,171.734,190.19,1725539359600041,11141125,0.29500002,3.1415925,0.9480001,1.3490001,0.59999996,0.89,66,53,0.024,0.015000001,0.019000001,0.006,5.527105,0,nan,0.0,0.0,0.0,0,4,2,1,1,28,0,0,0
585295812,0,37.4559153,126.95416789999999,171.735,190.192,1725539359700041,11141125,0.30200002,3.1415925,0.9480001,1.3490001,0.59999996,0.89,66,53,0.033,-0.032,0.009000001,0.025,5.527105,0,nan,0.0,0.0,0.0,0,4,2,1,1,28,0,0,0
585393781,0,37.4559153,126.95416789999999,171.743,190.20000000000002,1725539359800040,11141125,0.333,3.1415925,0.9480001,1.3490001,0.59999996,0.89,66,53,0.029000001,0.011000001,-0.027,-0.015000001,5.527105,0,nan,0.0,0.0,0.0,0,4,2,1,1,28,0,0,0
585495835,0,37.4559153,126.95416789999999,171.738,190.195,1725539359900040,11141125,0.28300002,3.1415925,0.9480001,1.348,0.59999996,0.89,66,53,0.041,-0.033,-0.023000002,0.012,5.527105,0,nan,0.0,0.0,0.0,0,4,2,1,1,28,0,0,0
585604963,0,37.4559152,126.95416789999999,171.735,190.192,1725539360000040,11141125,0.31,3.1415925,0.9480001,1.348,0.59999996,0.89,66,53,0.033,-0.001,0.033,0.022000002,5.527105,0,nan,0.0,0.0,0.0,0,4,2,1,1,28,0,0,0
585693188,0,37.4559152,126.95416789999999,171.734,190.191,1725539360100040,11141125,0.30100003,3.1415925,0.9480001,1.348,0.59999996,0.89,66,53,0.074,0.029000001,0.068,0.007,5.527105,0,nan,0.0,0.0,0.0,0,4,2,1,1,28,0,0,0
585797928,0,37.4559152,126.954168,171.736,190.192,1725539360200040,11141125,0.337,3.1415925,0.9480001,1.348,0.59999996,0.89,66,48,0.021000002,0.020000001,-0.004,0.021000002,5.527105,0,nan,0.0,0.0,0.0,0,4,2,1,1,28,0,0,0
585898782,0,37.4559152,126.95416789999999,171.734,190.191,1725539360300040,11141125,0.31100002,3.1415925,0.9480001,1.3470001,0.59999996,0.89,66,48,0.058000002,-0.016,-0.055000003,-0.007,5.527105,0,nan,0.0,0.0,0.0,0,4,2,1,1,28,0,0,0
585995860,0,37.4559151,126.95416789999999,171.728,190.185,1725539360400040,11141125,0.34100002,3.1415925,0.9480001,1.3470001,0.59999996,0.89,66,48,0.097,-0.095000006,0.019000001,0.002,5.527105,0,nan,0.0,0.0,0.0,0,4,2,1,1,28,0,0,0
586098782,0,37.4559151,126.95416789999999,171.717,190.174,1725539360500040,11141125,0.36600003,3.1415925,0.9480001,1.3470001,0.59999996,0.89,66,48,0.048,0.015000001,-0.045,0.013,5.527105,0,nan,0.0,0.0,0.0,0,4,2,1,1,28,0,0,0
586198782,0,37.4559151,126.954168,171.715,190.172,1725539360600040,11141125,0.37500003,3.1415925,0.9480001,1.3470001,0.59999996,0.89,66,48,0.055000003,-0.031000001,0.045,-0.016,5.527105,0,nan,0.0,0.0,0.0,0,4,2,1,1,28,0,0,0
586297020,0,37.4559151,126.954168,171.72,190.177,1725539360700040,11141125,0.33100003,3.1415925,0.94900006,1.3470001,0.59999996,0.89,66,48,0.029000001,0.0050000004,0.029000001,-0.008,5.527105,0,nan,0.0,0.0,0.0,0,4,2,1,1,28,0,0,0
586398815,0,37.455915,126.954168,171.715,190.172,1725539360800040,11141125,0.31100002,3.1415925,0.94900006,1.3470001,0.59999996,0.89,66,48,0.062000003,-0.018000001,-0.059000004,-0.020000001,5.527105,0,nan,0.0,0.0,0.0,0,4,2,1,1,28,0,0,0
586497784,0,37.455915,126.954168,171.71,190.167,1725539360900040,11141125,0.34800002,3.1415925,0.94900006,1.3470001,0.59999996,0.89,66,48,0.012,-0.012,0.002,-0.006,5.527105,0,nan,0.0,0.0,0.0,0,4,2,1,1,28,0,0,0
586599783,0,37.455915,126.954168,171.702,190.159,1725539361000040,11141125,0.321,3.1415925,0.94900006,1.3470001,0.59999996,0.89,66,48,0.018000001,0.016,-0.009000001,-0.011000001,5.527105,0,nan,0.0,0.0,0.0,0,4,2,1,1,28,0,0,0
586695783,0,37.455915,126.954168,171.702,190.159,1725539361100040,11141125,0.31300002,3.1415925,0.9480001,1.3470001,0.59999996,0.89,66,48,0.024,0.024,0.002,-0.003,5.527105,0,nan,0.0,0.0,0.0,0,4,2,1,1,28,0,0,0
586795795,0,37.455915,126.954168,171.701,190.157,1725539361200040,11141125,0.323,3.1415925,0.9480001,1.3470001,0.59999996,0.89,66,53,0.021000002,-0.021000002,0.001,0.0050000004,5.527105,0,nan,0.0,0.0,0.0,0,4,2,1,1,28,0,0,0
586894502,0,37.455914899999996,126.95416809999999,171.697,190.154,1725539361300040,11141125,0.36900002,3.0863228,0.9480001,1.3460001,0.59999996,0.89,66,53,0.095000006,-0.072000004,0.061000004,-0.031000001,5.527105,0,nan,0.0,0.0,0.0,0,4,2,1,1,28,0,0,0
586994786,0,37.455914899999996,126.95416809999999,171.689,190.14600000000002,1725539361400040,11141125,0.34600002,3.1415925,0.9480001,1.3460001,0.59999996,0.89,66,53,0.037,0.013,-0.034,0.028,5.527105,0,nan,0.0,0.0,0.0,0,4,2,1,1,28,0,0,0
587094783,0,37.455914899999996,126.95416809999999,171.685,190.142,1725539361500040,11141125,0.35700002,3.1415925,0.9480001,1.3460001,0.59999996,0.89,66,53,0.010000001,0.008,-0.006,0.007,5.527105,0,nan,0.0,0.0,0.0,0,4,2,1,1,28,0,0,0
587193782,0,37.455914899999996,126.95416809999999,171.673,190.13,1725539361600040,11141125,0.32200003,3.1415925,0.9480001,1.3460001,0.59999996,0.89,66,53,0.027,-0.026,0.004,0.007,5.527105,0,nan,0.0,0.0,0.0,0,4,2,1,1,28,0,0,0
587294982,0,37.455914899999996,126.95416809999999,171.667,190.124,1725539361700040,11141125,0.289,3.1415925,0.9480001,1.3460001,0.59999996,0.89,66,53,0.012,0.003,-0.012,-0.023000002,5.527105,0,nan,0.0,0.0,0.0,0,4,2,1,1,28,0,0,0
587392801,0,37.455914899999996,126.95416809999999,171.668,190.125,1725539361800040,11141125,0.31300002,3.1415925,0.9480001,1.3460001,0.59999996,0.89,66,53,0.029000001,0.028,0.007,0.032,5.527105,0,nan,0.0,0.0,0.0,0,4,2,1,1,28,0,0,0
587488504,0,37.455914799999995,126.95416809999999,171.668,190.124,1725539361900040,11141125,0.34500003,3.1415925,0.9480001,1.345,0.59999996,0.89,66,53,0.063,-0.036000002,0.052,0.019000001,5.527105,0,nan,0.0,0.0,0.0,0,4,2,1,1,28,0,0,0
587604783,0,37.455914799999995,126.9541682,171.65800000000002,190.115,1725539362000040,11141125,0.275,3.1415925,0.9480001,1.345,0.59999996,0.89,66,53,0.017,0.017,0.0050000004,-0.020000001,5.527105,0,nan,0.0,0.0,0.0,0,4,2,1,1,28,0,0,0
587698784,0,37.455914899999996,126.9541682,171.659,190.116,1725539362100040,11141125,0.305,3.1415925,0.9480001,1.345,0.59999996,0.89,66,53,0.075,0.075,-0.003,-0.029000001,5.527105,0,nan,0.0,0.0,0.0,0,4,2,1,1,28,0,0,0
587797805,0,37.455914899999996,126.9541682,171.647,190.103,1725539362200040,11141125,0.33600003,3.1415925,0.9480001,1.345,0.59999996,0.89,66,52,0.036000002,0.035,-0.0050000004,0.032,5.527105,0,nan,0.0,0.0,0.0,0,4,2,1,1,28,0,0,0
587895781,0,37.455914899999996,126.9541682,171.641,190.098,1725539362300040,11141125,0.30800003,3.1415925,0.9480001,1.345,0.59999996,0.89,66,52,0.023000002,0.022000002,-0.003,0.065000005,5.527105,0,nan,0.0,0.0,0.0,0,4,2,1,1,28,0,0,0
587995009,0,37.455914899999996,126.9541682,171.643,190.1,1725539362400040,11141125,0.35200003,3.1415925,0.9480001,1.345,0.59999996,0.89,66,52,0.047000002,0.046000004,-0.009000001,0.017,5.527105,0,nan,0.0,0.0,0.0,0,4,2,1,1,28,0,0,0
588094782,0,37.455915,126.9541682,171.65200000000002,190.109,1725539362500039,11141125,0.29700002,3.1415925,0.9480001,1.345,0.59999996,0.89,66,52,0.097,0.097,0.0,-0.067,5.527105,0,nan,0.0,0.0,0.0,0,4,2,1,1,28,0,0,0
588195805,0,37.4559151,126.9541682,171.659,190.115,1725539362600039,11141125,0.31300002,1.9774185,0.9480001,1.3460001,0.59999996,0.89,66,52,0.17300001,0.17300001,-0.013,-0.072000004,5.527105,0,nan,0.0,0.0,0.0,0,4,2,1,1,28,0,0,0
588292783,0,37.4559152,126.9541682,171.66,190.117,1725539362700039,11141125,0.298,1.6087914,0.9480001,1.3460001,0.59999996,0.89,66,52,0.208,0.20500001,-0.034,-0.157,5.527105,0,nan,0.0,0.0,0.0,0,4,2,1,1,28,0,0,0
588390823,0,37.455915399999995,126.9541682,171.679,190.136,1725539362800039,11141125,0.298,1.464683,0.94900006,1.3460001,0.59999996,0.89,66,52,0.216,0.20700002,-0.062000003,-0.192,5.527105,0,nan,0.0,0.0,0.0,0,4,2,1,1,28,0,0,0
588496782,0,37.4559156,126.954168,171.708,190.16400000000002,1725539362900039,11141125,0.29900002,0.9626568,0.9480001,1.3460001,0.59999996,0.89,66,52,0.303,0.257,-0.16000001,-0.246,5.527105,0,nan,0.0,0.0,0.0,0,4,2,1,1,28,0,0,0
588604782,0,37.4559158,126.9541678,171.736,190.193,1725539363000039,11141125,0.30600002,1.034415,0.9480001,1.345,0.59999996,0.89,66,52,0.28300002,0.23700002,-0.156,-0.22500001,5.527105,0,nan,0.0,0.0,0.0,0,4,2,1,1,28,0,0,0
588698785,0,37.455915999999995,126.9541677,171.769,190.226,1725539363100039,11141125,0.279,1.8008226,0.947,1.3440001,0.59999996,0.89,66,52,0.18,0.18,-0.012,-0.28800002,5.527105,0,nan,0.0,0.0,0.0,0,4,2,1,1,28,0,0,0
588796782,0,37.4559162,126.9541677,171.80700000000002,190.264,1725539363200039,11141125,0.28300002,1.2537968,0.947,1.3440001,0.59999996,0.89,66,54,0.26200002,0.26000002,-0.029000001,-0.35200003,5.527105,0,nan,0.0,0.0,0.0,0,4,2,1,1,28,0,0,0
588895784,0,37.4559164,126.9541677,171.827,190.284,1725539363300039,11141125,0.279,1.5950309,0.947,1.3440001,0.59999996,0.89,66,54,0.19600001,0.187,-0.060000002,-0.40300003,5.527105,0,nan,0.0,0.0,0.0,0,4,2,1,1,28,0,0,0
588993785,0,37.455916599999995,126.9541678,171.885,190.342,1725539363400039,11141125,0.28,1.2952343,0.947,1.343,0.59999996,0.89,66,54,0.28,0.22500001,0.16600001,-0.563,5.527105,0,nan,0.0,0.0,0.0,0,4,2,1,1,28,0,0,0
589096078,0,37.4559168,126.954168,171.94,190.397,1725539363500039,11141125,0.28100002,1.4863136,0.947,1.343,0.59999996,0.89,66,54,0.245,0.186,0.15900001,-0.53000003,5.527105,0,nan,0.0,0.0,0.0,0,4,2,1,1,28,0,0,0
589195105,0,37.4559169,126.9541682,171.985,190.441,1725539363600039,11141125,0.289,1.2225424,0.94600004,1.343,0.59999996,0.89,66,54,0.29200003,0.15100001,0.25,-0.609,5.527105,0,nan,0.0,0.0,0.0,0,4,2,1,1,28,0,0,0
589288025,0,37.455917,126.9541685,172.04,190.496,1725539363700039,11141125,0.29500002,1.1233134,0.94600004,1.342,0.59999996,0.89,66,54,0.31,0.102000006,0.293,-0.671,5.527105,0,nan,0.0,0.0,0.0,0,4,2,1,1,28,0,0,0
589395785,0,37.4559171,126.95416879999999,172.098,190.555,1725539363800039,11141125,0.28500003,1.544725,0.94600004,1.342,0.59999996,0.89,66,54,0.23600002,0.177,0.157,-0.70400006,5.527105,0,nan,0.0,0.0,0.0,0,4,2,1,1,28,0,0,0
589494789,0,37.4559172,126.95416909999999,172.18,190.636,1725539363900039,11141125,0.31500003,0.9046197,0.94600004,1.343,0.59999996,0.89,66,54,0.36200002,-0.043,0.36,-0.83300006,5.527105,0,nan,0.0,0.0,0.0,0,4,2,1,1,28,0,0,0
589607786,0,37.4559172,126.95416949999999,172.269,190.726,1725539364000039,11141125,0.30400002,1.6100082,0.94600004,1.343,0.59999996,0.89,66,54,0.22500001,0.047000002,0.22000001,-0.896,5.527105,0,nan,0.0,0.0,0.0,0,4,2,1,1,28,0,0,0
589700055,0,37.4559172,126.9541697,172.361,190.818,1725539364100039,11141125,0.307,1.8146777,0.94600004,1.3440001,0.59999996,0.89,66,54,0.177,-0.038000003,0.17300001,-0.869,5.527105,0,nan,0.0,0.0,0.0,0,4,2,1,1,28,0,0,0
589799783,0,37.4559172,126.9541699,172.45000000000002,190.907,1725539364200039,11141125,0.3,1.6691065,0.94600004,1.3440001,0.59999996,0.89,66,51,0.20400001,0.029000001,0.202,-0.9480001,5.527105,0,nan,0.0,0.0,0.0,0,4,2,1,1,28,0,0,0
589897798,0,37.4559172,126.95416999999999,172.543,191.0,1725539364300039,11141125,0.29900002,3.1415925,0.94600004,1.3440001,0.59999996,0.89,66,51,0.006,-0.006,0.001,-0.98700005,5.527105,0,nan,0.0,0.0,0.0,0,4,2,1,1,28,0,0,0
589998782,0,37.4559172,126.9541701,172.668,191.125,1725539364400039,11141125,0.30200002,2.9709816,0.94600004,1.345,0.59999996,0.89,66,51,0.115,0.003,0.115,-1.087,5.527105,0,nan,0.0,0.0,0.0,0,4,2,1,1,28,0,0,0
590095785,0,37.4559171,126.9541702,172.741,191.198,1725539364500039,11141125,0.30100003,3.1415925,0.94600004,1.345,0.59999996,0.89,66,51,0.08400001,-0.048,0.069000006,-1.011,5.527105,0,nan,0.0,0.0,0.0,0,4,2,1,1,28,0,0,0
590191783,0,37.4559171,126.9541702,172.841,191.298,1725539364600039,11141125,0.3,3.1415925,0.94600004,1.3460001,0.59999996,0.89,66,51,0.067,-0.066,-0.007,-1.042,5.527105,0,nan,0.0,0.0,0.0,0,4,2,1,1,28,0,0,0
590298934,0,37.455917,126.9541703,172.961,191.417,1725539364700039,11141125,0.30800003,1.6333883,0.947,1.3460001,0.59999996,0.89,66,51,0.18400002,-0.13900001,0.12100001,-1.116,5.527105,0,nan,0.0,0.0,0.0,0,4,2,1,1,28,0,0,0
590396785,0,37.4559169,126.9541704,173.072,191.528,1725539364800039,11141125,0.29700002,3.1415925,0.947,1.3470001,0.59999996,0.89,66,51,0.044000003,-0.031000001,0.032,-1.1170001,5.527105,0,nan,0.0,0.0,0.0,0,4,2,1,1,28,0,0,0
590495790,0,37.4559169,126.95417049999999,173.17600000000002,191.633,1725539364900039,11141125,0.30200002,1.6891056,0.947,1.3470001,0.59999996,0.89,66,51,0.18,-0.046000004,0.17500001,-1.139,5.527105,0,nan,0.0,0.0,0.0,0,4,2,1,1,28,0,0,0
590605926,0,37.455916699999996,126.95417069999999,173.28,191.737,1725539365000039,11141125,0.31,1.1289032,0.947,1.348,0.59999996,0.89,66,51,0.266,-0.20300001,0.171,-1.184,5.527105,0,nan,0.0,0.0,0.0,0,4,2,1,1,28,0,0,0
590695953,0,37.455916599999995,126.9541708,173.40200000000002,191.859,1725539365100038,11141125,0.303,2.2751958,0.947,1.348,0.59999996,0.89,66,51,0.13800001,-0.127,0.053000003,-1.177,5.527105,0,nan,0.0,0.0,0.0,0,4,2,1,1,28,0,0,0
590797781,0,37.4559165,126.9541709,173.525,191.981,1725539365200038,11141125,0.303,2.2291598,0.947,1.3490001,0.59999996,0.89,66,51,0.141,-0.133,0.048,-1.243,5.527105,0,nan,0.0,0.0,0.0,0,4,2,1,1,28,0,0,0
590894895,0,37.4559164,126.95417099999999,173.643,192.09900000000002,1725539365300038,11141125,0.30400002,2.0192995,0.947,1.3490001,0.59999996,0.89,66,51,0.149,-0.11000001,0.101,-1.217,5.527105,0,nan,0.0,0.0,0.0,0,4,2,1,1,28,0,0,0
590994783,0,37.4559163,126.95417099999999,173.749,192.20600000000002,1725539365400038,11141125,0.29900002,3.1415925,0.947,1.35,0.59999996,0.89,66,51,0.052,-0.045,0.026,-1.192,5.527105,0,nan,0.0,0.0,0.0,0,4,2,1,1,28,0,0,0
591090786,0,37.4559162,126.9541711,173.864,192.321,1725539365500038,11141125,0.30400002,1.6857004,0.947,1.35,0.59999996,0.89,66,51,0.17400001,-0.113000005,0.132,-1.177,5.527105,0,nan,0.0,0.0,0.0,0,4,2,1,1,28,0,0,0
591197820,0,37.455916099999996,126.9541713,173.996,192.453,1725539365600038,11141125,0.30200002,1.6041297,0.947,1.35,0.59999996,0.89,66,51,0.18300001,-0.10300001,0.15100001,-1.1730001,5.527105,0,nan,0.0,0.0,0.0,0,4,2,1,1,28,0,0,0
591295783,0,37.455915999999995,126.95417139999999,174.109,192.565,1725539365700038,11141125,0.30100003,1.9208293,0.947,1.3510001,0.59999996,0.89,66,51,0.171,-0.17,0.023000002,-1.238,5.527105,0,nan,0.0,0.0,0.0,0,4,2,1,1,28,0,0,0
591395782,0,37.4559159,126.95417139999999,174.225,192.68200000000002,1725539365800038,11141125,0.296,3.1415925,0.947,1.3510001,0.59999996,0.89,66,51,0.104,-0.09900001,-0.034,-1.251,5.527105,0,nan,0.0,0.0,0.0,0,4,2,1,1,28,0,0,0
591496786,0,37.4559158,126.95417139999999,174.357,192.814,1725539365900038,11141125,0.296,3.1415925,0.947,1.3510001,0.59999996,0.89,66,51,0.074,-0.048,0.056,-1.2770001,5.527105,0,nan,0.0,0.0,0.0,0,4,2,1,1,28,0,0,0
591600572,0,37.4559157,126.95417139999999,174.474,192.931,1725539366000038,11141125,0.296,1.9604218,0.947,1.3510001,0.59999996,0.89,66,51,0.18400002,-0.16000001,-0.09,-1.222,5.527105,0,nan,0.0,0.0,0.0,0,4,2,1,1,28,0,0,0
591700782,0,37.4559156,126.9541713,174.609,193.066,1725539366100038,11141125,0.29500002,3.1415925,0.947,1.3520001,0.61,0.89,66,51,0.11000001,-0.104,-0.036000002,-1.1620001,5.527105,0,nan,0.0,0.0,0.0,0,4,2,1,1,28,0,0,0
591797881,0,37.4559156,126.95417119999999,174.709,193.166,1725539366200038,11141125,0.293,3.1415925,0.947,1.3520001,0.59999996,0.89,66,55,0.102000006,-0.07,-0.07300001,-1.154,5.527105,0,nan,0.0,0.0,0.0,0,4,2,1,1,28,0,0,0
591899280,0,37.455915499999996,126.9541711,174.81300000000002,193.27,1725539366300038,11141125,0.293,2.246777,0.947,1.3520001,0.61,0.89,66,55,0.15900001,-0.068,-0.14400001,-1.1240001,5.527105,0,nan,0.0,0.0,0.0,0,4,2,1,1,28,0,0,0
591991807,0,37.455915499999996,126.9541709,174.93200000000002,193.389,1725539366400038,11141125,0.29500002,2.365201,0.947,1.353,0.59999996,0.89,66,55,0.15400001,-0.095000006,-0.12100001,-1.064,5.527105,0,nan,0.0,0.0,0.0,0,4,2,1,1,28,0,0,0
592098786,0,37.455915399999995,126.95417069999999,175.036,193.493,1725539366500038,11141125,0.29500002,1.5921086,0.947,1.353,0.59999996,0.89,66,55,0.22100002,-0.10300001,-0.19600001,-1.1090001,5.527105,0,nan,0.0,0.0,0.0,0,4,2,1,1,28,0,0,0
592195783,0,37.4559153,126.9541704,175.149,193.606,1725539366600038,11141125,0.294,1.2460164,0.947,1.353,0.59999996,0.89,66,55,0.27800003,-0.091000006,-0.263,-1.0730001,5.527105,0,nan,0.0,0.0,0.0,0,4,2,1,1,28,0,0,0
592295783,0,37.4559152,126.95416999999999,175.25,193.707,1725539366700038,11141125,0.294,0.8886007,0.947,1.3540001,0.61,0.89,66,55,0.386,-0.10700001,-0.37,-1.0090001,5.527105,0,nan,0.0,0.0,0.0,0,4,2,1,1,28,0,0,0
592398941,0,37.4559151,126.9541697,175.359,193.816,1725539366800038,11141125,0.294,1.8434509,0.947,1.3540001,0.61,0.89,66,55,0.187,-0.067,-0.17500001,-0.994,5.527105,0,nan,0.0,0.0,0.0,0,4,2,1,1,28,0,0,0
592496270,0,37.4559151,126.9541694,175.445,193.90200000000002,1725539366900038,11141125,0.294,0.7649553,0.947,1.355,0.61,0.89,66,55,0.42700002,-0.008,-0.42700002,-1.006,4.693151,0,nan,0.0,0.0,0.0,0,4,2,1,1,28,0,0,0
592602784,0,37.4559151,126.954169,175.543,193.999,1725539367000038,11141125,0.29500002,1.3760264,0.947,1.355,0.61,0.89,66,55,0.252,-0.091000006,-0.23500001,-0.90400004,5.115179,0,nan,0.0,0.0,0.0,0,4,2,1,1,27,0,0,0
592693860,0,37.4559151,126.9541687,175.63,194.08700000000002,1725539367100038,11141125,0.291,1.0374753,0.947,1.355,0.61,0.89,66,55,0.30900002,0.009000001,-0.30900002,-0.91800004,5.115179,0,nan,0.0,0.0,0.0,0,4,2,1,1,28,0,0,0
592794810,0,37.455915,126.95416829999999,175.71,194.167,1725539367200038,11141125,0.294,0.9535508,0.947,1.355,0.61,0.89,66,50,0.35300002,-0.07,-0.34600002,-0.92600006,5.115179,0,nan,0.0,0.0,0.0,0,4,2,1,1,28,0,0,0
592889117,0,37.455915,126.954168,175.781,194.238,1725539367300038,11141125,0.29200003,1.470962,0.947,1.3560001,0.61,0.89,66,50,0.223,0.017,-0.22200002,-0.832,5.115179,0,nan,0.0,0.0,0.0,0,4,2,1,1,28,0,0,0
592993784,0,37.4559151,126.9541678,175.853,194.31,1725539367400038,11141125,0.291,1.553602,0.947,1.3560001,0.61,0.89,66,50,0.201,0.07300001,-0.187,-0.79200006,5.115179,0,nan,0.0,0.0,0.0,0,4,2,1,1,28,0,0,0
593094540,0,37.4559151,126.9541677,175.942,194.399,1725539367500038,11141125,0.30100003,3.1415925,0.947,1.3570001,0.61,0.89,66,50,0.014,0.014,-0.001,-0.76400006,5.115179,0,nan,0.0,0.0,0.0,0,4,2,1,1,28,0,0,0
593191783,0,37.4559151,126.9541677,175.994,194.451,1725539367600038,11141125,0.303,3.1415925,0.947,1.3570001,0.61,0.89,66,50,0.071,-0.066,-0.024,-0.634,5.115179,0,nan,0.0,0.0,0.0,0,4,2,1,1,28,0,0,0
593295786,0,37.4559151,126.9541678,176.05,194.507,1725539367700037,11141125,0.30400002,3.1415925,0.947,1.358,0.61,0.89,66,50,0.040000003,-0.003,0.040000003,-0.57600003,5.115179,0,nan,0.0,0.0,0.0,0,4,2,1,1,28,0,0,0
593392784,0,37.455915,126.9541678,176.118,194.574,1725539367800037,11141125,0.30900002,3.1415925,0.947,1.3590001,0.61,0.89,66,50,0.098000005,-0.063,0.075,-0.574,5.115179,0,nan,0.0,0.0,0.0,0,4,2,1,1,28,0,0,0
593491785,0,37.4559151,126.95416789999999,176.14600000000002,194.602,1725539367900037,11141125,0.294,3.1415925,0.947,1.3590001,0.61,0.89,66,50,0.041,0.035,0.020000001,-0.333,5.115179,0,nan,0.0,0.0,0.0,0,4,2,1,1,28,0,0,0
593602827,0,37.4559151,126.954168,176.163,194.62,1725539368000037,11141125,0.328,2.7340355,0.947,1.36,0.61,0.89,66,50,0.126,0.020000001,0.125,-0.125,5.115179,0,nan,0.0,0.0,0.0,0,4,2,1,1,28,0,0,0
593698123,0,37.4559152,126.95416809999999,176.15800000000002,194.615,1725539368100037,11141125,0.289,3.1415925,0.9480001,1.3610001,0.61,0.89,66,50,0.080000006,0.07,0.040000003,-0.061000004,5.115179,0,nan,0.0,0.0,0.0,0,4,2,1,1,28,0,0,0
593789785,0,37.4559153,126.95416809999999,176.148,194.60500000000002,1725539368200037,11141125,0.33400002,2.2327788,0.9480001,1.3620001,0.61,0.89,66,55,0.147,0.142,-0.038000003,-0.041,5.115179,0,nan,0.0,0.0,0.0,0,4,2,1,1,28,0,0,0
593893783,0,37.455915499999996,126.95416809999999,176.153,194.61,1725539368300037,11141125,0.34,1.1547781,0.9480001,1.363,0.61,0.89,66,55,0.286,0.277,-0.07300001,-0.064,5.115179,0,nan,0.0,0.0,0.0,0,4,2,1,1,28,0,0,0
593993803,0,37.4559158,126.95416789999999,176.15800000000002,194.615,1725539368400037,11141125,0.351,0.83602524,0.9480001,1.3640001,0.61,0.89,66,55,0.38000003,0.33600003,-0.177,-0.10700001,5.115179,0,nan,0.0,0.0,0.0,0,4,2,1,1,28,0,0,0
594092837,0,37.455916099999996,126.9541677,176.161,194.618,1725539368500037,11141125,0.34600002,0.7591641,0.94900006,1.3640001,0.61,0.89,66,55,0.41200003,0.333,-0.24200001,-0.15100001,5.654691,0,nan,0.0,0.0,0.0,0,4,2,1,1,28,0,0,0
594194783,0,37.4559164,126.95416739999999,176.15800000000002,194.614,1725539368600037,11141125,0.35700002,0.6238501,0.94900006,1.365,0.61,0.89,66,55,0.483,0.38000003,-0.29900002,-0.085,5.6155005,0,nan,0.0,0.0,0.0,0,4,2,1,1,28,0,0,0
594293783,0,37.4559168,126.954167,176.166,194.622,1725539368700037,11141125,0.347,0.49606898,0.94900006,1.366,0.61,0.89,66,55,0.611,0.46400002,-0.39800003,-0.18200001,5.573604,0,nan,0.0,0.0,0.0,0,4,2,1,1,28,0,0,0
594393785,0,37.4559172,126.9541666,176.191,194.648,1725539368800037,11141125,0.344,0.4502513,0.94900006,1.3670001,0.61,0.89,66,55,0.674,0.49,-0.46300003,-0.21800001,5.526273,0,nan,0.0,0.0,0.0,0,4,2,1,1,28,0,0,0
594495288,0,37.4559178,126.95416589999999,176.203,194.659,1725539368900037,11141125,0.354,0.34929082,0.94900006,1.3690001,0.59999996,0.89,66,55,0.91200006,0.62600005,-0.66300005,-0.20400001,5.4696655,0,nan,0.0,0.0,0.0,0,4,2,1,1,28,0,0,0
594601784,0,37.4559184,126.9541651,176.21800000000002,194.675,1725539369000037,11141125,0.33900002,0.3353889,0.94900006,1.371,0.59999996,0.89,66,55,0.98800004,0.58900005,-0.79300004,-0.305,5.3516803,0,nan,0.0,0.0,0.0,0,4,2,1,1,28,0,0,0
594690004,0,37.455919,126.9541642,176.248,194.705,1725539369100037,11141125,0.34500003,0.29180473,0.94900006,1.373,0.59999996,0.89,66,55,1.136,0.8,-0.80700004,-0.319,5.493685,0,nan,0.0,0.0,0.0,0,4,2,1,1,28,0,0,0
594793910,0,37.455919699999995,126.95416329999999,176.27,194.727,1725539369200037,11141125,0.34500003,0.2829369,0.95000005,1.376,0.59999996,0.89,66,60,1.146,0.78200006,-0.83800006,-0.32500002,5.4636207,0,nan,0.0,0.0,0.0,0,4,2,1,1,28,0,0,0
594893783,0,37.4559205,126.9541623,176.303,194.75900000000001,1725539369300037,11141125,0.354,0.26472297,0.95000005,1.378,0.61,0.89,66,60,1.241,0.79600006,-0.952,-0.23500001,5.408861,0,nan,0.0,0.0,0.0,0,4,2,1,1,28,0,0,0
594993783,0,37.4559212,126.95416119999999,176.324,194.78,1725539369400037,11141125,0.35500002,0.2598399,0.95000005,1.3800001,0.59999996,0.89,66,60,1.2750001,0.84400004,-0.95600003,-0.21300001,5.436091,0,nan,0.0,0.0,0.0,0,4,2,1,1,28,0,0,0
595094783,0,37.455922,126.95416019999999,176.353,194.81,1725539369500037,11141125,0.35500002,0.26426485,0.95000005,1.3820001,0.59999996,0.89,66,60,1.251,0.85700005,-0.91200006,-0.163,5.466677,0,nan,0.0,0.0,0.0,0,4,2,1,1,28,0,0,0
595193784,0,37.455922699999995,126.9541591,176.367,194.824,1725539369600037,11141125,0.34500003,0.25419882,0.95100003,1.3840001,0.59999996,0.89,66,60,1.235,0.77400005,-0.9620001,-0.215,5.389713,0,nan,0.0,0.0,0.0,0,4,2,1,1,28,0,0,0
595293785,0,37.4559236,126.95415799999999,176.366,194.822,1725539369700037,11141125,0.34600002,0.22649556,0.95100003,1.3850001,0.59999996,0.89,66,60,1.378,0.91600007,-1.029,-0.18300001,5.4398303,0,nan,0.0,0.0,0.0,0,4,2,1,1,28,0,0,0
595393830,0,37.4559244,126.95415679999999,176.373,194.83,1725539369800037,11141125,0.351,0.23355542,0.95100003,1.3870001,0.59999996,0.89,66,60,1.4120001,0.90800005,-1.0810001,-0.15300001,5.410768,0,nan,0.0,0.0,0.0,0,4,2,1,1,28,0,0,0
595492786,0,37.455925199999996,126.9541555,176.399,194.85500000000002,1725539369900037,11141125,0.35200003,0.21951914,0.95100003,1.389,0.59999996,0.89,66,60,1.468,0.91700006,-1.1470001,-0.14400001,5.3871737,0,nan,0.0,0.0,0.0,0,4,2,1,1,28,0,0,0
595595783,0,37.4559261,126.9541543,176.401,194.858,1725539370000037,11141125,0.35300002,0.22141525,0.95100003,1.391,0.59999996,0.89,66,60,1.447,0.95900005,-1.0840001,-0.208,5.437058,0,nan,0.0,0.0,0.0,0,4,2,1,1,28,0,0,0
595693829,0,37.4559269,126.9541531,176.427,194.88400000000001,1725539370100037,11141125,0.34600002,0.22676311,0.95100003,1.391,0.59999996,0.89,66,60,1.3700001,0.83000004,-1.09,-0.209,5.3633676,0,nan,0.0,0.0,0.0,0,4,2,1,1,28,0,0,0
595793783,0,37.4559277,126.954152,176.461,194.918,1725539370200037,11141125,0.35200003,0.23684798,0.95100003,1.3920001,0.59999996,0.89,66,54,1.3160001,0.97400004,-0.88500005,-0.19000001,5.545513,0,nan,0.0,0.0,0.0,0,4,2,1,1,28,0,0,0
595891783,0,37.4559286,126.95415109999999,176.471,194.928,1725539370300037,11141125,0.35700002,0.25257236,0.95100003,1.393,0.59999996,0.89,66,54,1.2550001,0.989,-0.771,-0.120000005,5.6208754,0,nan,0.0,0.0,0.0,0,4,2,1,1,28,0,0,0
595994063,0,37.455929499999996,126.9541503,176.492,194.949,1725539370400036,11141125,0.35500002,0.27673188,0.95100003,1.394,0.59999996,0.89,66,54,1.1400001,0.92200005,-0.67,-0.117000006,5.6548104,0,nan,0.0,0.0,0.0,0,4,2,1,1,28,0,0,0
596093807,0,37.4559303,126.95414969999999,176.481,194.93800000000002,1725539370500036,11141125,0.358,0.2955401,0.95100003,1.3950001,0.59999996,0.89,66,54,1.062,0.90800005,-0.551,-0.034,5.7381406,0,nan,0.0,0.0,0.0,0,4,2,1,1,28,0,0,0
596193786,0,37.4559311,126.9541491,176.471,194.928,1725539370600036,11141125,0.36200002,0.30696118,0.95100003,1.396,0.59999996,0.89,66,54,1.0250001,0.90300006,-0.48400003,0.037,5.7910237,0,nan,0.0,0.0,0.0,0,4,2,1,1,28,0,0,0
596296184,0,37.455931899999996,126.95414869999999,176.483,194.939,1725539370700036,11141125,0.35700002,0.34532803,0.95100003,1.3970001,0.59999996,0.89,66,54,0.91300005,0.827,-0.388,-0.076000005,5.844485,0,nan,0.0,0.0,0.0,0,4,2,1,1,28,0,0,0
596393786,0,37.4559326,126.9541483,176.491,194.948,1725539370800036,11141125,0.349,0.38932395,0.95100003,1.3980001,0.59999996,0.89,66,54,0.82100004,0.75200003,-0.32900003,-0.133,5.8704267,0,nan,0.0,0.0,0.0,0,4,2,1,1,28,0,0,0
596489782,0,37.4559333,126.95414799999999,176.494,194.951,1725539370900036,11141125,0.342,0.3984096,0.95100003,1.399,0.59999996,0.89,66,54,0.80300003,0.763,-0.25100002,-0.158,5.965572,0,nan,0.0,0.0,0.0,0,4,2,1,1,28,0,0,0
596602899,0,37.4559339,126.9541478,176.505,194.96200000000002,1725539371000036,11141125,0.349,0.41700312,0.95100003,1.401,0.59999996,0.89,66,54,0.785,0.771,-0.14600001,-0.08400001,6.09614,0,nan,0.0,0.0,0.0,0,4,2,1,1,28,0,0,0
596693784,0,37.4559346,126.9541476,176.506,194.963,1725539371100036,11141125,0.354,0.44296125,0.95100003,1.4020001,0.61,0.89,66,54,0.735,0.70500004,-0.20500001,-0.042000003,6.0002413,0,nan,0.0,0.0,0.0,0,4,2,1,1,28,0,0,0
596795782,0,37.4559353,126.95414749999999,176.487,194.94400000000002,1725539371200036,11141125,0.363,0.48452607,0.952,1.404,0.59999996,0.89,66,53,0.68600005,0.66400003,-0.17500001,-0.029000001,6.025809,0,nan,0.0,0.0,0.0,0,4,2,1,1,28,0,0,0
596894783,0,37.4559358,126.95414729999999,176.5,194.957,1725539371300036,11141125,0.358,0.5717636,0.952,1.406,0.59999996,0.89,66,53,0.578,0.55700004,-0.15400001,-0.016,6.0140586,0,nan,0.0,0.0,0.0,0,4,2,1,1,28,0,0,0
596993790,0,37.4559363,126.9541471,176.493,194.949,1725539371400036,11141125,0.35700002,0.5606643,0.952,1.4080001,0.59999996,0.89,66,53,0.574,0.52500004,-0.23300001,-0.015000001,5.8654165,0,nan,0.0,0.0,0.0,0,4,2,1,1,28,0,0,0
597093783,0,37.455936799999996,126.9541469,176.495,194.951,1725539371500036,11141125,0.34500003,0.56610346,0.952,1.4100001,0.59999996,0.89,66,53,0.568,0.523,-0.22000001,-0.091000006,5.8841634,0,nan,0.0,0.0,0.0,0,4,2,1,1,28,0,0,0
597194785,0,37.4559372,126.9541467,176.508,194.964,1725539371600036,11141125,0.342,0.6011488,0.952,1.4120001,0.59999996,0.89,66,53,0.537,0.48800004,-0.224,-0.14600001,5.853568,0,nan,0.0,0.0,0.0,0,4,2,1,1,28,0,0,0
597293785,0,37.4559377,126.9541465,176.506,194.96200000000002,1725539371700036,11141125,0.34300002,0.52785826,0.95300007,1.4130001,0.59999996,0.89,66,53,0.60800004,0.55200005,-0.256,-0.142,5.8494067,0,nan,0.0,0.0,0.0,0,4,2,1,1,28,0,0,0
597389782,0,37.4559383,126.95414629999999,176.52700000000002,194.984,1725539371800036,11141125,0.34100002,0.49660218,0.95300007,1.4150001,0.59999996,0.89,66,53,0.666,0.64500004,-0.163,-0.20700002,6.035481,0,nan,0.0,0.0,0.0,0,4,2,1,1,28,0,0,0
597495783,0,37.4559389,126.9541462,176.534,194.991,1725539371900036,11141125,0.347,0.43152672,0.95300007,1.416,0.59999996,0.89,66,53,0.77500004,0.77300006,-0.056,-0.105000004,6.210208,0,nan,0.0,0.0,0.0,0,4,2,1,1,28,0,0,0
597600783,0,37.4559397,126.95414629999999,176.536,194.992,1725539372000036,11141125,0.33900002,0.37506127,0.95300007,1.416,0.59999996,0.89,66,53,0.88600004,0.88400006,0.045,-0.09900001,0.051146872,0,nan,0.0,0.0,0.0,0,4,2,1,1,28,0,0,0
597695784,0,37.4559406,126.9541464,176.529,194.986,1725539372100036,11141125,0.34500003,0.33345807,0.95300007,1.417,0.59999996,0.89,66,53,1.0070001,1.0,0.11800001,-0.047000002,0.11735942,0,nan,0.0,0.0,0.0,0,4,2,1,1,28,0,0,0
597794817,0,37.455941599999996,126.95414659999999,176.518,194.975,1725539372200036,11141125,0.349,0.27861336,0.95300007,1.417,0.59999996,0.89,66,55,1.243,1.2260001,0.20500001,0.036000002,0.16592634,0,nan,0.0,0.0,0.0,0,4,2,1,1,28,0,0,0
597894783,0,37.4559429,126.9541469,176.522,194.978,1725539372300036,11141125,0.351,0.23875318,0.95300007,1.4180001,0.59999996,0.89,66,55,1.4410001,1.427,0.2,-0.047000002,0.13919367,0,nan,0.0,0.0,0.0,0,4,2,1,1,28,0,0,0
597992785,0,37.4559443,126.9541471,176.538,194.995,1725539372400036,11141125,0.358,0.19747597,0.95400006,1.419,0.59999996,0.89,66,55,1.7980001,1.7930001,0.135,-0.124000005,0.07513607,0,nan,0.0,0.0,0.0,0,4,2,1,1,28,0,0,0
598094784,0,37.4559462,126.95414729999999,176.52700000000002,194.984,1725539372500036,11141125,0.351,0.15963182,0.95400006,1.4200001,0.59999996,0.89,66,55,2.18,2.1720002,0.187,-0.108,0.08605084,0,nan,0.0,0.0,0.0,0,4,2,1,1,28,0,0,0
598192784,0,37.455948299999996,126.9541476,176.52700000000002,194.984,1725539372600036,11141125,0.35200003,0.13981658,0.95400006,1.419,0.61,0.89,66,55,2.467,2.4620001,0.15300001,-0.09900001,0.061960757,0,nan,0.0,0.0,0.0,0,4,2,1,1,28,0,0,0
598290018,0,37.455950699999995,126.9541479,176.528,194.985,1725539372700036,11141125,0.354,0.126491,0.95500004,1.4180001,0.61,0.89,66,55,2.7150002,2.706,0.21700001,-0.034,0.07991967,0,nan,0.0,0.0,0.0,0,4,2,1,1,28,0,0,0
598392783,0,37.4559533,126.9541481,176.506,194.963,1725539372800036,11141125,0.36,0.11495262,0.95500004,1.4180001,0.61,0.89,66,55,2.9780002,2.9750001,0.14,0.007,0.047179565,0,nan,0.0,0.0,0.0,0,4,2,1,1,28,0,0,0
598493782,0,37.4559561,126.9541483,176.51,194.966,1725539372900036,11141125,0.36800003,0.10723407,0.95500004,1.4180001,0.61,0.89,66,55,3.1980002,3.1950002,0.143,-0.019000001,0.044861067,0,nan,0.0,0.0,0.0,0,4,2,1,1,28,0,0,0
598605781,0,37.455959199999995,126.9541486,176.5,194.957,1725539373000035,11141125,0.38200003,0.09817704,0.95600003,1.419,0.61,0.89,66,55,3.5570002,3.5530002,0.156,-0.068,0.04386955,0,nan,0.0,0.0,0.0,0,4,2,1,1,28,0,0,0
598701194,0,37.4559626,126.9541488,176.484,194.94,1725539373100035,11141125,0.36400002,0.08817456,0.95600003,1.419,0.61,0.89,66,55,3.8430002,3.8420002,0.097,-0.033,0.02536225,0,nan,0.0,0.0,0.0,0,4,2,1,1,28,0,0,0
598796785,0,37.4559662,126.954149,176.466,194.922,1725539373200035,11141125,0.37300003,0.08358573,0.95600003,1.419,0.61,0.89,66,53,4.091,4.0880003,0.142,-0.032,0.034785457,0,nan,0.0,0.0,0.0,0,4,2,1,1,28,0,0,0
598898066,0,37.4559701,126.95414919999999,176.45000000000002,194.907,1725539373300035,11141125,0.36800003,0.07851782,0.957,1.4200001,0.61,0.89,66,53,4.3710003,4.367,0.19500001,-0.028,0.04458618,0,nan,0.0,0.0,0.0,0,4,2,1,1,28,0,0,0
598997990,0,37.4559741,126.9541495,176.425,194.881,1725539373400035,11141125,0.36200002,0.07488894,0.957,1.4200001,0.61,0.89,66,53,4.525,4.519,0.22100002,0.041,0.048882484,0,nan,0.0,0.0,0.0,0,4,2,1,1,28,0,0,0
599095782,0,37.4559783,126.95414989999999,176.411,194.867,1725539373500035,11141125,0.35700002,0.07122688,0.957,1.419,0.61,0.89,66,53,4.7190003,4.7110004,0.268,-0.008,0.056782015,0,nan,0.0,0.0,0.0,0,4,2,1,1,28,0,0,0
599190783,0,37.4559826,126.9541503,176.383,194.84,1725539373600035,11141125,0.35900003,0.06894801,0.95800006,1.419,0.61,0.89,66,53,4.8570004,4.848,0.289,0.015000001,0.0596379,0,nan,0.0,0.0,0.0,0,4,2,1,1,28,0,0,0
599295784,0,37.4559871,126.95415059999999,176.375,194.83100000000002,1725539373700035,11141125,0.354,0.06600957,0.95800006,1.419,0.61,0.89,66,53,4.921,4.912,0.29700002,-0.008,0.060311247,0,nan,0.0,0.0,0.0,0,4,2,1,1,28,0,0,0
599393892,0,37.455991499999996,126.95415109999999,176.365,194.822,1725539373800035,11141125,0.35500002,0.06641973,0.95800006,1.4200001,0.61,0.89,66,53,4.94,4.9280005,0.35000002,-0.001,0.070811145,0,nan,0.0,0.0,0.0,0,4,2,1,1,28,0,0,0
599493785,0,37.455996,126.9541515,176.363,194.82,1725539373900035,11141125,0.35000002,0.066655345,0.95800006,1.4200001,0.61,0.89,66,53,4.927,4.9110003,0.402,-0.007,0.081603564,0,nan,0.0,0.0,0.0,0,4,2,1,1,28,0,0,0
599602781,0,37.4560004,126.95415209999999,176.34,194.797,1725539374000035,11141125,0.349,0.0661862,0.95800006,1.4210001,0.61,0.89,66,53,5.0080004,4.986,0.46800002,-0.001,0.093585424,0,nan,0.0,0.0,0.0,0,4,2,1,1,28,0,0,0
599693785,0,37.456005,126.9541527,176.318,194.774,1725539374100035,11141125,0.351,0.06617346,0.95800006,1.4210001,0.61,0.89,66,53,5.019,4.9960003,0.47800002,-0.009000001,0.09546182,0,nan,0.0,0.0,0.0,0,4,2,1,1,28,0,0,0
599794783,0,37.4560094,126.9541532,176.323,194.779,1725539374200035,11141125,0.35000002,0.067705505,0.95800006,1.422,0.61,0.89,66,53,4.905,4.8820004,0.47000003,-0.034,0.09599259,0,nan,0.0,0.0,0.0,0,4,2,1,1,28,0,0,0
599894807,0,37.4560138,126.9541539,176.335,194.791,1725539374300035,11141125,0.342,0.06775822,0.95800006,1.422,0.61,0.89,66,53,4.9030004,4.873,0.544,-0.080000006,0.11114291,0,nan,0.0,0.0,0.0,0,4,2,1,1,28,0,0,0
599994783,0,37.456018199999995,126.9541546,176.323,194.78,1725539374400035,11141125,0.344,0.0669517,0.95800006,1.4230001,0.61,0.89,66,53,4.9080005,4.873,0.58400005,-0.062000003,0.119282074,0,nan,0.0,0.0,0.0,0,4,2,1,1,28,0,0,0
600090807,0,37.4560227,126.95415519999999,176.306,194.763,1725539374500035,11141125,0.344,0.066931106,0.95800006,1.4230001,0.59999996,0.89,66,53,4.919,4.886,0.574,-0.053000003,0.11703218,0,nan,0.0,0.0,0.0,0,4,2,1,1,28,0,0,0
600197783,0,37.456027,126.954156,176.29500000000002,194.751,1725539374600035,11141125,0.34300002,0.068822,0.95800006,1.424,0.59999996,0.89,66,53,4.829,4.7900004,0.61,-0.021000002,0.12673377,0,nan,0.0,0.0,0.0,0,4,2,1,1,28,0,0,0
600295782,0,37.4560315,126.9541567,176.275,194.732,1725539374700035,11141125,0.34,0.06728505,0.95800006,1.424,0.61,0.89,66,53,4.931,4.8900003,0.628,-0.012,0.12781343,0,nan,0.0,0.0,0.0,0,4,2,1,1,28,0,0,0
600394784,0,37.456035899999996,126.9541574,176.281,194.737,1725539374800035,11141125,0.342,0.066975616,0.95800006,1.4250001,0.59999996,0.89,66,53,4.92,4.8820004,0.615,-0.017,0.1252436,0,nan,0.0,0.0,0.0,0,4,2,1,1,28,0,0,0
600494783,0,37.4560403,126.9541582,176.262,194.71800000000002,1725539374900035,11141125,0.33900002,0.06775577,0.95800006,1.4250001,0.59999996,0.89,66,53,4.8890004,4.839,0.698,0.015000001,0.1431854,0,nan,0.0,0.0,0.0,0,4,2,1,1,28,0,0,0
600609782,0,37.4560446,126.95415899999999,176.254,194.71,1725539375000035,11141125,0.34100002,0.0696985,0.95800006,1.4250001,0.59999996,0.89,66,53,4.8310003,4.782,0.69100004,-0.054,0.1436029,0,nan,0.0,0.0,0.0,0,4,2,1,1,28,0,0,0
600708783,0,37.456049,126.9541599,176.245,194.702,1725539375100035,11141125,0.34,0.06928102,0.95800006,1.4250001,0.59999996,0.89,66,53,4.875,4.82,0.73200005,-0.083000004,0.15080778,0,nan,0.0,0.0,0.0,0,4,2,1,1,28,0,0,0
600800796,0,37.4560534,126.9541608,176.232,194.68800000000002,1725539375200035,11141125,0.335,0.06918817,0.95800006,1.4250001,0.59999996,0.89,66,55,4.892,4.8380003,0.72200006,-0.074,0.14816482,0,nan,0.0,0.0,0.0,0,4,2,1,1,28,0,0,0
600898782,0,37.456057799999996,126.9541617,176.226,194.68200000000002,1725539375300035,11141125,0.335,0.06883648,0.95800006,1.4250001,0.59999996,0.89,66,55,4.925,4.8640003,0.77000004,-0.069000006,0.15706113,0,nan,0.0,0.0,0.0,0,4,2,1,1,28,0,0,0
600992783,0,37.4560622,126.95416259999999,176.21,194.667,1725539375400035,11141125,0.333,0.06966394,0.95800006,1.4250001,0.59999996,0.89,66,55,4.9360003,4.879,0.74600005,-0.052,0.15170734,0,nan,0.0,0.0,0.0,0,4,2,1,1,28,0,0,0
601098812,0,37.4560667,126.95416349999999,176.208,194.66400000000002,1725539375500035,11141125,0.333,0.07019557,0.95800006,1.4250001,0.59999996,0.89,66,55,4.9100003,4.8490005,0.77300006,-0.045,0.15797777,0,nan,0.0,0.0,0.0,0,4,2,1,1,28,0,0,0
601197068,0,37.456071099999996,126.9541644,176.19400000000002,194.65,1725539375600035,11141125,0.335,0.06950669,0.95800006,1.4250001,0.59999996,0.89,66,55,4.965,4.9040003,0.77900004,-0.040000003,0.15751386,0,nan,0.0,0.0,0.0,0,4,2,1,1,28,0,0,0
601298012,0,37.4560755,126.9541654,176.185,194.642,1725539375700034,11141125,0.33900002,0.07264933,0.95800006,1.4250001,0.59999996,0.89,66,55,4.8910003,4.8180003,0.83800006,-0.065000005,0.17227115,0,nan,0.0,0.0,0.0,0,4,2,1,1,28,0,0,0
601398781,0,37.4560799,126.9541663,176.173,194.63,1725539375800034,11141125,0.34300002,0.07275666,0.95900005,1.4260001,0.59999996,0.89,66,55,4.8840003,4.8160005,0.81100005,-0.087000005,0.16675468,0,nan,0.0,0.0,0.0,0,4,2,1,1,28,0,0,0
601499059,0,37.4560843,126.9541672,176.184,194.641,1725539375900034,11141125,0.33600003,0.06922953,0.95900005,1.4260001,0.59999996,0.89,66,55,4.965,4.9080005,0.748,-0.113000005,0.15123835,0,nan,0.0,0.0,0.0,0,4,2,1,1,28,0,0,0
601605783,0,37.456088799999996,126.9541682,176.172,194.629,1725539376000034,11141125,0.337,0.069271244,0.95900005,1.427,0.59999996,0.89,66,55,4.934,4.8690004,0.79700005,-0.094000004,0.16215539,0,nan,0.0,0.0,0.0,0,4,2,1,1,28,0,0,0
601701783,0,37.4560932,126.95416909999999,176.169,194.626,1725539376100034,11141125,0.33100003,0.068933696,0.95900005,1.427,0.59999996,0.89,66,55,4.946,4.88,0.804,-0.079,0.16333209,0,nan,0.0,0.0,0.0,0,4,2,1,1,28,0,0,0
601798808,0,37.4560976,126.9541701,176.153,194.609,1725539376200034,11141125,0.33100003,0.0694559,0.95900005,1.427,0.59999996,0.89,66,56,4.927,4.8560004,0.83400005,-0.072000004,0.17016156,0,nan,0.0,0.0,0.0,0,4,2,1,1,28,0,0,0
601891785,0,37.456102,126.95417099999999,176.153,194.61,1725539376300034,11141125,0.32900003,0.06988787,0.95900005,1.4280001,0.59999996,0.89,66,56,4.9230003,4.8580003,0.79700005,-0.09200001,0.16259539,0,nan,0.0,0.0,0.0,0,4,2,1,1,28,0,0,0
601998821,0,37.4561065,126.954172,176.141,194.597,1725539376400034,11141125,0.328,0.0683436,0.95900005,1.4280001,0.59999996,0.89,66,56,5.017,4.9420004,0.86100006,-0.08800001,0.17251025,0,nan,0.0,0.0,0.0,0,4,2,1,1,28,0,0,0
602094799,0,37.456111,126.95417289999999,176.136,194.592,1725539376500034,11141125,0.33100003,0.06935781,0.95900005,1.4280001,0.59999996,0.89,66,56,4.964,4.906,0.758,-0.11100001,0.15335563,0,nan,0.0,0.0,0.0,0,4,2,1,1,28,0,0,0
602197806,0,37.4561154,126.9541739,176.115,194.572,1725539376600034,11141125,0.324,0.069359556,0.95900005,1.4280001,0.59999996,0.89,66,56,4.9370003,4.875,0.77800006,-0.068,0.15814795,0,nan,0.0,0.0,0.0,0,4,2,1,1,28,0,0,0
602298782,0,37.4561199,126.9541747,176.112,194.568,1725539376700034,11141125,0.32700002,0.06864869,0.95900005,1.429,0.59999996,0.89,66,56,4.9900002,4.946,0.665,-0.127,0.13368697,0,nan,0.0,0.0,0.0,0,4,2,1,1,28,0,0,0
602397101,0,37.4561243,126.9541756,176.09300000000002,194.55,1725539376800034,11141125,0.326,0.06905081,0.95900005,1.429,0.59999996,0.89,66,56,4.9350004,4.8780003,0.75000006,-0.125,0.15259151,0,nan,0.0,0.0,0.0,0,4,2,1,1,28,0,0,0
602496784,0,37.456128799999995,126.9541764,176.086,194.543,1725539376900034,11141125,0.33,0.06855548,0.95900005,1.429,0.59999996,0.89,66,56,4.9760003,4.9240003,0.71900004,-0.09,0.14501016,0,nan,0.0,0.0,0.0,0,4,2,1,1,28,0,0,0
602606782,0,37.4561333,126.95417719999999,176.084,194.541,1725539377000034,11141125,0.32700002,0.06817745,0.95900005,1.4300001,0.59999996,0.89,66,56,4.96,4.9170003,0.65300006,-0.080000006,0.13199314,0,nan,0.0,0.0,0.0,0,4,2,1,1,28,0,0,0
602700843,0,37.4561377,126.954178,176.07,194.526,1725539377100034,11141125,0.32500002,0.067676716,0.95900005,1.4300001,0.59999996,0.89,66,56,4.959,4.914,0.665,-0.060000002,0.13452823,0,nan,0.0,0.0,0.0,0,4,2,1,1,28,0,0,0
602793782,0,37.456142199999995,126.9541787,176.065,194.522,1725539377200034,11141125,0.324,0.066644,0.95900005,1.4300001,0.59999996,0.89,66,55,4.979,4.947,0.568,-0.039,0.11428992,0,nan,0.0,0.0,0.0,0,4,2,1,1,28,0,0,0
602896073,0,37.4561467,126.9541794,176.052,194.50900000000001,1725539377300034,11141125,0.321,0.06538963,0.95800006,1.4300001,0.59999996,0.89,66,55,5.0210004,4.9940004,0.51500005,-0.095000006,0.10279692,0,nan,0.0,0.0,0.0,0,4,2,1,1,28,0,0,0
602994783,0,37.4561512,126.95418,176.054,194.511,1725539377400034,11141125,0.32900003,0.06634328,0.95800006,1.4300001,0.59999996,0.89,66,55,4.9550004,4.9300003,0.49400002,-0.133,0.09985535,0,nan,0.0,0.0,0.0,0,4,2,1,1,28,0,0,0
603093803,0,37.4561557,126.9541806,176.05700000000002,194.514,1725539377500034,11141125,0.324,0.06747809,0.95800006,1.4300001,0.59999996,0.89,66,55,4.8700004,4.8450003,0.48800004,-0.136,0.10028819,0,nan,0.0,0.0,0.0,0,4,2,1,1,28,0,0,0
603196199,0,37.4561601,126.9541812,176.05100000000002,194.508,1725539377600034,11141125,0.323,0.06813905,0.95800006,1.4300001,0.59999996,0.89,66,55,4.8770003,4.8510003,0.50100005,-0.15300001,0.10287982,0,nan,0.0,0.0,0.0,0,4,2,1,1,28,0,0,0
603293784,0,37.4561643,126.95418169999999,176.047,194.504,1725539377700034,11141125,0.326,0.07254129,0.95800006,1.4300001,0.59999996,0.89,66,55,4.6150002,4.591,0.47300002,-0.1,0.10272938,0,nan,0.0,0.0,0.0,0,4,2,1,1,28,0,0,0
603394805,0,37.4561685,126.95418219999999,176.041,194.497,1725539377800034,11141125,0.317,0.075049505,0.957,1.4300001,0.59999996,0.89,66,55,4.552,4.539,0.35200003,-0.066,0.07734653,0,nan,0.0,0.0,0.0,0,4,2,1,1,28,0,0,0
603494782,0,37.4561725,126.95418269999999,176.048,194.505,1725539377900034,11141125,0.314,0.07776245,0.957,1.4300001,0.59999996,0.89,66,55,4.385,4.3630004,0.44000003,-0.157,0.10047512,0,nan,0.0,0.0,0.0,0,4,2,1,1,28,0,0,0
603605785,0,37.456176299999996,126.95418319999999,176.068,194.524,1725539378000034,11141125,0.31100002,0.08044013,0.957,1.4310001,0.59999996,0.89,66,55,4.156,4.136,0.40600002,-0.21700001,0.097930595,0,nan,0.0,0.0,0.0,0,4,2,1,1,28,0,0,0
603700866,0,37.456179999999996,126.9541836,176.092,194.549,1725539378100034,11141125,0.312,0.08335832,0.957,1.4310001,0.59999996,0.89,66,55,3.956,3.9420002,0.33200002,-0.23,0.084097296,0,nan,0.0,0.0,0.0,0,4,2,1,1,28,0,0,0
603799809,0,37.456183599999996,126.954184,176.083,194.54,1725539378200034,11141125,0.314,0.08562288,0.957,1.4310001,0.59999996,0.89,66,61,3.8910003,3.8780003,0.317,-0.18300001,0.081604436,0,nan,0.0,0.0,0.0,0,4,2,1,1,28,0,0,0
603900014,0,37.456187,126.95418439999999,176.07500000000002,194.532,1725539378300033,11141125,0.31300002,0.08894285,0.957,1.4310001,0.59999996,0.89,66,61,3.7460003,3.7350001,0.294,-0.19600001,0.078517124,0,nan,0.0,0.0,0.0,0,4,2,1,1,28,0,0,0
603997783,0,37.4561904,126.9541848,176.079,194.535,1725539378400033,11141125,0.314,0.09297682,0.957,1.432,0.59999996,0.89,66,61,3.634,3.6260002,0.24800001,-0.18900001,0.06840399,0,nan,0.0,0.0,0.0,0,4,2,1,1,28,0,0,0
604098782,0,37.4561936,126.95418509999999,176.078,194.534,1725539378500033,11141125,0.319,0.09780423,0.957,1.432,0.59999996,0.89,66,61,3.479,3.4700003,0.24700001,-0.208,0.07111501,0,nan,0.0,0.0,0.0,0,4,2,1,1,28,0,0,0
604197783,0,37.4561967,126.9541854,176.088,194.544,1725539378600033,11141125,0.317,0.102031775,0.957,1.4330001,0.59999996,0.89,66,61,3.3430002,3.3300002,0.296,-0.21800001,0.0887814,0,nan,0.0,0.0,0.0,0,4,2,1,1,28,0,0,0
604296796,0,37.4561997,126.9541857,176.095,194.55100000000002,1725539378700033,11141125,0.321,0.10841095,0.957,1.4330001,0.59999996,0.89,66,61,3.147,3.14,0.21400002,-0.15900001,0.06790343,0,nan,0.0,0.0,0.0,0,4,2,1,1,28,0,0,0
604396782,0,37.456202499999996,126.95418599999999,176.102,194.559,1725539378800033,11141125,0.319,0.11327676,0.957,1.4330001,0.59999996,0.89,66,61,3.012,3.0030003,0.23400001,-0.17300001,0.077766456,0,nan,0.0,0.0,0.0,0,4,2,1,1,28,0,0,0
604494785,0,37.4562051,126.9541864,176.114,194.571,1725539378900033,11141125,0.30800003,0.11104744,0.95600003,1.4330001,0.59999996,0.89,66,61,2.897,2.874,0.36400002,-0.21300001,0.12602952,0,nan,0.0,0.0,0.0,0,4,2,1,1,28,0,0,0
604597784,0,37.4562077,126.9541869,176.107,194.564,1725539379000033,11141125,0.30900002,0.11616318,0.95500004,1.4330001,0.59999996,0.89,66,61,2.7700002,2.7340002,0.44000003,-0.16600001,0.15936898,0,nan,0.0,0.0,0.0,0,4,2,1,1,28,0,0,0
604695785,0,37.4562102,126.9541874,176.115,194.572,1725539379100033,11141125,0.312,0.1301649,0.95500004,1.4330001,0.59999996,0.89,66,61,2.634,2.6060002,0.38700002,-0.157,0.14755204,0,nan,0.0,0.0,0.0,0,4,2,1,1,28,0,0,0
604795784,0,37.4562124,126.9541879,176.118,194.574,1725539379200033,11141125,0.31,0.14195111,0.95500004,1.4330001,0.59999996,0.89,66,51,2.426,2.3890002,0.42600003,-0.15400001,0.17662732,0,nan,0.0,0.0,0.0,0,4,2,1,1,28,0,0,0
604893782,0,37.4562145,126.95418839999999,176.11,194.567,1725539379300033,11141125,0.319,0.16521634,0.95500004,1.434,0.59999996,0.89,66,51,2.1690001,2.135,0.38200003,-0.135,0.17716923,0,nan,0.0,0.0,0.0,0,4,2,1,1,28,0,0,0
604995784,0,37.4562163,126.9541888,176.11,194.567,1725539379400033,11141125,0.312,0.18284297,0.95600003,1.4350001,0.59999996,0.89,66,51,1.968,1.937,0.347,-0.102000006,0.17711636,0,nan,0.0,0.0,0.0,0,4,2,1,1,28,0,0,0
605094782,0,37.456218,126.95418919999999,176.112,194.56900000000002,1725539379500033,11141125,0.30200002,0.18992183,0.95600003,1.4360001,0.59999996,0.89,66,51,1.8220001,1.8000001,0.28,-0.115,0.15427977,0,nan,0.0,0.0,0.0,0,4,2,1,1,28,0,0,0
605194783,0,37.4562196,126.9541895,176.106,194.56300000000002,1725539379600033,11141125,0.30400002,0.21625693,0.95600003,1.4360001,0.59999996,0.89,66,51,1.5960001,1.5860001,0.17300001,-0.22600001,0.10872389,0,nan,0.0,0.0,0.0,0,4,2,1,1,28,0,0,0
605296810,0,37.456221,126.9541898,176.12,194.577,1725539379700033,11141125,0.30400002,0.23803604,0.95600003,1.437,0.59999996,0.89,66,51,1.4350001,1.422,0.192,-0.2,0.13451654,0,nan,0.0,0.0,0.0,0,4,2,1,1,28,0,0,0
605396806,0,37.4562223,126.95419,176.124,194.58,1725539379800033,11141125,0.305,0.26573598,0.95600003,1.4380001,0.59999996,0.89,66,51,1.322,1.312,0.15900001,-0.21200001,0.120535396,0,nan,0.0,0.0,0.0,0,4,2,1,1,28,0,0,0
605490782,0,37.4562234,126.95419009999999,176.137,194.594,1725539379900033,11141125,0.303,0.30322146,0.95600003,1.439,0.59999996,0.89,66,51,1.1470001,1.144,0.089,-0.223,0.077791244,0,nan,0.0,0.0,0.0,0,4,2,1,1,28,0,0,0
605603782,0,37.456224399999996,126.9541903,176.147,194.603,1725539380000033,11141125,0.30400002,0.3481286,0.95600003,1.439,0.59999996,0.89,66,51,1.0200001,1.016,0.09,-0.24800001,0.088833064,0,nan,0.0,0.0,0.0,0,4,2,1,1,28,0,0,0
605699961,0,37.4562253,126.9541905,176.143,194.6,1725539380100033,11141125,0.30200002,0.3673883,0.95600003,1.44,0.59999996,0.89,66,51,0.961,0.95600003,0.10300001,-0.246,0.10751699,0,nan,0.0,0.0,0.0,0,4,2,1,1,28,0,0,0
605793962,0,37.456226199999996,126.95419059999999,176.15,194.607,1725539380200033,11141125,0.305,0.44087312,0.95600003,1.4410001,0.59999996,0.89,66,60,0.80300003,0.8,0.066,-0.16700001,0.0825141,0,nan,0.0,0.0,0.0,0,4,2,1,1,28,0,0,0
605894784,0,37.4562269,126.9541907,176.15,194.606,1725539380300033,11141125,0.30400002,0.5021982,0.957,1.442,0.59999996,0.89,66,60,0.708,0.70400006,0.072000004,-0.127,0.1022084,0,nan,0.0,0.0,0.0,0,4,2,1,1,28,0,0,0
605994847,0,37.4562275,126.9541907,176.142,194.598,1725539380400033,11141125,0.30400002,0.6173214,0.957,1.442,0.59999996,0.89,66,60,0.551,0.55,-0.022000002,-0.11000001,6.243268,0,nan,0.0,0.0,0.0,0,4,2,1,1,28,0,0,0
606092881,0,37.456227999999996,126.9541907,176.14000000000001,194.597,1725539380500033,11141125,0.31100002,0.6433657,0.957,1.4430001,0.59999996,0.89,66,60,0.522,0.52000004,-0.042000003,-0.102000006,6.2017703,0,nan,0.0,0.0,0.0,0,4,2,1,1,28,0,0,0
606195784,0,37.4562285,126.9541907,176.142,194.598,1725539380600033,11141125,0.30600002,0.7574814,0.95600003,1.4430001,0.59999996,0.89,66,60,0.44500002,0.44400004,-0.028,-0.134,6.2211313,0,nan,0.0,0.0,0.0,0,4,2,1,1,28,0,0,0
606294783,0,37.4562289,126.9541907,176.14000000000001,194.597,1725539380700033,11141125,0.305,0.7728421,0.95600003,1.4440001,0.59999996,0.89,66,60,0.42800003,0.41300002,-0.113000005,-0.21100001,6.015818,0,nan,0.0,0.0,0.0,0,4,2,1,1,28,0,0,0
606390808,0,37.4562294,126.9541905,176.166,194.623,1725539380800033,11141125,0.305,0.6496633,0.95600003,1.445,0.59999996,0.89,66,60,0.504,0.47800002,-0.16100001,-0.268,5.957854,0,nan,0.0,0.0,0.0,0,4,2,1,1,28,0,0,0
606495806,0,37.456229799999996,126.95419039999999,176.174,194.631,1725539380900032,11141125,0.298,0.71498233,0.95600003,1.445,0.59999996,0.89,66,60,0.45600003,0.439,-0.12100001,-0.28500003,6.0148597,0,nan,0.0,0.0,0.0,0,4,2,1,1,28,0,0,0
606601782,0,37.4562303,126.9541903,176.193,194.649,1725539381000032,11141125,0.305,0.7010703,0.95600003,1.445,0.59999996,0.89,66,60,0.469,0.46100003,-0.085,-0.231,6.100288,0,nan,0.0,0.0,0.0,0,4,2,1,1,28,0,0,0
606694782,0,37.4562307,126.9541902,176.214,194.671,1725539381100032,11141125,0.30600002,0.68893296,0.95600003,1.4460001,0.59999996,0.89,66,60,0.48000002,0.467,-0.112,-0.22000001,6.04863,0,nan,0.0,0.0,0.0,0,4,2,1,1,28,0,0,0
606797782,0,37.4562312,126.95419,176.22,194.677,1725539381200032,11141125,0.30900002,0.7942328,0.95600003,1.4460001,0.59999996,0.89,66,63,0.41500002,0.4,-0.11100001,-0.18800001,6.0555367,0,nan,0.0,0.0,0.0,0,4,2,1,1,28,0,0,0
606893782,0,37.456231599999995,126.95418989999999,176.225,194.68200000000002,1725539381300032,11141125,0.312,0.73957366,0.95600003,1.447,0.59999996,0.89,66,63,0.44900003,0.439,-0.093,-0.17,6.074812,0,nan,0.0,0.0,0.0,0,4,2,1,1,28,0,0,0
606994783,0,37.4562321,126.9541898,176.234,194.69,1725539381400032,11141125,0.321,0.6469743,0.95600003,1.447,0.59999996,0.89,66,63,0.503,0.48600003,-0.132,-0.15,6.017414,0,nan,0.0,0.0,0.0,0,4,2,1,1,28,0,0,0
607098064,0,37.4562325,126.9541897,176.236,194.693,1725539381500032,11141125,0.32000002,0.7247915,0.95600003,1.447,0.59999996,0.89,66,63,0.45600003,0.44700003,-0.09,-0.179,6.084495,0,nan,0.0,0.0,0.0,0,4,2,1,1,28,0,0,0
607197782,0,37.456233,126.9541897,176.246,194.703,1725539381600032,11141125,0.307,0.7842843,0.95600003,1.447,0.59999996,0.89,66,63,0.437,0.437,0.018000001,-0.18200001,0.04158317,0,nan,0.0,0.0,0.0,0,4,2,1,1,28,0,0,0
607293065,0,37.456233399999995,126.9541898,176.25,194.707,1725539381700032,11141125,0.293,0.82668334,0.95600003,1.447,0.59999996,0.89,66,63,0.418,0.41400003,0.062000003,-0.178,6.1811647,0,nan,0.0,0.0,0.0,0,4,2,1,1,28,0,0,0
607398803,0,37.4562338,126.95418989999999,176.249,194.70600000000002,1725539381800032,11141125,0.29700002,0.7459762,0.95600003,1.4460001,0.59999996,0.89,66,63,0.467,0.462,0.068,-0.17300001,0.14596643,0,nan,0.0,0.0,0.0,0,4,2,1,1,28,0,0,0
607495785,0,37.4562343,126.95419,176.241,194.698,1725539381900032,11141125,0.298,0.7864026,0.95600003,1.4460001,0.59999996,0.89,66,63,0.44300002,0.43800002,0.068,-0.15900001,0.028179735,0,nan,0.0,0.0,0.0,0,4,2,1,1,28,0,0,0
607604785,0,37.456234699999996,126.95419009999999,176.251,194.707,1725539382000032,11141125,0.30100003,0.7338548,0.95600003,1.4460001,0.59999996,0.89,66,63,0.48200002,0.46800002,0.11400001,-0.132,0.23876102,0,nan,0.0,0.0,0.0,0,4,2,1,1,28,0,0,0
607707782,0,37.4562352,126.9541902,176.237,194.69400000000002,1725539382100032,11141125,0.3,0.97803223,0.95600003,1.4460001,0.59999996,0.89,66,63,0.36100003,0.351,0.086,-0.13800001,0.13519774,0,nan,0.0,0.0,0.0,0,4,2,1,1,28,0,0,0
607797083,0,37.4562356,126.95419039999999,176.232,194.68800000000002,1725539382200032,11141125,0.303,0.8314717,0.95600003,1.445,0.59999996,0.89,65,56,0.42800003,0.42000002,0.083000004,-0.106000006,0.13519774,0,nan,0.0,0.0,0.0,0,4,2,1,1,28,0,0,0
607893782,0,37.456236,126.9541905,176.236,194.693,1725539382300032,11141125,0.298,0.77610004,0.95600003,1.445,0.59999996,0.89,65,56,0.46100003,0.44700003,0.11000001,-0.14600001,0.2416513,0,nan,0.0,0.0,0.0,0,4,2,1,1,28,0,0,0
607996225,0,37.4562364,126.95419059999999,176.228,194.685,1725539382400032,11141125,0.289,0.8863099,0.95600003,1.4440001,0.59999996,0.89,65,56,0.395,0.388,0.07,-0.21900001,0.1854503,0,nan,0.0,0.0,0.0,0,4,2,1,1,28,0,0,0
608094928,0,37.4562368,126.95419079999999,176.222,194.679,1725539382500032,11141125,0.286,0.9515177,0.95500004,1.4440001,0.59999996,0.89,65,56,0.37100002,0.358,0.1,-0.2,0.1854503,0,nan,0.0,0.0,0.0,0,4,2,1,1,28,0,0,0
608189805,0,37.4562373,126.9541909,176.219,194.675,1725539382600032,11141125,0.29000002,0.7565016,0.95500004,1.4430001,0.59999996,0.89,65,56,0.455,0.44900003,0.068,-0.18,0.15067653,0,nan,0.0,0.0,0.0,0,4,2,1,1,28,0,0,0
608294805,0,37.456237699999996,126.95419109999999,176.227,194.683,1725539382700032,11141125,0.29000002,0.7503528,0.95500004,1.442,0.59999996,0.89,65,56,0.47900003,0.44900003,0.16600001,-0.171,0.3547626,0,nan,0.0,0.0,0.0,0,4,2,1,1,28,0,0,0
608396783,0,37.4562381,126.95419129999999,176.228,194.684,1725539382800032,11141125,0.28800002,1.1662462,0.95500004,1.44,0.59999996,0.89,65,56,0.321,0.28100002,0.155,-0.11100001,0.26195523,0,nan,0.0,0.0,0.0,0,4,2,1,1,28,0,0,0
608493782,0,37.4562384,126.95419159999999,176.214,194.671,1725539382900032,11141125,0.293,0.99546456,0.95500004,1.439,0.59999996,0.89,65,56,0.37800002,0.273,0.261,-0.094000004,0.26195523,0,nan,0.0,0.0,0.0,0,4,2,1,1,28,0,0,0
608603782,0,37.4562387,126.95419199999999,176.202,194.659,1725539383000032,11141125,0.29700002,0.8768963,0.95500004,1.4380001,0.59999996,0.89,65,56,0.43,0.277,0.32900003,-0.047000002,0.26195523,0,nan,0.0,0.0,0.0,0,4,2,1,1,28,0,0,0
608695783,0,37.456238899999995,126.95419229999999,176.198,194.655,1725539383100032,11141125,0.30200002,1.1112773,0.95500004,1.437,0.59999996,0.89,65,56,0.34100002,0.23500001,0.24700001,-0.071,0.26195523,0,nan,0.0,0.0,0.0,0,4,2,1,1,28,0,0,0
608795807,0,37.4562392,126.9541926,176.196,194.653,1725539383200032,11141125,0.298,1.0260986,0.95500004,1.4360001,0.59999996,0.89,65,58,0.37300003,0.31500003,0.19900002,-0.071,0.26195523,0,nan,0.0,0.0,0.0,0,4,2,1,1,28,0,0,0
608894783,0,37.456239599999996,126.9541929,176.19400000000002,194.65,1725539383300032,11141125,0.29700002,1.0859998,0.95500004,1.4350001,0.59999996,0.89,65,58,0.356,0.312,0.172,-0.15200001,0.26195523,0,nan,0.0,0.0,0.0,0,4,2,1,1,28,0,0,0
608993782,0,37.4562399,126.9541931,176.18,194.637,1725539383400032,11141125,0.3,1.1342418,0.95500004,1.434,0.59999996,0.89,65,58,0.33600003,0.30600002,0.13900001,-0.132,0.26195523,0,nan,0.0,0.0,0.0,0,4,2,1,1,28,0,0,0
609090783,0,37.456240199999996,126.9541933,176.183,194.64000000000001,1725539383500032,11141125,0.30200002,1.3655438,0.95500004,1.434,0.59999996,0.89,65,58,0.272,0.26200002,0.072000004,-0.13000001,0.26195523,0,nan,0.0,0.0,0.0,0,4,2,1,1,28,0,0,0
609196215,0,37.4562405,126.9541934,176.178,194.63400000000001,1725539383600031,11141125,0.30100003,1.3151327,0.95600003,1.4330001,0.59999996,0.89,65,58,0.28300002,0.26200002,0.106000006,-0.17,0.26195523,0,nan,0.0,0.0,0.0,0,4,2,1,1,28,0,0,0
609295825,0,37.456240799999996,126.9541936,176.173,194.629,1725539383700031,11141125,0.293,1.9001545,0.95500004,1.432,0.59999996,0.89,65,58,0.18800001,0.16100001,0.098000005,-0.16100001,0.26195523,0,nan,0.0,0.0,0.0,0,4,2,1,1,28,0,0,0
609394785,0,37.4562409,126.95419369999999,176.183,194.639,1725539383800031,11141125,0.29200003,2.6713667,0.95500004,1.4310001,0.59999996,0.89,65,58,0.135,0.123,0.056,-0.15100001,0.26195523,0,nan,0.0,0.0,0.0,0,4,2,1,1,28,0,0,0
609498221,0,37.4562411,126.9541938,176.18200000000002,194.639,1725539383900031,11141125,0.303,2.0013928,0.95500004,1.4310001,0.59999996,0.89,65,58,0.186,0.143,0.11800001,-0.11100001,0.26195523,0,nan,0.0,0.0,0.0,0,4,2,1,1,28,0,0,0
609600782,0,37.456241299999995,126.954194,176.18200000000002,194.638,1725539384000031,11141125,0.30200002,2.1823251,0.95500004,1.4300001,0.59999996,0.89,65,58,0.171,0.13100001,0.11000001,-0.093,0.26195523,0,nan,0.0,0.0,0.0,0,4,2,1,1,28,0,0,0
609698404,0,37.4562415,126.95419419999999,176.18800000000002,194.645,1725539384100031,11141125,0.30100003,2.2555053,0.95500004,1.4300001,0.59999996,0.89,65,58,0.165,0.124000005,0.11000001,-0.104,0.26195523,0,nan,0.0,0.0,0.0,0,4,2,1,1,28,0,0,0
609795782,0,37.4562416,126.9541943,176.198,194.655,1725539384200031,11141125,0.28800002,3.1415925,0.95500004,1.429,0.59999996,0.89,65,60,0.089,0.08800001,0.017,-0.171,0.26195523,0,nan,0.0,0.0,0.0,0,4,2,1,1,28,0,0,0
609894782,0,37.4562417,126.95419439999999,176.197,194.654,1725539384300031,11141125,0.29000002,2.2154915,0.95500004,1.429,0.59999996,0.89,65,60,0.163,0.149,0.067,-0.193,0.26195523,0,nan,0.0,0.0,0.0,0,4,2,1,1,28,0,0,0
609989783,0,37.456241899999995,126.95419439999999,176.186,194.643,1725539384400031,11141125,0.291,2.4984975,0.95500004,1.429,0.59999996,0.89,65,60,0.13100001,0.128,-0.029000001,-0.157,0.26195523,0,nan,0.0,0.0,0.0,0,4,2,1,1,28,0,0,0
610096782,0,37.456241999999996,126.9541945,176.196,194.653,1725539384500031,11141125,0.298,2.8578308,0.95500004,1.429,0.59999996,0.89,65,60,0.13000001,0.098000005,0.085,-0.13700001,0.26195523,0,nan,0.0,0.0,0.0,0,4,2,1,1,28,0,0,0
