timestamp,timestamp_sample,latitude_deg,longitude_deg,altitude_msl_m,altitude_ellipsoid_m,time_utc_usec,device_id,s_variance_m_s,c_variance_rad,eph,epv,hdop,vdop,noise_per_ms,jamming_indicator,vel_m_s,vel_n_m_s,vel_e_m_s,vel_d_m_s,cog_rad,timestamp_time_relative,heading,heading_offset,heading_accuracy,rtcm_injection_rate,automatic_gain_control,fix_type,jamming_state,spoofing_state,vel_ned_valid,satellites_used,selected_rtcm_instance,rtcm_crc_failed,rtcm_msg_used
387379783,0,37.455931799999995,126.9541919,166.213,184.67000000000002,1725535715499611,11141125,0.31800002,3.1415925,0.92600006,1.2870001,0.51,0.82,68,11,0.044000003,-0.012,0.042000003,-0.006,0.0,0,nan,0.0,0.0,0.0,0,3,1,1,1,32,0,0,0
387580809,0,37.455931799999995,126.95419199999999,166.219,184.67600000000002,1725535715699611,11141125,0.305,3.1415925,0.92600006,1.2870001,0.51,0.82,68,11,0.059000004,0.015000001,0.057000004,-0.018000001,0.0,0,nan,0.0,0.0,0.0,0,3,1,1,1,32,0,0,0
387679804,0,37.455931799999995,126.95419199999999,166.225,184.681,1725535715799611,11141125,0.30800003,3.1415925,0.9250001,1.2870001,0.51,0.82,68,11,0.053000003,0.032,0.043,-0.022000002,0.0,0,nan,0.0,0.0,0.0,0,3,1,1,1,32,0,0,0
387780782,0,37.455931799999995,126.95419199999999,166.222,184.679,1725535715899611,11141125,0.31300002,3.1415925,0.9250001,1.2870001,0.51,0.82,68,11,0.037,-0.002,-0.037,0.024,0.0,0,nan,0.0,0.0,0.0,0,3,1,1,1,32,0,0,0
387888805,0,37.4559317,126.95419199999999,166.236,184.693,1725535715999612,11141125,0.303,3.1415925,0.9250001,1.2880001,0.51,0.82,67,14,0.044000003,-0.015000001,-0.041,0.014,0.0,0,nan,0.0,0.0,0.0,0,3,1,1,1,32,0,0,0
387988998,0,37.4559317,126.95419199999999,166.227,184.683,1725535716099611,11141125,0.31800002,3.1415925,0.9250001,1.2880001,0.51,0.82,67,14,0.056,0.044000003,0.035,-0.002,0.0,0,nan,0.0,0.0,0.0,0,3,1,1,1,32,0,0,0
388078139,0,37.455931799999995,126.95419199999999,166.243,184.70000000000002,1725535716199611,11141125,0.32000002,3.1415925,0.9250001,1.2880001,0.51,0.82,67,14,0.016,-0.001,0.016,-0.012,0.0,0,nan,0.0,0.0,0.0,0,3,1,1,1,32,0,0,0
388179782,0,37.4559317,126.95419199999999,166.242,184.698,1725535716299611,11141125,0.349,3.1415925,0.9250001,1.2880001,0.51,0.82,67,14,0.035,0.030000001,-0.020000001,0.023000002,0.0,0,nan,0.0,0.0,0.0,0,3,1,1,1,32,0,0,0
388279783,0,37.4559317,126.9541919,166.25300000000001,184.71,1725535716399611,11141125,0.337,3.1415925,0.92600006,1.2880001,0.51,0.82,67,14,0.034,-0.024,0.024,-0.039,0.0,0,nan,0.0,0.0,0.0,0,3,1,1,1,32,0,0,0
388380782,0,37.4559317,126.9541919,166.25900000000001,184.715,1725535716499611,11141125,0.319,3.1415925,0.92600006,1.2880001,0.51,0.82,67,14,0.05,-0.039,-0.030000001,-0.007,0.0,0,nan,0.0,0.0,0.0,0,3,1,1,1,32,0,0,0
388479784,0,37.4559317,126.9541919,166.263,184.72,1725535716599611,11141125,0.33,3.1415925,0.92600006,1.2880001,0.51,0.82,67,14,0.051000003,-0.048,-0.017,0.013,0.0,0,nan,0.0,0.0,0.0,0,3,1,1,1,32,0,0,0
388579784,0,37.4559316,126.9541919,166.26500000000001,184.722,1725535716699611,11141125,0.321,3.1415925,0.92600006,1.2880001,0.51,0.82,67,14,0.059000004,0.048,0.034,-0.003,0.0,0,nan,0.0,0.0,0.0,0,3,1,1,1,32,0,0,0
388679809,0,37.4559316,126.9541919,166.27100000000002,184.728,1725535716799611,11141125,0.333,3.1415925,0.92600006,1.2880001,0.51,0.82,67,14,0.029000001,-0.028,0.007,-0.034,0.0,0,nan,0.0,0.0,0.0,0,3,1,1,1,32,0,0,0
388779786,0,37.4559316,126.9541919,166.27100000000002,184.727,1725535716899611,11141125,0.344,3.1415925,0.9250001,1.2880001,0.51,0.82,67,14,0.028,0.019000001,-0.020000001,0.017,0.0,0,nan,0.0,0.0,0.0,0,3,1,1,1,32,0,0,0
388888784,0,37.4559316,126.9541919,166.272,184.729,1725535716999612,11141125,0.34300002,3.1415925,0.9250001,1.2880001,0.51,0.82,67,11,0.041,-0.025,0.033,-0.030000001,0.0,0,nan,0.0,0.0,0.0,0,3,1,1,1,32,0,0,0
388980970,0,37.4559316,126.9541919,166.284,184.741,1725535717099611,11141125,0.298,3.1415925,0.9250001,1.2880001,0.51,0.82,67,11,0.046000004,0.001,0.046000004,0.008,0.0,0,nan,0.0,0.0,0.0,0,3,1,1,1,32,0,0,0
389079894,0,37.4559316,126.9541919,166.282,184.739,1725535717199611,11141125,0.32500002,3.1415925,0.9250001,1.2880001,0.51,0.82,67,11,0.019000001,0.018000001,0.008,-0.001,0.0,0,nan,0.0,0.0,0.0,0,3,1,1,1,32,0,0,0
389180783,0,37.4559315,126.95419199999999,166.288,184.745,1725535717299610,11141125,0.349,3.1415925,0.9250001,1.2880001,0.51,0.82,67,11,0.05,-0.043,0.025,-0.002,0.0,0,nan,0.0,0.0,0.0,0,3,1,1,1,32,0,0,0
389282782,0,37.4559315,126.9541919,166.29,184.747,1725535717399610,11141125,0.30800003,3.1415925,0.9250001,1.2880001,0.51,0.82,67,11,0.044000003,-0.042000003,-0.013,0.063,0.0,0,nan,0.0,0.0,0.0,0,3,1,1,1,32,0,0,0
389379812,0,37.4559315,126.9541919,166.29500000000002,184.752,1725535717499610,11141125,0.307,3.1415925,0.9250001,1.2880001,0.51,0.82,67,11,0.035,0.013,0.033,-0.014,0.0,0,nan,0.0,0.0,0.0,0,3,1,1,1,32,0,0,0
389479786,0,37.4559315,126.9541919,166.303,184.76,1725535717599610,11141125,0.30200002,3.1415925,0.9250001,1.289,0.51,0.82,67,11,0.010000001,0.008,0.007,0.032,0.0,0,nan,0.0,0.0,0.0,0,3,1,1,1,32,0,0,0
389580786,0,37.4559314,126.9541919,166.303,184.75900000000001,1725535717699610,11141125,0.344,3.1415925,0.9250001,1.289,0.51,0.82,67,11,0.029000001,-0.027,0.011000001,0.009000001,0.0,0,nan,0.0,0.0,0.0,0,3,1,1,1,32,0,0,0
389680826,0,37.4559314,126.95419199999999,166.30100000000002,184.758,1725535717799610,11141125,0.33200002,3.1415925,0.9250001,1.289,0.51,0.82,67,11,0.037,-0.027,0.026,0.016,0.0,0,nan,0.0,0.0,0.0,0,3,1,1,1,32,0,0,0
389780784,0,37.4559314,126.95419199999999,166.305,184.761,1725535717899610,11141125,0.317,3.1415925,0.92600006,1.289,0.51,0.82,67,11,0.009000001,-0.008,-0.003,-0.018000001,0.0,0,nan,0.0,0.0,0.0,0,3,1,1,1,32,0,0,0
389894304,0,37.455931299999996,126.95419199999999,166.312,184.769,1725535717999611,11141125,0.335,3.1415925,0.92600006,1.289,0.51,0.82,68,10,0.036000002,-0.016,0.032,0.003,0.0,0,nan,0.0,0.0,0.0,0,3,1,1,1,32,0,0,0
389989790,0,37.455931299999996,126.95419199999999,166.327,184.784,1725535718099610,11141125,0.36400002,3.1415925,0.92600006,1.2900001,0.51,0.82,68,10,0.083000004,-0.07,0.044000003,-0.037,0.0,0,nan,0.0,0.0,0.0,0,3,1,1,1,32,0,0,0
390082752,0,37.455931299999996,126.95419199999999,166.339,184.796,1725535718199610,11141125,0.298,3.1415925,0.92600006,1.2900001,0.51,0.82,68,10,0.044000003,0.043,-0.009000001,-0.15100001,0.0,0,nan,0.0,0.0,0.0,0,3,1,1,1,32,0,0,0
390185889,0,37.455931199999995,126.95419199999999,166.364,184.821,1725535718299610,11141125,0.326,2.8756688,0.92600006,1.2900001,0.51,0.82,68,10,0.108,-0.106000006,0.021000002,-0.192,0.0,0,nan,0.0,0.0,0.0,0,3,1,1,1,32,0,0,0
390284808,0,37.4559311,126.95419199999999,166.373,184.83,1725535718399610,11141125,0.31800002,3.1415925,0.92700005,1.2900001,0.51,0.82,68,10,0.059000004,-0.030000001,0.051000003,-0.23700002,0.0,0,nan,0.0,0.0,0.0,0,3,1,1,1,32,0,0,0
390382783,0,37.4559311,126.9541921,166.41,184.867,1725535718499610,11141125,0.32000002,3.1415925,0.92700005,1.2900001,0.51,0.82,68,10,0.082,0.038000003,0.07300001,-0.158,0.0,0,nan,0.0,0.0,0.0,0,3,1,1,1,32,0,0,0
390483783,0,37.455931199999995,126.9541921,166.442,184.899,1725535718599610,11141125,0.31500003,3.1415925,0.92800003,1.291,0.51,0.82,68,10,0.058000002,0.025,0.052,-0.20400001,0.0,0,nan,0.0,0.0,0.0,0,3,1,1,1,32,0,0,0
390585783,0,37.455931199999995,126.9541921,166.476,184.933,1725535718699610,11141125,0.312,3.1415925,0.92800003,1.291,0.51,0.82,68,10,0.044000003,-0.013,0.042000003,-0.224,0.0,0,nan,0.0,0.0,0.0,0,3,1,1,1,32,0,0,0
390684783,0,37.455931199999995,126.9541921,166.50300000000001,184.959,1725535718799610,11141125,0.31,3.1415925,0.92800003,1.291,0.51,0.82,68,10,0.05,0.037,0.033,-0.29900002,0.0,0,nan,0.0,0.0,0.0,0,3,1,1,1,32,0,0,0
390786946,0,37.455931199999995,126.9541921,166.534,184.99,1725535718899610,11141125,0.30900002,3.1415925,0.929,1.292,0.51,0.82,68,10,0.041,0.041,0.001,-0.354,0.0,0,nan,0.0,0.0,0.0,0,3,1,1,1,32,0,0,0
390893782,0,37.455931199999995,126.9541922,166.561,185.018,1725535718999611,11141125,0.31500003,3.1415925,0.929,1.2930001,0.51,0.82,68,14,0.07,0.053000003,0.046000004,-0.323,0.0,0,nan,0.0,0.0,0.0,0,3,1,1,1,32,0,0,0
390989811,0,37.455931199999995,126.9541922,166.611,185.068,1725535719099610,11141125,0.324,3.1415925,0.93000007,1.2930001,0.51,0.82,68,14,0.09,-0.076000005,0.048,-0.48000002,0.0,0,nan,0.0,0.0,0.0,0,3,1,1,1,32,0,0,0
391084784,0,37.4559311,126.9541921,166.673,185.13,1725535719199610,11141125,0.30800003,3.1415925,0.93000007,1.294,0.51,0.82,68,14,0.094000004,-0.045,-0.082,-0.518,0.0,0,nan,0.0,0.0,0.0,0,3,1,1,1,32,0,0,0
391180785,0,37.455931,126.95419199999999,166.742,185.199,1725535719299610,11141125,0.307,2.455606,0.93100005,1.2950001,0.51,0.82,68,14,0.156,-0.09200001,-0.126,-0.587,0.0,0,nan,0.0,0.0,0.0,0,3,1,1,1,32,0,0,0
391282027,0,37.455931,126.9541919,166.806,185.263,1725535719399610,11141125,0.307,3.1415925,0.93100005,1.296,0.51,0.82,68,14,0.066,0.026,-0.060000002,-0.674,0.0,0,nan,0.0,0.0,0.0,0,3,1,1,1,32,0,0,0
391383783,0,37.455931,126.9541917,166.893,185.34900000000002,1725535719499610,11141125,0.298,1.4959509,0.93200004,1.296,0.51,0.82,68,14,0.24300002,0.034,-0.24000001,-0.785,0.0,0,nan,0.0,0.0,0.0,0,3,1,1,1,32,0,0,0
391484783,0,37.455931,126.9541914,166.974,185.431,1725535719599610,11141125,0.29700002,1.3058978,0.93200004,1.296,0.51,0.82,68,14,0.273,0.049000002,-0.268,-0.87500006,0.0,0,nan,0.0,0.0,0.0,0,3,1,1,1,32,0,0,0
391582783,0,37.4559311,126.95419109999999,167.059,185.51500000000001,1725535719699610,11141125,0.29900002,1.2607843,0.933,1.297,0.51,0.82,68,14,0.28100002,0.085,-0.26700002,-0.887,0.0,0,nan,0.0,0.0,0.0,0,3,1,1,1,32,0,0,0
391678783,0,37.4559311,126.95419079999999,167.161,185.618,1725535719799610,11141125,0.3,1.6526954,0.933,1.2980001,0.51,0.82,68,14,0.22200002,0.0050000004,-0.22200002,-0.94100004,0.0,0,nan,0.0,0.0,0.0,0,3,1,1,1,32,0,0,0
391779141,0,37.4559311,126.9541905,167.272,185.729,1725535719899609,11141125,0.30100003,1.6545931,0.933,1.2980001,0.51,0.82,68,14,0.22700001,-0.042000003,-0.223,-0.938,0.0,0,nan,0.0,0.0,0.0,0,3,1,1,1,32,0,0,0
391887970,0,37.455931,126.9541903,167.358,185.815,1725535719999610,11141125,0.30400002,2.6038,0.934,1.299,0.51,0.82,67,9,0.147,-0.027,-0.14400001,-0.93000007,0.0,0,nan,0.0,0.0,0.0,0,3,1,1,1,32,0,0,0
391985781,0,37.455931,126.9541902,167.483,185.94,1725535720099609,11141125,0.31300002,3.1415925,0.934,1.3000001,0.51,0.82,67,9,0.071,-0.062000003,-0.036000002,-0.97300005,0.0,0,nan,0.0,0.0,0.0,0,3,1,1,1,32,0,0,0
392078783,0,37.455931,126.9541902,167.589,186.046,1725535720199609,11141125,0.31500003,3.1415925,0.93500006,1.3000001,0.51,0.82,67,9,0.027,-0.025,0.008,-0.96000004,0.0,0,nan,0.0,0.0,0.0,0,3,1,1,1,32,0,0,0
392178783,0,37.4559309,126.9541902,167.677,186.13400000000001,1725535720299609,11141125,0.32000002,2.997988,0.93500006,1.3010001,0.51,0.82,67,9,0.126,0.016,0.125,-0.93900007,0.0,0,nan,0.0,0.0,0.0,0,3,1,1,1,32,0,0,0
392280848,0,37.455931,126.95419039999999,167.77,186.227,1725535720399609,11141125,0.321,1.9843109,0.93600005,1.302,0.51,0.82,67,9,0.193,0.055000003,0.185,-0.95800006,0.0,0,nan,0.0,0.0,0.0,0,3,1,1,1,32,0,0,0
392378782,0,37.4559309,126.95419059999999,167.882,186.339,1725535720499609,11141125,0.32200003,2.6508884,0.93600005,1.3030001,0.51,0.82,67,9,0.13100001,-0.066,0.113000005,-1.0150001,0.0,0,nan,0.0,0.0,0.0,0,3,1,1,1,32,0,0,0
392481851,0,37.4559309,126.9541907,167.983,186.439,1725535720599609,11141125,0.31800002,2.546004,0.93600005,1.3030001,0.51,0.82,67,9,0.143,0.040000003,0.13700001,-1.0430001,0.0,0,nan,0.0,0.0,0.0,0,3,1,1,1,32,0,0,0
392581790,0,37.4559309,126.95419079999999,168.082,186.53900000000002,1725535720699609,11141125,0.312,3.1415925,0.93700004,1.304,0.51,0.82,67,9,0.05,0.05,0.0050000004,-0.9760001,0.0,0,nan,0.0,0.0,0.0,0,3,1,1,1,32,0,0,0
392683819,0,37.455931,126.9541907,168.189,186.645,1725535720799609,11141125,0.30600002,1.8490744,0.93700004,1.304,0.51,0.82,67,9,0.177,0.141,-0.10700001,-1.0400001,0.0,0,nan,0.0,0.0,0.0,0,3,1,1,1,32,0,0,0
392783988,0,37.4559311,126.9541905,168.306,186.763,1725535720899609,11141125,0.305,1.8555422,0.93700004,1.304,0.51,0.82,67,9,0.178,0.132,-0.120000005,-1.11,0.0,0,nan,0.0,0.0,0.0,0,3,1,1,1,32,0,0,0
392894786,0,37.455931199999995,126.9541903,168.417,186.874,1725535720999610,11141125,0.303,1.8757541,0.938,1.3050001,0.51,0.82,67,14,0.18400002,0.095000006,-0.158,-1.097,0.0,0,nan,0.0,0.0,0.0,0,3,1,1,1,32,0,0,0
392984132,0,37.455931299999996,126.95419009999999,168.536,186.993,1725535721099609,11141125,0.30200002,1.7013572,0.938,1.3050001,0.51,0.82,67,14,0.20300001,0.067,-0.192,-1.1120001,0.0,0,nan,0.0,0.0,0.0,0,3,1,1,1,32,0,0,0
393080803,0,37.4559314,126.95418989999999,168.649,187.106,1725535721199609,11141125,0.30200002,1.3147157,0.938,1.3060001,0.51,0.82,67,14,0.26500002,0.09200001,-0.24900001,-1.1700001,0.0,0,nan,0.0,0.0,0.0,0,3,1,1,1,32,0,0,0
393181785,0,37.4559315,126.95418959999999,168.758,187.215,1725535721299609,11141125,0.30100003,1.2183297,0.938,1.3060001,0.51,0.82,67,14,0.287,0.115,-0.263,-1.1420001,0.0,0,nan,0.0,0.0,0.0,0,3,1,1,1,31,0,0,0
393280806,0,37.4559316,126.95418919999999,168.889,187.346,1725535721399609,11141125,0.303,1.3842067,0.93900007,1.307,0.52,0.83,67,14,0.25500003,0.091000006,-0.23900001,-1.1290001,0.0,0,nan,0.0,0.0,0.0,0,3,1,1,1,31,0,0,0
393382784,0,37.4559317,126.954189,168.997,187.454,1725535721499609,11141125,0.307,1.6013814,0.93900007,1.3080001,0.52,0.83,67,14,0.20300001,0.16000001,-0.126,-1.097,0.0,0,nan,0.0,0.0,0.0,0,3,1,1,1,31,0,0,0
393482784,0,37.455931899999996,126.95418889999999,169.106,187.56300000000002,1725535721599609,11141125,0.30900002,2.6846488,0.93900007,1.3080001,0.52,0.83,67,14,0.120000005,0.098000005,-0.069000006,-1.028,0.0,0,nan,0.0,0.0,0.0,0,3,1,1,1,31,0,0,0
393581784,0,37.455932,126.9541888,169.211,187.668,1725535721699609,11141125,0.30600002,1.6127753,0.94000006,1.309,0.52,0.83,67,14,0.202,0.16000001,-0.123,-0.99000007,0.0,0,nan,0.0,0.0,0.0,0,3,1,1,1,31,0,0,0
393684832,0,37.4559322,126.95418869999999,169.332,187.78900000000002,1725535721799609,11141125,0.30800003,2.7484646,0.94000006,1.309,0.52,0.83,67,14,0.116000004,0.10300001,-0.053000003,-0.99600005,0.0,0,nan,0.0,0.0,0.0,0,3,1,1,1,31,0,0,0
393783360,0,37.4559323,126.9541886,169.422,187.879,1725535721899609,11141125,0.30600002,2.084489,0.94000006,1.3100001,0.52,0.83,67,14,0.15200001,0.136,-0.066,-0.901,0.0,0,nan,0.0,0.0,0.0,0,3,1,1,1,31,0,0,0
393892147,0,37.455932499999996,126.9541885,169.52100000000002,187.978,1725535721999610,11141125,0.305,1.5688331,0.94100004,1.3100001,0.52,0.83,67,12,0.201,0.187,-0.074,-0.99000007,0.0,0,nan,0.0,0.0,0.0,0,3,1,1,1,31,0,0,0
393983783,0,37.4559326,126.9541885,169.632,188.089,1725535722099609,11141125,0.314,3.1415925,0.94100004,1.3110001,0.52,0.83,67,12,0.080000006,0.015000001,0.078,-0.90000004,0.0,0,nan,0.0,0.0,0.0,0,3,1,1,1,31,0,0,0
394080100,0,37.4559327,126.9541885,169.713,188.17000000000002,1725535722199609,11141125,0.31100002,1.8022794,0.94100004,1.3110001,0.52,0.83,67,12,0.185,0.17500001,0.062000003,-0.86200005,0.0,0,nan,0.0,0.0,0.0,0,3,1,1,1,31,0,0,0
394181811,0,37.4559329,126.9541886,169.803,188.26,1725535722299609,11141125,0.314,2.3790646,0.94100004,1.312,0.52,0.83,67,12,0.15200001,0.105000004,0.11100001,-0.83300006,0.0,0,nan,0.0,0.0,0.0,0,3,1,1,1,31,0,0,0
394282826,0,37.455933,126.95418869999999,169.904,188.361,1725535722399609,11141125,0.314,2.011912,0.94200003,1.312,0.52,0.83,67,12,0.17600001,0.136,0.112,-0.78300005,0.0,0,nan,0.0,0.0,0.0,0,3,1,1,1,31,0,0,0
394385784,0,37.4559332,126.9541888,169.999,188.45600000000002,1725535722499609,11141125,0.31500003,1.7050809,0.94200003,1.312,0.52,0.83,67,12,0.209,0.163,0.13100001,-0.74700004,0.0,0,nan,0.0,0.0,0.0,0,3,1,1,1,31,0,0,0
394483030,0,37.4559334,126.95418889999999,170.065,188.522,1725535722599608,11141125,0.31300002,1.3425277,0.94200003,1.3130001,0.52,0.83,67,12,0.25,0.24000001,0.071,-0.76600003,0.0,0,nan,0.0,0.0,0.0,0,3,1,1,1,31,0,0,0
394585005,0,37.455933699999996,126.954189,170.163,188.619,1725535722699608,11141125,0.312,1.8036323,0.94200003,1.3130001,0.52,0.83,67,12,0.18,0.179,0.024,-0.77900004,0.0,0,nan,0.0,0.0,0.0,0,3,1,1,1,31,0,0,0
394682784,0,37.4559338,126.954189,170.248,188.705,1725535722799608,11141125,0.314,2.312873,0.943,1.314,0.52,0.83,67,12,0.148,0.133,0.064,-0.717,0.0,0,nan,0.0,0.0,0.0,0,3,1,1,1,31,0,0,0
394782827,0,37.455934,126.9541891,170.328,188.785,1725535722899608,11141125,0.31500003,1.4552331,0.943,1.314,0.52,0.83,67,12,0.23200001,0.21800001,0.078,-0.73200005,0.0,0,nan,0.0,0.0,0.0,0,3,1,1,1,31,0,0,0
394887782,0,37.4559342,126.9541893,170.393,188.84900000000002,1725535722999609,11141125,0.32000002,1.3280498,0.943,1.315,0.52,0.83,67,13,0.268,0.2,0.179,-0.70400006,0.0,0,nan,0.0,0.0,0.0,0,3,1,1,1,31,0,0,0
394980786,0,37.4559344,126.95418939999999,170.479,188.936,1725535723099608,11141125,0.31500003,2.4073536,0.943,1.315,0.52,0.83,67,13,0.14600001,0.123,0.078,-0.64900005,0.0,0,nan,0.0,0.0,0.0,0,3,1,1,1,31,0,0,0
395082783,0,37.4559345,126.9541895,170.52100000000002,188.978,1725535723199608,11141125,0.321,1.7949688,0.94400007,1.315,0.52,0.83,67,13,0.20700002,0.09900001,0.18100001,-0.573,0.0,0,nan,0.0,0.0,0.0,0,3,1,1,1,31,0,0,0
395182832,0,37.4559346,126.9541898,170.547,189.004,1725535723299608,11141125,0.323,1.3380371,0.94400007,1.3160001,0.52,0.83,67,13,0.27600002,0.16100001,0.22500001,-0.476,0.0,0,nan,0.0,0.0,0.0,0,3,1,1,1,31,0,0,0
395281814,0,37.4559348,126.95419,170.584,189.041,1725535723399608,11141125,0.32700002,1.4978126,0.94400007,1.3160001,0.52,0.83,67,13,0.24900001,0.116000004,0.22100002,-0.24800001,0.0,0,nan,0.0,0.0,0.0,0,3,1,1,1,31,0,0,0
395378855,0,37.455934899999995,126.9541903,170.597,189.054,1725535723499608,11141125,0.335,1.3570776,0.94400007,1.3160001,0.52,0.83,67,13,0.27100003,0.004,0.27,-0.141,0.0,0,nan,0.0,0.0,0.0,0,3,1,1,1,31,0,0,0
395479063,0,37.455934899999995,126.95419059999999,170.59300000000002,189.05,1725535723599608,11141125,0.33100003,1.3952746,0.94400007,1.317,0.52,0.83,67,13,0.254,-0.047000002,0.25,0.026,0.0,0,nan,0.0,0.0,0.0,0,3,1,1,1,31,0,0,0
395580782,0,37.4559348,126.95419079999999,170.589,189.04500000000002,1725535723699608,11141125,0.33200002,1.2893878,0.94500005,1.3180001,0.52,0.83,67,13,0.256,-0.171,0.19000001,0.187,0.0,0,nan,0.0,0.0,0.0,0,3,1,1,1,31,0,0,0
395679892,0,37.4559347,126.9541909,170.582,189.038,1725535723799608,11141125,0.342,1.5039108,0.94500005,1.3180001,0.52,0.83,67,13,0.224,-0.224,0.001,0.202,0.0,0,nan,0.0,0.0,0.0,0,3,1,1,1,31,0,0,0
395778846,0,37.4559345,126.95419079999999,170.56900000000002,189.026,1725535723899608,11141125,0.33900002,1.4386067,0.94500005,1.319,0.52,0.83,67,13,0.25,-0.19000001,-0.162,0.108,0.0,0,nan,0.0,0.0,0.0,0,3,1,1,1,31,0,0,0
395886783,0,37.455934299999996,126.9541905,170.57,189.026,1725535723999609,11141125,0.33800003,0.9097822,0.94600004,1.319,0.52,0.83,67,10,0.40300003,-0.25800002,-0.30900002,-0.040000003,0.0,0,nan,0.0,0.0,0.0,0,3,1,1,1,31,0,0,0
395983782,0,37.455934,126.95419009999999,170.578,189.035,1725535724099608,11141125,0.337,0.6933987,0.94600004,1.32,0.52,0.83,67,10,0.517,-0.40100002,-0.32700002,-0.123,3.8247867,0,nan,0.0,0.0,0.0,0,3,1,1,1,32,0,0,0
396080784,0,37.4559336,126.9541897,170.583,189.04,1725535724199608,11141125,0.323,0.5651322,0.94600004,1.32,0.51,0.82,67,10,0.64100003,-0.44900003,-0.45800003,-0.133,3.937278,0,nan,0.0,0.0,0.0,0,3,1,1,1,32,0,0,0
396180789,0,37.4559332,126.9541891,170.603,189.06,1725535724299608,11141125,0.33,0.48360854,0.94600004,1.3210001,0.51,0.82,67,10,0.74500006,-0.565,-0.485,-0.102000006,3.8509405,0,nan,0.0,0.0,0.0,0,3,1,1,1,32,0,0,0
396282783,0,37.4559327,126.9541886,170.622,189.079,1725535724399608,11141125,0.333,0.45874792,0.94600004,1.3210001,0.51,0.82,67,10,0.80200005,-0.638,-0.48600003,-0.113000005,3.7926502,0,nan,0.0,0.0,0.0,0,3,1,1,1,32,0,0,0
396383783,0,37.4559321,126.95418799999999,170.64000000000001,189.097,1725535724499608,11141125,0.33900002,0.44445664,0.947,1.322,0.51,0.82,67,10,0.82100004,-0.67200005,-0.47100002,-0.155,3.7532299,0,nan,0.0,0.0,0.0,0,3,1,1,1,32,0,0,0
396482785,0,37.4559314,126.9541874,170.675,189.132,1725535724599608,11141125,0.33900002,0.3525417,0.947,1.3230001,0.51,0.82,67,10,1.0320001,-0.84300005,-0.595,-0.171,3.7560124,0,nan,0.0,0.0,0.0,0,3,1,1,1,32,0,0,0
396582847,0,37.455930699999996,126.9541866,170.687,189.143,1725535724699608,11141125,0.33600003,0.35830718,0.947,1.3240001,0.51,0.82,67,10,1.021,-0.73700005,-0.70600003,-0.158,3.9051175,0,nan,0.0,0.0,0.0,0,3,1,1,1,32,0,0,0
396677794,0,37.455929999999995,126.9541859,170.70000000000002,189.157,1725535724799608,11141125,0.35900003,0.33691835,0.9480001,1.325,0.51,0.82,67,10,1.116,-0.859,-0.71300006,-0.192,3.8344002,0,nan,0.0,0.0,0.0,0,3,1,1,1,32,0,0,0
396777783,0,37.4559293,126.954185,170.708,189.16400000000002,1725535724899608,11141125,0.36200002,0.33819488,0.9480001,1.327,0.51,0.82,67,10,1.123,-0.77800006,-0.81100005,-0.20500001,3.947917,0,nan,0.0,0.0,0.0,0,3,1,1,1,32,0,0,0
396885783,0,37.4559286,126.954184,170.722,189.178,1725535724999609,11141125,0.35500002,0.32582188,0.94900006,1.3280001,0.51,0.82,67,8,1.1830001,-0.76000005,-0.906,-0.16100001,4.0141807,0,nan,0.0,0.0,0.0,0,3,1,1,1,32,0,0,0
396981844,0,37.4559279,126.9541831,170.733,189.189,1725535725099608,11141125,0.35900003,0.31565973,0.94900006,1.33,0.51,0.82,67,8,1.2080001,-0.859,-0.84900004,-0.094000004,3.9215498,0,nan,0.0,0.0,0.0,0,3,1,1,1,32,0,0,0
397080783,0,37.4559271,126.95418199999999,170.732,189.189,1725535725199607,11141125,0.35500002,0.28277335,0.95000005,1.3310001,0.51,0.82,67,8,1.3670001,-0.83300006,-1.0830001,-0.081,4.057032,0,nan,0.0,0.0,0.0,0,3,1,1,1,32,0,0,0
397179782,0,37.455926399999996,126.9541807,170.751,189.207,1725535725299607,11141125,0.35300002,0.29147416,0.95100003,1.332,0.51,0.82,67,8,1.343,-0.754,-1.1110001,-0.16700001,4.115665,0,nan,0.0,0.0,0.0,0,3,1,1,1,32,0,0,0
397280786,0,37.4559257,126.9541794,170.766,189.223,1725535725399607,11141125,0.35200003,0.2584021,0.95100003,1.3330001,0.51,0.82,67,8,1.4840001,-0.813,-1.241,-0.147,4.1327453,0,nan,0.0,0.0,0.0,0,3,1,1,1,32,0,0,0
397380809,0,37.455925,126.95417789999999,170.768,189.225,1725535725499607,11141125,0.35700002,0.23748676,0.952,1.3340001,0.51,0.82,67,8,1.5890001,-0.702,-1.4260001,-0.09,4.255048,0,nan,0.0,0.0,0.0,0,3,1,1,1,32,0,0,0
397479126,0,37.4559244,126.9541761,170.77,189.227,1725535725599607,11141125,0.36100003,0.21275215,0.952,1.3360001,0.51,0.82,67,8,1.7750001,-0.688,-1.6370001,0.009000001,4.3143845,0,nan,0.0,0.0,0.0,0,3,1,1,1,32,0,0,0
397579782,0,37.455923899999995,126.9541742,170.776,189.233,1725535725699607,11141125,0.36400002,0.20936514,0.95300007,1.337,0.51,0.82,67,8,1.8060001,-0.558,-1.7170001,-0.048,4.398131,0,nan,0.0,0.0,0.0,0,3,1,1,1,32,0,0,0
397678782,0,37.455923399999996,126.95417219999999,170.787,189.244,1725535725799607,11141125,0.36900002,0.1936401,0.95300007,1.338,0.51,0.82,67,8,1.95,-0.58500004,-1.8610001,-0.008,4.407842,0,nan,0.0,0.0,0.0,0,3,1,1,1,32,0,0,0
397779807,0,37.4559229,126.9541701,170.808,189.26500000000001,1725535725899607,11141125,0.372,0.19875023,0.95400006,1.34,0.51,0.82,67,8,1.9620001,-0.467,-1.9060001,-0.12200001,4.4719744,0,nan,0.0,0.0,0.0,0,3,1,1,1,32,0,0,0
397886798,0,37.4559226,126.954168,170.815,189.27100000000002,1725535725999608,11141125,0.36800003,0.20779017,0.95500004,1.3410001,0.51,0.82,67,9,1.8550001,-0.277,-1.835,-0.087000005,4.5627937,0,nan,0.0,0.0,0.0,0,3,1,1,1,32,0,0,0
397981790,0,37.4559224,126.95416589999999,170.835,189.292,1725535726099607,11141125,0.367,0.20460373,0.95500004,1.342,0.51,0.82,67,9,1.8980001,-0.216,-1.8850001,-0.072000004,4.5984797,0,nan,0.0,0.0,0.0,0,3,1,1,1,32,0,0,0
398079783,0,37.4559223,126.9541637,170.85,189.306,1725535726199607,11141125,0.36600003,0.19781195,0.95600003,1.343,0.51,0.82,67,9,1.9410001,-0.065000005,-1.94,-0.062000003,4.67874,0,nan,0.0,0.0,0.0,0,3,1,1,1,32,0,0,0
398180055,0,37.4559223,126.95416159999999,170.857,189.314,1725535726299607,11141125,0.36800003,0.20346281,0.95600003,1.3440001,0.51,0.82,67,9,1.7980001,0.051000003,-1.797,-0.056,4.7408314,0,nan,0.0,0.0,0.0,0,3,1,1,1,32,0,0,0
398280868,0,37.4559224,126.95415969999999,170.852,189.309,1725535726399607,11141125,0.379,0.2193671,0.957,1.3460001,0.51,0.82,67,9,1.6860001,0.19800001,-1.674,0.003,4.830128,0,nan,0.0,0.0,0.0,0,3,1,1,1,32,0,0,0
398379786,0,37.4559226,126.95415779999999,170.851,189.30700000000002,1725535726499607,11141125,0.365,0.19959672,0.957,1.3470001,0.51,0.82,67,9,1.766,0.33400002,-1.7340001,-0.011000001,4.902927,0,nan,0.0,0.0,0.0,0,3,1,1,1,32,0,0,0
398478783,0,37.455923,126.954156,170.841,189.298,1725535726599607,11141125,0.367,0.21762057,0.957,1.348,0.51,0.82,67,9,1.6330001,0.441,-1.5730001,-0.016,4.986096,0,nan,0.0,0.0,0.0,0,3,1,1,1,32,0,0,0
398579820,0,37.4559235,126.95415419999999,170.847,189.304,1725535726699607,11141125,0.372,0.21318759,0.957,1.35,0.51,0.82,67,9,1.6570001,0.60800004,-1.5410001,-0.017,5.087973,0,nan,0.0,0.0,0.0,0,3,1,1,1,32,0,0,0
398680799,0,37.455923999999996,126.95415249999999,170.842,189.298,1725535726799607,11141125,0.37800002,0.20592284,0.957,1.3510001,0.51,0.82,67,9,1.7270001,0.634,-1.6070001,-0.007,5.088385,0,nan,0.0,0.0,0.0,0,3,1,1,1,32,0,0,0
398780811,0,37.4559247,126.9541508,170.85,189.30700000000002,1725535726899607,11141125,0.37100002,0.21069545,0.957,1.3510001,0.51,0.82,67,9,1.664,0.717,-1.501,-0.075,5.157771,0,nan,0.0,0.0,0.0,0,3,1,1,1,32,0,0,0
398888783,0,37.4559254,126.9541491,170.864,189.321,1725535726999608,11141125,0.381,0.19797026,0.95800006,1.3520001,0.51,0.82,67,11,1.756,0.90900004,-1.503,-0.09900001,5.256445,0,nan,0.0,0.0,0.0,0,3,1,1,1,32,0,0,0
398982803,0,37.4559262,126.9541474,170.867,189.324,1725535727099607,11141125,0.38200003,0.19741331,0.95800006,1.3520001,0.51,0.82,67,11,1.748,0.943,-1.4720001,-0.104,5.2821274,0,nan,0.0,0.0,0.0,0,3,1,1,1,32,0,0,0
399079782,0,37.4559271,126.95414579999999,170.885,189.341,1725535727199607,11141125,0.38500002,0.19134864,0.95800006,1.353,0.51,0.82,67,11,1.7620001,1.016,-1.439,-0.053000003,5.327023,0,nan,0.0,0.0,0.0,0,3,1,1,1,32,0,0,0
399179808,0,37.455928,126.9541443,170.883,189.34,1725535727299607,11141125,0.381,0.20798232,0.95800006,1.3540001,0.51,0.82,67,11,1.6070001,0.95400006,-1.2930001,-0.004,5.348284,0,nan,0.0,0.0,0.0,0,3,1,1,1,32,0,0,0
399278783,0,37.455928899999996,126.9541429,170.875,189.33100000000002,1725535727399607,11141125,0.381,0.21388607,0.95800006,1.355,0.51,0.82,67,11,1.5870001,1.0400001,-1.199,0.029000001,5.426862,0,nan,0.0,0.0,0.0,0,3,1,1,1,32,0,0,0
399377782,0,37.4559298,126.9541416,170.888,189.344,1725535727499607,11141125,0.38200003,0.20868675,0.95900005,1.3560001,0.51,0.82,67,11,1.5710001,1.097,-1.1240001,0.023000002,5.485465,0,nan,0.0,0.0,0.0,0,3,1,1,1,32,0,0,0
399478055,0,37.4559308,126.9541404,170.901,189.357,1725535727599607,11141125,0.384,0.20975873,0.95900005,1.3560001,0.51,0.82,67,11,1.565,1.1450001,-1.067,-0.038000003,5.532893,0,nan,0.0,0.0,0.0,0,3,1,1,1,32,0,0,0
399579786,0,37.455931899999996,126.9541393,170.903,189.359,1725535727699607,11141125,0.38500002,0.20959485,0.95900005,1.3570001,0.51,0.82,67,11,1.5480001,1.2110001,-0.96400005,-0.057000004,5.610926,0,nan,0.0,0.0,0.0,0,3,1,1,1,32,0,0,0
399678786,0,37.4559329,126.9541383,170.91400000000002,189.371,1725535727799607,11141125,0.37600002,0.22402452,0.95900005,1.358,0.51,0.82,67,11,1.442,1.172,-0.84000003,-0.05,5.6614146,0,nan,0.0,0.0,0.0,0,3,1,1,1,32,0,0,0
399778793,0,37.4559341,126.9541376,170.921,189.37800000000001,1725535727899606,11141125,0.38200003,0.21831694,0.95900005,1.358,0.51,0.82,67,11,1.4660001,1.33,-0.615,-0.09,5.849982,0,nan,0.0,0.0,0.0,0,3,1,1,1,32,0,0,0
399885783,0,37.4559353,126.95413699999999,170.92600000000002,189.382,1725535727999607,11141125,0.38500002,0.23485847,0.95900005,1.3590001,0.51,0.82,67,13,1.3540001,1.2870001,-0.423,-0.041,5.9653172,0,nan,0.0,0.0,0.0,0,3,1,1,1,32,0,0,0
399978783,0,37.4559364,126.9541366,170.916,189.373,1725535728099606,11141125,0.38500002,0.23408252,0.95900005,1.36,0.51,0.82,67,13,1.358,1.3100001,-0.35700002,-0.044000003,6.0173607,0,nan,0.0,0.0,0.0,0,3,1,1,1,32,0,0,0
400078784,0,37.4559376,126.95413629999999,170.92000000000002,189.376,1725535728199606,11141125,0.37500003,0.23960716,0.95900005,1.36,0.51,0.82,67,13,1.3310001,1.315,-0.20500001,-0.083000004,6.12822,0,nan,0.0,0.0,0.0,0,3,1,1,1,32,0,0,0
400178786,0,37.4559387,126.9541362,170.936,189.392,1725535728299606,11141125,0.36800003,0.2640449,0.95900005,1.3610001,0.51,0.82,67,13,1.222,1.2190001,-0.089,-0.080000006,6.210648,0,nan,0.0,0.0,0.0,0,3,1,1,1,32,0,0,0
400277784,0,37.4559399,126.95413629999999,170.942,189.399,1725535728399606,11141125,0.35700002,0.26540488,0.95900005,1.3610001,0.51,0.82,67,13,1.2550001,1.25,0.115,-0.054,0.09172211,0,nan,0.0,0.0,0.0,0,3,1,1,1,32,0,0,0
400377782,0,37.4559409,126.95413649999999,170.94400000000002,189.401,1725535728499606,11141125,0.35200003,0.28150642,0.95800006,1.3620001,0.51,0.82,67,13,1.205,1.1780001,0.25100002,-0.003,0.21024968,0,nan,0.0,0.0,0.0,0,3,1,1,1,32,0,0,0
400478783,0,37.455942,126.9541369,170.942,189.398,1725535728599606,11141125,0.351,0.28524613,0.95800006,1.3620001,0.51,0.82,67,13,1.2,1.159,0.31,0.034,0.26161158,0,nan,0.0,0.0,0.0,0,3,1,1,1,32,0,0,0
400580785,0,37.455943,126.9541373,170.93200000000002,189.388,1725535728699606,11141125,0.34300002,0.28994,0.95800006,1.363,0.51,0.82,67,13,1.1880001,1.1140001,0.41400003,0.127,0.35573822,0,nan,0.0,0.0,0.0,0,3,1,1,1,32,0,0,0
400679787,0,37.4559439,126.95413789999999,170.913,189.369,1725535728799606,11141125,0.33200002,0.31557035,0.95800006,1.363,0.51,0.82,67,13,1.1290001,0.99200004,0.53800005,0.104,0.49658978,0,nan,0.0,0.0,0.0,0,3,1,1,1,32,0,0,0
400778790,0,37.455944699999996,126.9541385,170.913,189.369,1725535728899606,11141125,0.337,0.38752627,0.95800006,1.3640001,0.51,0.82,67,13,0.95800006,0.81500006,0.50200003,0.063,0.55229163,0,nan,0.0,0.0,0.0,0,3,1,1,1,32,0,0,0
400886802,0,37.4559454,126.9541392,170.933,189.39000000000001,1725535728999607,11141125,0.33600003,0.39821115,0.95800006,1.365,0.51,0.82,67,10,0.93600005,0.75600004,0.55200005,-0.108,0.63074225,0,nan,0.0,0.0,0.0,0,3,1,1,1,32,0,0,0
400981783,0,37.455946,126.9541398,170.949,189.406,1725535729099606,11141125,0.333,0.42831373,0.95800006,1.366,0.51,0.82,67,10,0.89400005,0.66200006,0.601,-0.127,0.7370817,0,nan,0.0,0.0,0.0,0,3,1,1,1,32,0,0,0
401078783,0,37.455946499999996,126.95414059999999,170.95000000000002,189.407,1725535729199606,11141125,0.33200002,0.43079662,0.95800006,1.366,0.51,0.82,67,10,0.87600005,0.51900005,0.70600003,-0.098000005,0.93705803,0,nan,0.0,0.0,0.0,0,3,1,1,1,32,0,0,0
401177798,0,37.455946999999995,126.95414149999999,170.969,189.42600000000002,1725535729299606,11141125,0.335,0.435253,0.95800006,1.3670001,0.51,0.82,67,10,0.90900004,0.55,0.72400004,-0.108,0.92063653,0,nan,0.0,0.0,0.0,0,3,1,1,1,32,0,0,0
401279126,0,37.4559473,126.9541423,170.977,189.434,1725535729399606,11141125,0.33800003,0.5036418,0.95900005,1.368,0.51,0.82,67,10,0.79600006,0.29200003,0.74100006,-0.113000005,1.1953676,0,nan,0.0,0.0,0.0,0,3,1,1,1,32,0,0,0
401384216,0,37.4559475,126.95414319999999,170.975,189.43200000000002,1725535729499606,11141125,0.33600003,0.50844055,0.95900005,1.3690001,0.51,0.82,67,10,0.767,0.21700001,0.735,-0.027,1.283338,0,nan,0.0,0.0,0.0,0,3,1,1,1,32,0,0,0
401482819,0,37.455947699999996,126.9541441,170.967,189.424,1725535729599606,11141125,0.33800003,0.45608783,0.95900005,1.3700001,0.51,0.82,67,10,0.86600006,0.13700001,0.855,0.026,1.4118755,0,nan,0.0,0.0,0.0,0,3,1,1,1,32,0,0,0
401583943,0,37.4559478,126.95414509999999,170.959,189.416,1725535729699606,11141125,0.35000002,0.50095344,0.96000004,1.371,0.51,0.82,67,10,0.777,0.067,0.77400005,0.011000001,1.4845606,0,nan,0.0,0.0,0.0,0,3,1,1,1,32,0,0,0
401684915,0,37.4559478,126.954146,170.974,189.43,1725535729799606,11141125,0.35300002,0.47861746,0.96000004,1.3720001,0.51,0.82,67,10,0.80500007,-0.029000001,0.804,-0.006,1.6068769,0,nan,0.0,0.0,0.0,0,3,1,1,1,32,0,0,0
401782782,0,37.4559476,126.9541469,170.967,189.424,1725535729899606,11141125,0.37,0.44836843,0.961,1.373,0.51,0.82,67,10,0.827,-0.224,0.795,0.019000001,1.8458431,0,nan,0.0,0.0,0.0,0,3,1,1,1,32,0,0,0
401890783,0,37.4559474,126.9541478,170.959,189.416,1725535729999607,11141125,0.38000003,0.5040139,0.961,1.3740001,0.51,0.82,67,8,0.73700005,-0.27600002,0.684,0.022000002,1.9540757,0,nan,0.0,0.0,0.0,0,3,1,1,1,32,0,0,0
401988914,0,37.4559472,126.9541486,170.946,189.403,1725535730099606,11141125,0.377,0.4984126,0.9620001,1.3750001,0.51,0.82,67,8,0.73200005,-0.27100003,0.68,0.021000002,1.9502466,0,nan,0.0,0.0,0.0,0,3,1,1,1,32,0,0,0
402077984,0,37.4559468,126.9541493,170.961,189.418,1725535730199606,11141125,0.38700002,0.49117264,0.9620001,1.3750001,0.51,0.82,67,8,0.712,-0.39400002,0.59300005,-0.032,2.1573608,0,nan,0.0,0.0,0.0,0,3,1,1,1,32,0,0,0
402177784,0,37.455946499999996,126.95415,170.96800000000002,189.424,1725535730299606,11141125,0.404,0.45707256,0.96300006,1.376,0.51,0.82,67,8,0.76600003,-0.41200003,0.646,-0.18400002,2.1388156,0,nan,0.0,0.0,0.0,0,3,1,1,1,32,0,0,0
402277783,0,37.4559461,126.9541508,170.977,189.433,1725535730399606,11141125,0.40600002,0.4321311,0.96300006,1.3770001,0.51,0.82,67,8,0.79600006,-0.521,0.601,-0.20700002,2.2843957,0,nan,0.0,0.0,0.0,0,3,1,1,1,32,0,0,0
402378809,0,37.4559456,126.9541514,170.994,189.451,1725535730499606,11141125,0.40100002,0.42373225,0.96400005,1.378,0.51,0.82,67,8,0.80300003,-0.54300004,0.591,-0.11400001,2.3141546,0,nan,0.0,0.0,0.0,0,3,1,1,1,32,0,0,0
402480782,0,37.455945,126.95415209999999,170.992,189.449,1725535730599605,11141125,0.40500003,0.40264273,0.96400005,1.3800001,0.51,0.82,67,8,0.86200005,-0.666,0.54800004,-0.034,2.452721,0,nan,0.0,0.0,0.0,0,3,1,1,1,32,0,0,0
402579785,0,37.4559445,126.9541527,171.001,189.458,1725535730699605,11141125,0.38900003,0.4347622,0.96500003,1.381,0.51,0.82,67,8,0.8,-0.624,0.50200003,0.071,2.4640915,0,nan,0.0,0.0,0.0,0,3,1,1,1,32,0,0,0
402679813,0,37.4559439,126.9541532,171.0,189.45600000000002,1725535730799605,11141125,0.39400002,0.4698009,0.96500003,1.3820001,0.51,0.82,67,8,0.74600005,-0.632,0.397,0.061000004,2.5804605,0,nan,0.0,0.0,0.0,0,3,1,1,1,32,0,0,0
402780786,0,37.4559433,126.95415369999999,170.992,189.449,1725535730899605,11141125,0.409,0.48587504,0.966,1.3840001,0.51,0.82,67,8,0.73800004,-0.634,0.379,0.058000002,2.602753,0,nan,0.0,0.0,0.0,0,3,1,1,1,32,0,0,0
402889825,0,37.4559427,126.95415399999999,170.985,189.442,1725535730999606,11141125,0.388,0.50737816,0.96700007,1.386,0.51,0.82,67,12,0.71300006,-0.688,0.19000001,0.058000002,2.872311,0,nan,0.0,0.0,0.0,0,3,1,1,1,32,0,0,0
402981781,0,37.4559421,126.95415419999999,170.984,189.441,1725535731099605,11141125,0.384,0.4998799,0.96700007,1.3870001,0.51,0.82,67,12,0.71500003,-0.67700005,0.23200001,0.045,2.8108196,0,nan,0.0,0.0,0.0,0,3,1,1,1,32,0,0,0
403080372,0,37.4559415,126.9541544,170.984,189.441,1725535731199605,11141125,0.38000003,0.5602088,0.96800005,1.388,0.51,0.82,67,12,0.65900004,-0.65500003,0.071,-0.014,3.0342894,0,nan,0.0,0.0,0.0,0,3,1,1,1,32,0,0,0
403180783,0,37.4559409,126.9541545,170.992,189.449,1725535731299605,11141125,0.37600002,0.50163186,0.96800005,1.3900001,0.51,0.82,67,12,0.734,-0.73300004,0.046000004,0.009000001,3.0790527,0,nan,0.0,0.0,0.0,0,3,1,1,1,32,0,0,0
403281810,0,37.4559403,126.9541545,171.012,189.469,1725535731399605,11141125,0.37600002,0.5884716,0.96900004,1.391,0.51,0.82,67,12,0.647,-0.642,-0.07700001,-0.086,3.2612503,0,nan,0.0,0.0,0.0,0,3,1,1,1,32,0,0,0
403382783,0,37.4559397,126.9541544,171.02,189.477,1725535731499605,11141125,0.379,0.5985292,0.96900004,1.3920001,0.51,0.82,67,12,0.63600004,-0.633,-0.059000004,-0.12100001,3.2348995,0,nan,0.0,0.0,0.0,0,3,1,1,1,32,0,0,0
403481933,0,37.455939099999995,126.9541543,171.032,189.488,1725535731599605,11141125,0.384,0.6664939,0.97,1.393,0.51,0.82,67,12,0.582,-0.572,-0.11100001,-0.147,3.3340874,0,nan,0.0,0.0,0.0,0,3,1,1,1,32,0,0,0
403583786,0,37.455938599999996,126.9541543,171.03,189.487,1725535731699605,11141125,0.384,0.5997438,0.97,1.394,0.51,0.82,67,12,0.61800003,-0.61700004,-0.014,0.006,3.1636555,0,nan,0.0,0.0,0.0,0,3,1,1,1,32,0,0,0
403682785,0,37.455937999999996,126.95415419999999,171.052,189.50900000000001,1725535731799605,11141125,0.36800003,0.5760283,0.9710001,1.3950001,0.51,0.82,67,12,0.64900005,-0.634,-0.13700001,0.05,3.3536856,0,nan,0.0,0.0,0.0,0,3,1,1,1,32,0,0,0
403780784,0,37.455937399999996,126.9541541,171.053,189.50900000000001,1725535731899605,11141125,0.37,0.5621297,0.9710001,1.3950001,0.51,0.82,67,12,0.67200005,-0.65500003,-0.15200001,0.060000002,3.3697462,0,nan,0.0,0.0,0.0,0,3,1,1,1,32,0,0,0
403887782,0,37.4559369,126.9541538,171.035,189.491,1725535731999606,11141125,0.363,0.6612496,0.97200006,1.396,0.51,0.82,67,13,0.59900004,-0.549,-0.24100001,0.061000004,3.5551505,0,nan,0.0,0.0,0.0,0,3,1,1,1,32,0,0,0
403981826,0,37.4559364,126.9541536,171.038,189.494,1725535732099605,11141125,0.36,0.6643627,0.97300005,1.3970001,0.51,0.82,67,13,0.595,-0.518,-0.29200003,0.054,3.6554756,0,nan,0.0,0.0,0.0,0,3,1,1,1,32,0,0,0
404080783,0,37.4559359,126.9541532,171.04500000000002,189.502,1725535732199605,11141125,0.358,0.6871164,0.97300005,1.3980001,0.51,0.82,67,13,0.57600003,-0.47000003,-0.333,-0.003,3.7573404,0,nan,0.0,0.0,0.0,0,3,1,1,1,32,0,0,0
404181783,0,37.455935499999995,126.95415279999999,171.047,189.504,1725535732299605,11141125,0.35300002,0.6720123,0.97400004,1.399,0.51,0.82,67,13,0.59300005,-0.44900003,-0.388,-0.036000002,3.8538938,0,nan,0.0,0.0,0.0,0,3,1,1,1,32,0,0,0
404283783,0,37.4559351,126.95415249999999,171.062,189.519,1725535732399605,11141125,0.34600002,0.8168917,0.97400004,1.4000001,0.51,0.82,67,13,0.47300002,-0.319,-0.35000002,-0.071,3.7513137,0,nan,0.0,0.0,0.0,0,3,1,1,1,32,0,0,0
404381833,0,37.4559348,126.9541522,171.08100000000002,189.538,1725535732499605,11141125,0.35500002,0.9769654,0.97400004,1.401,0.51,0.82,67,13,0.38900003,-0.34600002,-0.177,-0.14500001,3.7513137,0,nan,0.0,0.0,0.0,0,3,1,1,1,32,0,0,0
404482782,0,37.4559345,126.95415209999999,171.096,189.553,1725535732599605,11141125,0.35200003,1.2755513,0.975,1.401,0.51,0.82,67,13,0.291,-0.27100003,-0.106000006,-0.08400001,3.7513137,0,nan,0.0,0.0,0.0,0,3,1,1,1,32,0,0,0
404583835,0,37.4559342,126.954152,171.098,189.555,1725535732699605,11141125,0.36200002,1.1717544,0.975,1.4020001,0.51,0.82,67,13,0.31300002,-0.30400002,-0.07300001,-0.060000002,3.7513137,0,nan,0.0,0.0,0.0,0,3,1,1,1,32,0,0,0
404681806,0,37.455934,126.954152,171.09,189.547,1725535732799605,11141125,0.35500002,1.3160236,0.975,1.4020001,0.51,0.82,67,13,0.27,-0.266,-0.042000003,0.08800001,3.7513137,0,nan,0.0,0.0,0.0,0,3,1,1,1,32,0,0,0
404779822,0,37.4559338,126.9541519,171.079,189.535,1725535732899605,11141125,0.337,1.6247904,0.975,1.4030001,0.51,0.82,67,13,0.23600002,-0.201,-0.124000005,0.096,3.7513137,0,nan,0.0,0.0,0.0,0,3,1,1,1,32,0,0,0
404889783,0,37.4559336,126.95415179999999,171.071,189.528,1725535732999606,11141125,0.33600003,1.3829291,0.975,1.404,0.51,0.82,67,12,0.289,-0.19000001,-0.21800001,0.082,3.7513137,0,nan,0.0,0.0,0.0,0,3,1,1,1,32,0,0,0
404988781,0,37.4559334,126.95415159999999,171.084,189.541,1725535733099605,11141125,0.337,2.0519204,0.9760001,1.404,0.51,0.82,67,12,0.192,-0.094000004,-0.16800001,0.002,3.7513137,0,nan,0.0,0.0,0.0,0,3,1,1,1,32,0,0,0
405079007,0,37.4559334,126.9541514,171.09300000000002,189.549,1725535733199604,11141125,0.347,1.249921,0.9760001,1.4050001,0.51,0.82,67,12,0.30600002,-0.024,-0.305,-0.075,3.7513137,0,nan,0.0,0.0,0.0,0,3,1,1,1,32,0,0,0
405181782,0,37.4559333,126.954151,171.1,189.55700000000002,1725535733299604,11141125,0.349,1.129086,0.9760001,1.4050001,0.51,0.82,67,12,0.33900002,-0.027,-0.33800003,-0.066,3.7513137,0,nan,0.0,0.0,0.0,0,3,1,1,1,32,0,0,0
405279785,0,37.4559333,126.9541507,171.112,189.56900000000002,1725535733399604,11141125,0.36600003,1.5268471,0.97700006,1.406,0.51,0.82,67,12,0.245,0.043,-0.24200001,-0.039,3.7513137,0,nan,0.0,0.0,0.0,0,3,1,1,1,32,0,0,0
405379784,0,37.4559334,126.95415059999999,171.118,189.574,1725535733499604,11141125,0.33,1.8028109,0.97700006,1.406,0.51,0.82,67,12,0.20400001,0.045,-0.19900002,-0.11400001,3.7513137,0,nan,0.0,0.0,0.0,0,3,1,1,1,32,0,0,0
405481783,0,37.4559334,126.95415039999999,171.131,189.588,1725535733599604,11141125,0.34300002,2.2997837,0.97800004,1.406,0.51,0.82,67,12,0.15200001,0.065000005,-0.13800001,-0.078,3.7513137,0,nan,0.0,0.0,0.0,0,3,1,1,1,32,0,0,0
405579003,0,37.4559334,126.9541503,171.13,189.58700000000002,1725535733699604,11141125,0.36200002,3.1415925,0.97800004,1.406,0.51,0.82,67,12,0.097,0.027,-0.093,-0.011000001,3.7513137,0,nan,0.0,0.0,0.0,0,3,1,1,1,32,0,0,0
405676784,0,37.4559334,126.9541502,171.118,189.574,1725535733799604,11141125,0.356,2.9194236,0.97800004,1.406,0.51,0.82,67,12,0.126,0.019000001,-0.124000005,-0.015000001,3.7513137,0,nan,0.0,0.0,0.0,0,3,1,1,1,32,0,0,0
405777782,0,37.4559335,126.95415009999999,171.115,189.571,1725535733899604,11141125,0.38300002,2.1904995,0.97800004,1.406,0.51,0.82,67,12,0.165,0.032,-0.162,0.052,3.7513137,0,nan,0.0,0.0,0.0,0,3,1,1,1,32,0,0,0
405884794,0,37.4559335,126.95414989999999,171.118,189.57500000000002,1725535733999605,11141125,0.38700002,1.4982405,0.97900003,1.406,0.51,0.82,67,10,0.22900002,0.11000001,-0.201,0.019000001,3.7513137,0,nan,0.0,0.0,0.0,0,3,1,1,1,32,0,0,0
405978783,0,37.455933699999996,126.9541496,171.117,189.574,1725535734099604,11141125,0.4,0.95191246,0.97900003,1.4070001,0.51,0.82,67,10,0.36400002,0.18400002,-0.314,-0.008,3.7513137,0,nan,0.0,0.0,0.0,0,3,1,1,1,32,0,0,0
406078783,0,37.4559338,126.9541493,171.15,189.607,1725535734199604,11141125,0.35300002,0.95042753,0.97900003,1.4070001,0.51,0.82,67,10,0.37500003,0.127,-0.35300002,-0.162,3.7513137,0,nan,0.0,0.0,0.0,0,3,1,1,1,32,0,0,0
406179886,0,37.4559339,126.95414889999999,171.166,189.623,1725535734299604,11141125,0.35900003,0.8327695,0.98,1.4070001,0.51,0.82,67,10,0.423,0.18100001,-0.38200003,-0.141,3.7513137,0,nan,0.0,0.0,0.0,0,3,1,1,1,32,0,0,0
406278791,0,37.455934,126.9541486,171.163,189.619,1725535734399604,11141125,0.36200002,1.232726,0.98,1.4080001,0.51,0.82,67,10,0.28500003,0.13000001,-0.25300002,-0.10300001,3.7513137,0,nan,0.0,0.0,0.0,0,3,1,1,1,32,0,0,0
406379782,0,37.4559341,126.9541484,171.163,189.62,1725535734499604,11141125,0.33400002,1.9484663,0.98100007,1.4080001,0.51,0.82,67,10,0.17500001,0.12100001,-0.127,-0.147,3.7513137,0,nan,0.0,0.0,0.0,0,3,1,1,1,32,0,0,0
406479783,0,37.455934299999996,126.9541484,171.168,189.624,1725535734599604,11141125,0.38300002,1.7420406,0.98100007,1.4080001,0.51,0.82,67,10,0.19700001,0.18200001,-0.076000005,-0.064,3.7513137,0,nan,0.0,0.0,0.0,0,3,1,1,1,32,0,0,0
406580783,0,37.4559344,126.9541483,171.169,189.626,1725535734699604,11141125,0.402,3.1415925,0.98200005,1.4080001,0.51,0.82,67,10,0.085,0.078,-0.033,0.006,3.7513137,0,nan,0.0,0.0,0.0,0,3,1,1,1,32,0,0,0
406680782,0,37.4559345,126.9541483,171.15200000000002,189.608,1725535734799604,11141125,0.38900003,3.0548496,0.98200005,1.4080001,0.51,0.82,67,10,0.11100001,0.089,-0.067,0.09900001,3.7513137,0,nan,0.0,0.0,0.0,0,3,1,1,1,32,0,0,0
406781846,0,37.4559346,126.95414819999999,171.148,189.604,1725535734899604,11141125,0.39800003,1.8358417,0.98200005,1.4080001,0.51,0.82,67,10,0.186,0.147,-0.11400001,-0.011000001,3.7513137,0,nan,0.0,0.0,0.0,0,3,1,1,1,32,0,0,0
406886815,0,37.4559347,126.9541481,171.145,189.602,1725535734999605,11141125,0.39400002,1.9859929,0.98300004,1.4080001,0.51,0.82,67,9,0.17300001,0.119,-0.126,-0.015000001,3.7513137,0,nan,0.0,0.0,0.0,0,3,1,1,1,32,0,0,0
406980783,0,37.455934899999995,126.9541479,171.138,189.595,1725535735099604,11141125,0.397,1.1276802,0.98300004,1.4080001,0.51,0.82,67,9,0.30400002,0.23200001,-0.19600001,0.009000001,3.7513137,0,nan,0.0,0.0,0.0,0,3,1,1,1,32,0,0,0
407078784,0,37.4559351,126.9541477,171.139,189.596,1725535735199604,11141125,0.39200002,1.1033415,0.98300004,1.4080001,0.51,0.82,67,9,0.31100002,0.238,-0.2,-0.011000001,3.7513137,0,nan,0.0,0.0,0.0,0,3,1,1,1,32,0,0,0
407179783,0,37.4559353,126.95414749999999,171.137,189.594,1725535735299604,11141125,0.39600003,0.7823407,0.984,1.4080001,0.51,0.82,67,9,0.43500003,0.32900003,-0.284,-0.069000006,5.5705767,0,nan,0.0,0.0,0.0,0,3,1,1,1,32,0,0,0
407283782,0,37.4559357,126.95414729999999,171.14600000000002,189.603,1725535735399604,11141125,0.388,0.6631137,0.984,1.4080001,0.51,0.82,67,9,0.523,0.49500003,-0.16900001,-0.149,5.9536643,0,nan,0.0,0.0,0.0,0,3,1,1,1,32,0,0,0
407381789,0,37.4559363,126.9541471,171.141,189.598,1725535735499604,11141125,0.39200002,0.5200601,0.9850001,1.4080001,0.51,0.82,67,9,0.67200005,0.652,-0.162,-0.15,6.0399275,0,nan,0.0,0.0,0.0,0,3,1,1,1,32,0,0,0
407480801,0,37.455937,126.95414699999999,171.15800000000002,189.614,1725535735599604,11141125,0.393,0.40948474,0.9850001,1.409,0.51,0.82,67,9,0.874,0.87000006,-0.08800001,-0.087000005,6.182608,0,nan,0.0,0.0,0.0,0,3,1,1,1,32,0,0,0
407579810,0,37.455937899999995,126.95414699999999,171.157,189.614,1725535735699604,11141125,0.39000002,0.32899332,0.98600006,1.409,0.51,0.82,67,9,1.1110001,1.1110001,0.022000002,0.021000002,0.019837238,0,nan,0.0,0.0,0.0,0,3,1,1,1,32,0,0,0
407679071,0,37.455939,126.95414699999999,171.16,189.616,1725535735799604,11141125,0.39800003,0.28658167,0.98600006,1.4100001,0.51,0.82,67,9,1.276,1.276,-0.015000001,0.018000001,6.2717338,0,nan,0.0,0.0,0.0,0,3,1,1,1,32,0,0,0
407778783,0,37.455940399999996,126.9541469,171.156,189.612,1725535735899603,11141125,0.4,0.22095099,0.98700005,1.411,0.51,0.82,67,9,1.6420001,1.641,-0.076000005,-0.012,6.237036,0,nan,0.0,0.0,0.0,0,3,1,1,1,32,0,0,0
407886813,0,37.4559421,126.9541469,171.141,189.598,1725535735999604,11141125,0.39600003,0.18261099,0.98800004,1.411,0.51,0.82,67,14,1.9770001,1.9760001,-0.071,0.003,6.247086,0,nan,0.0,0.0,0.0,0,3,1,1,1,32,0,0,0
407980027,0,37.455943999999995,126.9541467,171.143,189.6,1725535736099603,11141125,0.39100003,0.16564885,0.98800004,1.4120001,0.51,0.82,67,14,2.2020001,2.194,-0.185,-0.030000001,6.198956,0,nan,0.0,0.0,0.0,0,3,1,1,1,32,0,0,0
408077985,0,37.4559461,126.9541465,171.132,189.589,1725535736199603,11141125,0.397,0.14733581,0.989,1.4120001,0.51,0.82,67,14,2.503,2.489,-0.264,0.037,6.1774297,0,nan,0.0,0.0,0.0,0,3,1,1,1,32,0,0,0
408178790,0,37.4559485,126.9541462,171.106,189.562,1725535736299603,11141125,0.4,0.13140932,0.989,1.4120001,0.51,0.82,67,14,2.7610002,2.7440002,-0.30600002,0.11400001,6.172245,0,nan,0.0,0.0,0.0,0,3,1,1,1,32,0,0,0
408276784,0,37.4559512,126.95414579999999,171.09300000000002,189.549,1725535736399603,11141125,0.39900002,0.11539209,0.99000007,1.4130001,0.51,0.82,67,14,3.108,3.0970001,-0.26500002,0.082,6.197915,0,nan,0.0,0.0,0.0,0,3,1,1,1,32,0,0,0
408375791,0,37.4559542,126.9541455,171.097,189.553,1725535736499603,11141125,0.39800003,0.10483913,0.99000007,1.4130001,0.51,0.82,67,14,3.3960001,3.38,-0.335,0.047000002,6.184291,0,nan,0.0,0.0,0.0,0,3,1,1,1,32,0,0,0
408480783,0,37.455957399999996,126.95414509999999,171.092,189.549,1725535736599603,11141125,0.393,0.09529811,0.99100006,1.4120001,0.51,0.82,67,14,3.6980002,3.6810002,-0.354,0.007,6.1874356,0,nan,0.0,0.0,0.0,0,3,1,1,1,32,0,0,0
408582784,0,37.4559609,126.9541448,171.078,189.535,1725535736699603,11141125,0.40100002,0.09045745,0.99100006,1.4120001,0.51,0.82,67,14,3.92,3.9110003,-0.27100003,0.010000001,6.213977,0,nan,0.0,0.0,0.0,0,3,1,1,1,32,0,0,0
408682869,0,37.4559646,126.95414459999999,171.074,189.53,1725535736799603,11141125,0.40100002,0.084171295,0.99200004,1.4120001,0.51,0.82,67,14,4.254,4.2510004,-0.16600001,0.047000002,6.24427,0,nan,0.0,0.0,0.0,0,3,1,1,1,32,0,0,0
408785919,0,37.4559686,126.95414439999999,171.053,189.50900000000001,1725535736899603,11141125,0.397,0.07845935,0.99200004,1.411,0.51,0.82,67,14,4.484,4.48,-0.18900001,0.033,6.2411275,0,nan,0.0,0.0,0.0,0,3,1,1,1,32,0,0,0
408889790,0,37.4559727,126.95414419999999,171.03300000000002,189.489,1725535736999604,11141125,0.395,0.075951144,0.99200004,1.411,0.51,0.82,67,10,4.6400003,4.6390004,-0.101,0.075,6.261434,0,nan,0.0,0.0,0.0,0,3,1,1,1,32,0,0,0
408989782,0,37.455977,126.95414419999999,171.023,189.48,1725535737099603,11141125,0.39100003,0.07296,0.99300003,1.411,0.51,0.82,67,10,4.802,4.802,-0.048,0.055000003,6.2732744,0,nan,0.0,0.0,0.0,0,3,1,1,1,32,0,0,0
409085179,0,37.4559814,126.95414419999999,171.004,189.461,1725535737199603,11141125,0.388,0.07083157,0.99300003,1.411,0.51,0.82,67,10,4.88,4.879,0.094000004,0.061000004,0.019364428,0,nan,0.0,0.0,0.0,0,3,1,1,1,32,0,0,0
409182820,0,37.4559858,126.95414439999999,170.995,189.451,1725535737299603,11141125,0.386,0.070255086,0.99300003,1.411,0.51,0.82,67,10,4.8980002,4.893,0.21200001,0.051000003,0.04322587,0,nan,0.0,0.0,0.0,0,3,1,1,1,32,0,0,0
409280861,0,37.455990199999995,126.9541447,170.99,189.446,1725535737399603,11141125,0.384,0.06979973,0.994,1.411,0.51,0.82,67,10,4.984,4.9740005,0.31100002,0.07700001,0.062486276,0,nan,0.0,0.0,0.0,0,3,1,1,1,32,0,0,0
409380791,0,37.4559948,126.9541452,170.987,189.443,1725535737499603,11141125,0.37800002,0.0678296,0.994,1.411,0.51,0.82,67,10,5.024,5.005,0.432,0.004,0.08608993,0,nan,0.0,0.0,0.0,0,3,1,1,1,32,0,0,0
409479782,0,37.455999299999995,126.95414579999999,170.981,189.437,1725535737599603,11141125,0.37500003,0.06911556,0.994,1.411,0.51,0.82,67,10,4.98,4.9480004,0.56,0.057000004,0.112768866,0,nan,0.0,0.0,0.0,0,3,1,1,1,32,0,0,0
409579784,0,37.4560037,126.9541465,170.964,189.421,1725535737699603,11141125,0.37300003,0.07031477,0.994,1.411,0.51,0.82,67,10,4.9360003,4.8910003,0.669,0.078,0.13585502,0,nan,0.0,0.0,0.0,0,3,1,1,1,32,0,0,0
409679807,0,37.4560081,126.95414729999999,170.966,189.423,1725535737799603,11141125,0.374,0.0701378,0.994,1.411,0.51,0.82,67,10,4.9490004,4.8910003,0.75600004,0.023000002,0.15338181,0,nan,0.0,0.0,0.0,0,3,1,1,1,32,0,0,0
409779783,0,37.4560125,126.9541483,170.974,189.43,1725535737899603,11141125,0.37100002,0.070496984,0.994,1.411,0.51,0.82,67,10,4.9280005,4.841,0.92,-0.027,0.18787718,0,nan,0.0,0.0,0.0,0,3,1,1,1,32,0,0,0
409887801,0,37.4560169,126.9541495,170.963,189.419,1725535737999604,11141125,0.367,0.06929515,0.994,1.411,0.51,0.82,67,8,4.985,4.8760004,1.0370001,-0.014,0.20965452,0,nan,0.0,0.0,0.0,0,3,1,1,1,32,0,0,0
409980807,0,37.456021299999996,126.9541507,170.939,189.39600000000002,1725535738099603,11141125,0.36200002,0.06945974,0.994,1.4100001,0.51,0.82,67,8,4.9960003,4.8760004,1.088,0.009000001,0.21950464,0,nan,0.0,0.0,0.0,0,3,1,1,1,32,0,0,0
410079080,0,37.4560258,126.954152,170.937,189.394,1725535738199603,11141125,0.36600003,0.07008247,0.994,1.409,0.51,0.82,67,8,4.9950004,4.8830004,1.051,-0.049000002,0.21201892,0,nan,0.0,0.0,0.0,0,3,1,1,1,32,0,0,0
410177785,0,37.4560301,126.9541532,170.931,189.388,1725535738299603,11141125,0.363,0.07029662,0.994,1.409,0.51,0.82,67,8,4.947,4.827,1.0830001,-0.064,0.22067785,0,nan,0.0,0.0,0.0,0,3,1,1,1,32,0,0,0
410278784,0,37.4560345,126.9541545,170.927,189.38400000000001,1725535738399603,11141125,0.36200002,0.06998927,0.994,1.4080001,0.51,0.82,67,8,4.9500003,4.814,1.1520001,-0.078,0.23486197,0,nan,0.0,0.0,0.0,0,3,1,1,1,32,0,0,0
410377785,0,37.4560388,126.9541558,170.911,189.368,1725535738499602,11141125,0.36400002,0.07120018,0.994,1.4070001,0.51,0.82,67,8,4.9550004,4.842,1.0550001,0.022000002,0.21450497,0,nan,0.0,0.0,0.0,0,3,1,1,1,32,0,0,0
410478785,0,37.456043199999996,126.954157,170.90800000000002,189.365,1725535738599602,11141125,0.365,0.07017951,0.994,1.4070001,0.51,0.82,67,8,4.9540005,4.8490005,1.0120001,-0.051000003,0.20581165,0,nan,0.0,0.0,0.0,0,3,1,1,1,32,0,0,0
410579783,0,37.4560476,126.9541582,170.89600000000002,189.353,1725535738699602,11141125,0.374,0.071424805,0.994,1.4070001,0.51,0.82,67,8,4.9940004,4.8830004,1.047,-0.021000002,0.21112303,0,nan,0.0,0.0,0.0,0,3,1,1,1,32,0,0,0
410677784,0,37.456052,126.9541593,170.89000000000001,189.346,1725535738799602,11141125,0.36600003,0.071630925,0.994,1.4070001,0.51,0.82,67,8,4.9150004,4.8190002,0.96700007,-0.004,0.19792488,0,nan,0.0,0.0,0.0,0,3,1,1,1,32,0,0,0
410779088,0,37.4560564,126.9541605,170.887,189.344,1725535738899602,11141125,0.36100003,0.06936724,0.994,1.406,0.51,0.82,67,8,5.0360003,4.92,1.0730001,-0.047000002,0.2146706,0,nan,0.0,0.0,0.0,0,3,1,1,1,32,0,0,0
410885784,0,37.456060799999996,126.9541617,170.891,189.347,1725535738999603,11141125,0.363,0.07137838,0.994,1.406,0.51,0.82,67,8,4.947,4.847,0.989,-0.048,0.20130767,0,nan,0.0,0.0,0.0,0,3,1,1,1,32,0,0,0
410977811,0,37.4560651,126.95416279999999,170.876,189.333,1725535739099602,11141125,0.363,0.07193688,0.994,1.406,0.51,0.82,67,8,4.9160004,4.815,0.99200004,0.027,0.20312874,0,nan,0.0,0.0,0.0,0,3,1,1,1,32,0,0,0
411075899,0,37.4560695,126.9541639,170.876,189.332,1725535739199602,11141125,0.36200002,0.07206569,0.994,1.406,0.51,0.82,67,8,4.8690004,4.7720003,0.96700007,-0.012,0.19995016,0,nan,0.0,0.0,0.0,0,3,1,1,1,32,0,0,0
411177916,0,37.4560738,126.9541651,170.871,189.328,1725535739299602,11141125,0.36800003,0.07294272,0.994,1.406,0.51,0.82,67,8,4.8840003,4.78,0.9990001,-0.003,0.20600435,0,nan,0.0,0.0,0.0,0,3,1,1,1,32,0,0,0
411279004,0,37.4560781,126.95416619999999,170.88,189.33700000000002,1725535739399602,11141125,0.367,0.07268737,0.994,1.406,0.51,0.82,67,8,4.887,4.7910004,0.966,-0.046000004,0.19901569,0,nan,0.0,0.0,0.0,0,3,1,1,1,32,0,0,0
411377983,0,37.4560824,126.9541673,170.877,189.333,1725535739499602,11141125,0.367,0.07188679,0.994,1.406,0.51,0.82,67,8,4.886,4.8050003,0.88600004,-0.079,0.18231499,0,nan,0.0,0.0,0.0,0,3,1,1,1,32,0,0,0
411478999,0,37.4560868,126.95416829999999,170.882,189.338,1725535739599602,11141125,0.372,0.07228613,0.99500006,1.406,0.51,0.82,67,8,4.9170003,4.8440003,0.84400004,-0.07,0.17258757,0,nan,0.0,0.0,0.0,0,3,1,1,1,32,0,0,0
411577952,0,37.456091099999995,126.9541692,170.875,189.33100000000002,1725535739699602,11141125,0.36600003,0.073139414,0.99500006,1.406,0.51,0.82,67,8,4.9150004,4.839,0.86100006,-0.061000004,0.17611244,0,nan,0.0,0.0,0.0,0,3,1,1,1,32,0,0,0
411677023,0,37.456095499999996,126.9541702,170.865,189.321,1725535739799602,11141125,0.367,0.07333577,0.99500006,1.406,0.51,0.82,67,8,4.848,4.7710004,0.859,-0.071,0.17819269,0,nan,0.0,0.0,0.0,0,3,1,1,1,32,0,0,0
411777783,0,37.4560998,126.95417119999999,170.853,189.31,1725535739899602,11141125,0.36800003,0.07216744,0.99500006,1.406,0.51,0.82,67,8,4.9410005,4.875,0.808,-0.044000003,0.16423373,0,nan,0.0,0.0,0.0,0,3,1,1,1,32,0,0,0
411884819,0,37.4561042,126.9541721,170.859,189.316,1725535739999603,11141125,0.36900002,0.07321115,0.99500006,1.406,0.51,0.82,67,12,4.86,4.7920003,0.81000006,-0.068,0.16741914,0,nan,0.0,0.0,0.0,0,3,1,1,1,32,0,0,0
411976783,0,37.4561085,126.95417289999999,170.874,189.33100000000002,1725535740099602,11141125,0.36600003,0.07253797,0.99500006,1.406,0.51,0.82,67,12,4.846,4.7840004,0.77300006,-0.089,0.16012278,0,nan,0.0,0.0,0.0,0,3,1,1,1,32,0,0,0
412077072,0,37.4561129,126.95417379999999,170.869,189.32500000000002,1725535740199602,11141125,0.36900002,0.07145465,0.99500006,1.406,0.51,0.82,67,12,4.964,4.899,0.79700005,-0.051000003,0.16127452,0,nan,0.0,0.0,0.0,0,3,1,1,1,32,0,0,0
412177783,0,37.456117299999995,126.9541747,170.87800000000001,189.335,1725535740299602,11141125,0.37100002,0.07237461,0.99500006,1.406,0.51,0.82,67,12,4.9170003,4.859,0.75200003,-0.053000003,0.15351288,0,nan,0.0,0.0,0.0,0,3,1,1,1,32,0,0,0
412278783,0,37.4561217,126.95417549999999,170.875,189.332,1725535740399602,11141125,0.36600003,0.0683251,0.99500006,1.406,0.51,0.82,67,12,4.931,4.8780003,0.717,-0.023000002,0.14588457,0,nan,0.0,0.0,0.0,0,3,1,1,1,32,0,0,0
412378806,0,37.456126,126.9541763,170.867,189.323,1725535740499602,11141125,0.36800003,0.068582885,0.99500006,1.4050001,0.51,0.82,67,12,4.9300003,4.8710003,0.76000005,-0.069000006,0.15472484,0,nan,0.0,0.0,0.0,0,3,1,1,1,32,0,0,0
412477786,0,37.4561304,126.95417719999999,170.865,189.322,1725535740599602,11141125,0.365,0.06931802,0.99500006,1.4050001,0.51,0.82,67,12,4.861,4.8040004,0.739,-0.057000004,0.15267965,0,nan,0.0,0.0,0.0,0,3,1,1,1,32,0,0,0
412580036,0,37.4561348,126.954178,170.865,189.322,1725535740699602,11141125,0.37,0.06935659,0.99500006,1.4050001,0.51,0.82,67,12,4.9550004,4.905,0.69900006,-0.014,0.14163679,0,nan,0.0,0.0,0.0,0,3,1,1,1,32,0,0,0
412679385,0,37.456139199999996,126.9541788,170.869,189.32500000000002,1725535740799602,11141125,0.367,0.06925763,0.99500006,1.404,0.51,0.82,67,12,4.9170003,4.8580003,0.76100004,-0.071,0.15539975,0,nan,0.0,0.0,0.0,0,3,1,1,1,32,0,0,0
412778796,0,37.4561436,126.9541797,170.869,189.32500000000002,1725535740899602,11141125,0.363,0.06947562,0.99500006,1.404,0.51,0.82,67,12,4.926,4.8640003,0.78400004,-0.056,0.15974177,0,nan,0.0,0.0,0.0,0,3,1,1,1,32,0,0,0
412885841,0,37.4561479,126.9541806,170.869,189.32500000000002,1725535740999603,11141125,0.36400002,0.06960565,0.994,1.404,0.51,0.82,67,6,4.8970003,4.826,0.83000004,-0.049000002,0.17025895,0,nan,0.0,0.0,0.0,0,3,1,1,1,32,0,0,0
412977784,0,37.4561523,126.9541814,170.871,189.328,1725535741099602,11141125,0.36400002,0.06936811,0.994,1.404,0.51,0.82,67,6,4.8830004,4.827,0.74300003,-0.109000005,0.15279013,0,nan,0.0,0.0,0.0,0,3,1,1,1,32,0,0,0
413080043,0,37.4561566,126.9541823,170.874,189.33100000000002,1725535741199601,11141125,0.36600003,0.07048913,0.994,1.404,0.51,0.82,67,6,4.814,4.7530003,0.767,-0.051000003,0.15991177,0,nan,0.0,0.0,0.0,0,3,1,1,1,32,0,0,0
413179033,0,37.4561608,126.9541831,170.879,189.336,1725535741299601,11141125,0.363,0.07361973,0.994,1.404,0.51,0.82,67,6,4.669,4.612,0.72700006,-0.11400001,0.15629841,0,nan,0.0,0.0,0.0,0,3,1,1,1,32,0,0,0
413279783,0,37.456165,126.95418389999999,170.873,189.33,1725535741399601,11141125,0.354,0.07536454,0.994,1.4030001,0.51,0.82,67,6,4.583,4.533,0.67800003,-0.072000004,0.14837794,0,nan,0.0,0.0,0.0,0,3,1,1,1,32,0,0,0
413378784,0,37.456168999999996,126.95418459999999,170.87,189.327,1725535741499601,11141125,0.354,0.07898331,0.994,1.4030001,0.51,0.82,67,6,4.4220004,4.379,0.61300004,0.018000001,0.13918652,0,nan,0.0,0.0,0.0,0,3,1,1,1,32,0,0,0
413480826,0,37.4561729,126.9541852,170.877,189.333,1725535741599601,11141125,0.35900003,0.082255624,0.99300003,1.4030001,0.51,0.82,67,6,4.2380004,4.2060003,0.52400005,0.006,0.12385362,0,nan,0.0,0.0,0.0,0,3,1,1,1,32,0,0,0
413581853,0,37.4561766,126.95418579999999,170.877,189.333,1725535741699601,11141125,0.36,0.08635802,0.99300003,1.4030001,0.51,0.82,67,6,4.043,4.0140004,0.48200002,-0.009000001,0.11958664,0,nan,0.0,0.0,0.0,0,3,1,1,1,32,0,0,0
413677916,0,37.4561801,126.95418629999999,170.866,189.323,1725535741799601,11141125,0.36400002,0.091458224,0.99300003,1.4030001,0.51,0.82,67,6,3.933,3.9050002,0.47000003,-0.015000001,0.1197137,0,nan,0.0,0.0,0.0,0,3,1,1,1,32,0,0,0
413777849,0,37.4561837,126.9541867,170.854,189.311,1725535741899601,11141125,0.363,0.0918462,0.99300003,1.4030001,0.51,0.82,67,6,3.8680003,3.8580003,0.275,-0.026,0.07118377,0,nan,0.0,0.0,0.0,0,3,1,1,1,32,0,0,0
413885786,0,37.4561871,126.95418699999999,170.866,189.323,1725535741999602,11141125,0.36100003,0.09784473,0.99300003,1.404,0.51,0.82,67,6,3.6690001,3.6540003,0.34100002,-0.052,0.09307945,0,nan,0.0,0.0,0.0,0,3,1,1,1,32,0,0,0
413980786,0,37.456190299999996,126.9541874,170.869,189.326,1725535742099601,11141125,0.35700002,0.10203351,0.99300003,1.404,0.51,0.82,67,6,3.5180001,3.502,0.337,-0.054,0.09601179,0,nan,0.0,0.0,0.0,0,3,1,1,1,32,0,0,0
414079784,0,37.4561934,126.9541878,170.873,189.33,1725535742199601,11141125,0.36200002,0.10437575,0.99300003,1.404,0.51,0.82,67,6,3.4210002,3.4090002,0.282,0.004,0.082487226,0,nan,0.0,0.0,0.0,0,3,1,1,1,32,0,0,0
414180811,0,37.456196399999996,126.9541881,170.874,189.33100000000002,1725535742299601,11141125,0.36600003,0.109197564,0.99300003,1.4050001,0.51,0.82,67,6,3.282,3.265,0.33400002,-0.052,0.10182076,0,nan,0.0,0.0,0.0,0,3,1,1,1,32,0,0,0
414279786,0,37.4561993,126.9541885,170.87,189.327,1725535742399601,11141125,0.37300003,0.11568879,0.99300003,1.4050001,0.51,0.82,67,6,3.0670002,3.0530002,0.287,-0.002,0.093612656,0,nan,0.0,0.0,0.0,0,3,1,1,1,32,0,0,0
414379783,0,37.456202,126.95418869999999,170.872,189.329,1725535742499601,11141125,0.372,0.12014235,0.99300003,1.4050001,0.51,0.82,67,6,2.93,2.9210002,0.22700001,0.048,0.07747743,0,nan,0.0,0.0,0.0,0,3,1,1,1,32,0,0,0
414480041,0,37.4562045,126.954189,170.868,189.32500000000002,1725535742599601,11141125,0.367,0.12682277,0.99300003,1.406,0.51,0.82,67,6,2.7580001,2.7450001,0.27100003,-0.08800001,0.098580904,0,nan,0.0,0.0,0.0,0,3,1,1,1,32,0,0,0
414579862,0,37.456207,126.9541893,170.886,189.34300000000002,1725535742699601,11141125,0.36600003,0.12787923,0.99300003,1.406,0.51,0.82,67,6,2.696,2.686,0.23700002,-0.091000006,0.08788535,0,nan,0.0,0.0,0.0,0,3,1,1,1,32,0,0,0
