timestamp,timestamp_sample,latitude_deg,longitude_deg,altitude_msl_m,altitude_ellipsoid_m,time_utc_usec,device_id,s_variance_m_s,c_variance_rad,eph,epv,hdop,vdop,noise_per_ms,jamming_indicator,vel_m_s,vel_n_m_s,vel_e_m_s,vel_d_m_s,cog_rad,timestamp_time_relative,heading,heading_offset,heading_accuracy,rtcm_injection_rate,automatic_gain_control,fix_type,jamming_state,spoofing_state,vel_ned_valid,satellites_used,selected_rtcm_instance,rtcm_crc_failed,rtcm_msg_used
472021803,0,37.4559193,126.95418409999999,168.692,187.149,1725537598199873,11141125,0.30400002,3.1415925,0.919,1.291,0.53,0.78,66,10,0.085,-0.012,0.08400001,0.021000002,2.0336235,0,nan,0.0,0.0,0.0,0,4,1,1,1,31,0,0,0
472522831,0,37.4559193,126.9541842,168.717,187.173,1725537598699873,11141125,0.294,3.1415925,0.92,1.291,0.53,0.78,66,10,0.067,0.025,0.062000003,-0.003,2.0336235,0,nan,0.0,0.0,0.0,0,4,1,1,1,31,0,0,0
472621610,0,37.4559193,126.9541842,168.714,187.171,1725537598799873,11141125,0.35500002,3.1415925,0.92,1.292,0.53,0.78,66,10,0.047000002,0.044000003,-0.017,0.065000005,2.0336235,0,nan,0.0,0.0,0.0,0,4,1,1,1,31,0,0,0
472721783,0,37.4559193,126.9541842,168.719,187.17600000000002,1725537598899873,11141125,0.38200003,3.1415925,0.92100006,1.292,0.53,0.78,66,10,0.031000001,0.029000001,-0.010000001,0.017,2.0336235,0,nan,0.0,0.0,0.0,0,4,1,1,1,31,0,0,0
472830790,0,37.4559193,126.9541842,168.737,187.19400000000002,1725537598999874,11141125,0.35000002,3.1415925,0.92100006,1.292,0.53,0.78,66,19,0.032,-0.020000001,0.025,-0.040000003,2.0336235,0,nan,0.0,0.0,0.0,0,4,1,1,1,31,0,0,0
472925807,0,37.4559193,126.9541842,168.738,187.195,1725537599099873,11141125,0.298,3.1415925,0.92100006,1.2930001,0.53,0.78,66,19,0.018000001,0.016,-0.009000001,-0.023000002,2.0336235,0,nan,0.0,0.0,0.0,0,4,1,1,1,31,0,0,0
473021785,0,37.4559192,126.9541842,168.736,187.193,1725537599199873,11141125,0.36900002,3.1415925,0.92100006,1.2930001,0.53,0.78,66,19,0.046000004,-0.046000004,-0.006,-0.027,2.0336235,0,nan,0.0,0.0,0.0,0,4,1,1,1,31,0,0,0
473121783,0,37.4559192,126.95418409999999,168.742,187.199,1725537599299873,11141125,0.381,3.1415925,0.92100006,1.2930001,0.53,0.78,66,19,0.023000002,0.021000002,-0.008,0.007,2.0336235,0,nan,0.0,0.0,0.0,0,4,1,1,1,31,0,0,0
473215932,0,37.4559192,126.95418409999999,168.744,187.201,1725537599399873,11141125,0.35700002,3.1415925,0.92100006,1.2930001,0.53,0.78,66,19,0.062000003,0.060000002,0.014,0.009000001,2.0336235,0,nan,0.0,0.0,0.0,0,4,1,1,1,31,0,0,0
473320783,0,37.4559193,126.9541842,168.736,187.193,1725537599499873,11141125,0.316,3.1415925,0.92100006,1.2930001,0.53,0.78,66,19,0.041,0.031000001,0.027,0.002,2.0336235,0,nan,0.0,0.0,0.0,0,4,1,1,1,31,0,0,0
473422818,0,37.4559193,126.9541842,168.729,187.185,1725537599599873,11141125,0.33900002,3.1415925,0.92100006,1.294,0.53,0.78,66,19,0.042000003,-0.034,0.025,0.014,2.0336235,0,nan,0.0,0.0,0.0,0,4,1,1,1,31,0,0,0
473520784,0,37.4559192,126.9541842,168.721,187.177,1725537599699873,11141125,0.31,3.1415925,0.92100006,1.294,0.53,0.78,66,19,0.038000003,-0.032,-0.020000001,0.018000001,2.0336235,0,nan,0.0,0.0,0.0,0,4,1,1,1,31,0,0,0
473619940,0,37.4559192,126.9541842,168.704,187.161,1725537599799873,11141125,0.293,3.1415925,0.92200005,1.294,0.53,0.78,66,19,0.014,-0.011000001,0.008,0.062000003,2.0336235,0,nan,0.0,0.0,0.0,0,4,1,1,1,31,0,0,0
473720793,0,37.4559192,126.9541843,168.705,187.162,1725537599899872,11141125,0.33400002,3.1415925,0.92200005,1.294,0.53,0.78,66,19,0.012,0.012,0.003,0.024,2.0336235,0,nan,0.0,0.0,0.0,0,4,1,1,1,31,0,0,0
473828784,0,37.4559192,126.9541843,168.707,187.16400000000002,1725537599999873,11141125,0.39200002,3.1415925,0.92200005,1.2950001,0.53,0.78,66,14,0.059000004,-0.056,0.016,-0.012,2.0336235,0,nan,0.0,0.0,0.0,0,4,2,1,1,31,0,0,0
473936783,0,37.455919099999996,126.9541843,168.708,187.165,1725537600099872,11141125,0.307,3.1415925,0.92200005,1.2950001,0.53,0.78,66,14,0.012,-0.002,-0.012,0.004,2.0336235,0,nan,0.0,0.0,0.0,0,4,2,1,1,31,0,0,0
474021783,0,37.455919099999996,126.9541843,168.705,187.162,1725537600199872,11141125,0.328,3.1415925,0.92200005,1.2950001,0.53,0.78,66,14,0.063,-0.061000004,-0.016,0.024,2.0336235,0,nan,0.0,0.0,0.0,0,4,2,1,1,31,0,0,0
474114872,0,37.455919099999996,126.9541842,168.716,187.172,1725537600299872,11141125,0.36900002,3.1415925,0.92200005,1.2950001,0.53,0.78,66,14,0.063,0.061000004,-0.016,-0.006,2.0336235,0,nan,0.0,0.0,0.0,0,4,2,1,1,31,0,0,0
474221785,0,37.455919099999996,126.9541842,168.707,187.16400000000002,1725537600399872,11141125,0.38000003,3.1415925,0.92300004,1.2950001,0.53,0.78,66,14,0.045,-0.045,0.007,-0.026,2.0336235,0,nan,0.0,0.0,0.0,0,4,2,1,1,31,0,0,0
474321782,0,37.455919099999996,126.9541843,168.71,187.167,1725537600499872,11141125,0.35700002,3.1415925,0.92300004,1.2950001,0.53,0.78,66,14,0.080000006,0.079,0.011000001,-0.002,2.0336235,0,nan,0.0,0.0,0.0,0,4,2,1,1,31,0,0,0
474420783,0,37.455919099999996,126.9541843,168.702,187.159,1725537600599872,11141125,0.367,3.1415925,0.92300004,1.2950001,0.53,0.78,66,14,0.044000003,-0.029000001,0.033,-0.007,2.0336235,0,nan,0.0,0.0,0.0,0,4,2,1,1,31,0,0,0
474522781,0,37.455919099999996,126.9541843,168.69400000000002,187.151,1725537600699872,11141125,0.36400002,3.1415925,0.92300004,1.2950001,0.53,0.78,66,14,0.034,-0.034,-0.004,-0.027,2.0336235,0,nan,0.0,0.0,0.0,0,4,2,1,1,31,0,0,0
474624015,0,37.455919099999996,126.9541843,168.684,187.14000000000001,1725537600799872,11141125,0.321,3.1415925,0.92300004,1.2950001,0.53,0.78,66,14,0.008,-0.006,-0.006,-0.027,2.0336235,0,nan,0.0,0.0,0.0,0,4,2,1,1,31,0,0,0
474724786,0,37.455919099999996,126.95418439999999,168.685,187.142,1725537600899872,11141125,0.37,3.1415925,0.92300004,1.2950001,0.53,0.78,66,14,0.022000002,-0.016,0.016,-0.017,2.0336235,0,nan,0.0,0.0,0.0,0,4,2,1,1,31,0,0,0
474831785,0,37.455919099999996,126.95418439999999,168.674,187.131,1725537600999873,11141125,0.30600002,3.1415925,0.924,1.2950001,0.53,0.78,66,12,0.025,-0.017,0.018000001,0.023000002,2.0336235,0,nan,0.0,0.0,0.0,0,4,1,1,1,31,0,0,0
474924782,0,37.455919099999996,126.95418439999999,168.67000000000002,187.127,1725537601099872,11141125,0.328,3.1415925,0.924,1.2950001,0.53,0.78,66,12,0.003,0.003,0.001,0.027,2.0336235,0,nan,0.0,0.0,0.0,0,4,1,1,1,31,0,0,0
475017947,0,37.455919,126.9541845,168.666,187.123,1725537601199872,11141125,0.34500003,3.1415925,0.924,1.2950001,0.53,0.78,66,12,0.029000001,-0.026,0.011000001,0.012,2.0336235,0,nan,0.0,0.0,0.0,0,4,1,1,1,31,0,0,0
475126054,0,37.455919,126.9541845,168.662,187.119,1725537601299872,11141125,0.32200003,3.1415925,0.924,1.296,0.53,0.78,66,12,0.018000001,-0.0050000004,0.017,0.003,2.0336235,0,nan,0.0,0.0,0.0,0,4,1,1,1,31,0,0,0
475225824,0,37.455919099999996,126.9541845,168.655,187.112,1725537601399872,11141125,0.35200003,3.1415925,0.9250001,1.296,0.53,0.78,66,12,0.08800001,0.08400001,0.026,-0.008,2.0336235,0,nan,0.0,0.0,0.0,0,4,1,1,1,31,0,0,0
475323781,0,37.455919099999996,126.95418459999999,168.662,187.119,1725537601499872,11141125,0.321,3.1415925,0.9250001,1.296,0.53,0.78,66,12,0.029000001,0.029000001,-0.004,-0.024,2.0336235,0,nan,0.0,0.0,0.0,0,4,1,1,1,31,0,0,0
475425782,0,37.455919099999996,126.95418459999999,168.665,187.122,1725537601599872,11141125,0.307,3.1415925,0.9250001,1.297,0.53,0.78,66,12,0.027,0.019000001,-0.019000001,-0.028,2.0336235,0,nan,0.0,0.0,0.0,0,4,1,1,1,31,0,0,0
475527936,0,37.4559192,126.9541845,168.666,187.123,1725537601699872,11141125,0.349,3.1415925,0.92600006,1.297,0.53,0.78,66,12,0.074,0.072000004,-0.018000001,-0.033,2.0336235,0,nan,0.0,0.0,0.0,0,4,1,1,1,31,0,0,0
475623782,0,37.4559192,126.95418459999999,168.671,187.12800000000001,1725537601799872,11141125,0.30400002,3.1415925,0.92600006,1.297,0.53,0.78,66,12,0.068,0.048,0.048,-0.059000004,2.0336235,0,nan,0.0,0.0,0.0,0,4,1,1,1,31,0,0,0
475726037,0,37.4559192,126.95418459999999,168.67600000000002,187.132,1725537601899872,11141125,0.314,3.1415925,0.92600006,1.2980001,0.53,0.78,66,12,0.060000002,0.022000002,0.055000003,-0.014,2.0336235,0,nan,0.0,0.0,0.0,0,4,1,1,1,31,0,0,0
475836811,0,37.4559193,126.9541847,168.679,187.135,1725537601999873,11141125,0.33900002,3.1415925,0.92700005,1.2980001,0.53,0.78,66,12,0.075,0.075,-0.001,-0.038000003,2.0336235,0,nan,0.0,0.0,0.0,0,4,1,1,1,31,0,0,0
475918783,0,37.4559194,126.9541847,168.697,187.154,1725537602099872,11141125,0.31100002,2.0176725,0.92700005,1.2980001,0.53,0.78,66,12,0.172,0.16100001,0.062000003,-0.14,2.0336235,0,nan,0.0,0.0,0.0,0,4,1,1,1,31,0,0,0
476026783,0,37.4559195,126.9541848,168.71,187.167,1725537602199872,11141125,0.307,1.9528565,0.92800003,1.2980001,0.53,0.78,66,12,0.18100001,0.164,0.07700001,-0.157,2.0336235,0,nan,0.0,0.0,0.0,0,4,1,1,1,31,0,0,0
476130130,0,37.455919699999995,126.954185,168.725,187.18200000000002,1725537602299872,11141125,0.321,1.1926634,0.92800003,1.2980001,0.53,0.78,66,12,0.293,0.26500002,0.125,-0.178,2.0336235,0,nan,0.0,0.0,0.0,0,4,1,1,1,31,0,0,0
476224783,0,37.4559199,126.95418509999999,168.742,187.199,1725537602399872,11141125,0.33100003,1.1129023,0.92800003,1.299,0.53,0.78,66,12,0.321,0.28300002,0.15300001,-0.17400001,2.0336235,0,nan,0.0,0.0,0.0,0,4,1,1,1,31,0,0,0
476326782,0,37.4559202,126.95418529999999,168.761,187.21800000000002,1725537602499872,11141125,0.31800002,0.96658516,0.929,1.299,0.53,0.78,66,12,0.37,0.30900002,0.20400001,-0.19900002,2.0336235,0,nan,0.0,0.0,0.0,0,4,1,1,1,31,0,0,0
476422783,0,37.4559205,126.95418559999999,168.77100000000002,187.228,1725537602599871,11141125,0.32200003,0.7991398,0.929,1.3000001,0.53,0.78,66,12,0.45800003,0.367,0.27400002,-0.22200002,2.0336235,0,nan,0.0,0.0,0.0,0,4,1,1,1,31,0,0,0
476524783,0,37.4559208,126.95418599999999,168.805,187.262,1725537602699871,11141125,0.316,0.7923462,0.93000007,1.3000001,0.53,0.78,66,12,0.46300003,0.35300002,0.3,-0.25300002,2.0336235,0,nan,0.0,0.0,0.0,0,4,1,1,1,31,0,0,0
476625798,0,37.4559211,126.95418629999999,168.844,187.30100000000002,1725537602799871,11141125,0.312,0.8734317,0.93000007,1.3000001,0.53,0.78,66,12,0.411,0.356,0.20500001,-0.36,2.0336235,0,nan,0.0,0.0,0.0,0,4,1,1,1,31,0,0,0
476725785,0,37.4559214,126.9541866,168.886,187.34300000000002,1725537602899871,11141125,0.305,0.8816803,0.93100005,1.3010001,0.53,0.78,66,12,0.41900003,0.32700002,0.26200002,-0.5,2.0336235,0,nan,0.0,0.0,0.0,0,4,1,1,1,31,0,0,0
476826784,0,37.4559217,126.95418679999999,168.951,187.40800000000002,1725537602999872,11141125,0.30200002,0.85046834,0.93100005,1.3010001,0.53,0.78,66,14,0.423,0.39000002,0.163,-0.595,2.0336235,0,nan,0.0,0.0,0.0,0,4,1,1,1,31,0,0,0
476927822,0,37.455922,126.95418699999999,169.004,187.461,1725537603099871,11141125,0.303,0.84941125,0.93200004,1.302,0.53,0.78,66,14,0.41300002,0.377,0.16900001,-0.577,2.0336235,0,nan,0.0,0.0,0.0,0,4,1,1,1,31,0,0,0
477025782,0,37.4559224,126.95418719999999,169.076,187.53300000000002,1725537603199871,11141125,0.307,0.70329803,0.93200004,1.3030001,0.53,0.78,66,14,0.48800004,0.46600002,0.14400001,-0.65400004,0.29899898,0,nan,0.0,0.0,0.0,0,4,1,1,1,31,0,0,0
477125811,0,37.455922799999996,126.9541873,169.174,187.631,1725537603299871,11141125,0.30400002,0.6959678,0.93200004,1.3030001,0.53,0.78,66,14,0.476,0.47300002,0.054,-0.80300003,0.11428591,0,nan,0.0,0.0,0.0,0,4,1,1,1,31,0,0,0
477225782,0,37.4559232,126.9541874,169.257,187.713,1725537603399871,11141125,0.30600002,0.5998864,0.933,1.304,0.53,0.78,66,14,0.56600004,0.56100005,0.076000005,-0.86700004,0.13472876,0,nan,0.0,0.0,0.0,0,4,1,1,1,31,0,0,0
477325782,0,37.4559237,126.9541876,169.34300000000002,187.8,1725537603499871,11141125,0.30600002,0.6419939,0.933,1.3050001,0.53,0.78,66,14,0.55700004,0.522,0.19500001,-0.96000004,0.35707113,0,nan,0.0,0.0,0.0,0,4,1,1,1,31,0,0,0
477426785,0,37.4559242,126.9541878,169.431,187.888,1725537603599871,11141125,0.30800003,0.57784224,0.934,1.307,0.53,0.78,66,14,0.619,0.582,0.21100001,-0.952,0.34795007,0,nan,0.0,0.0,0.0,0,4,1,1,1,31,0,0,0
477523799,0,37.4559247,126.9541881,169.516,187.973,1725537603699871,11141125,0.30800003,0.57661784,0.93500006,1.3080001,0.53,0.78,66,14,0.632,0.546,0.31800002,-0.93700004,0.5277832,0,nan,0.0,0.0,0.0,0,4,1,1,1,31,0,0,0
477624784,0,37.4559253,126.9541886,169.6,188.05700000000002,1725537603799871,11141125,0.314,0.43984374,0.93500006,1.3100001,0.53,0.78,66,14,0.82400006,0.674,0.47500002,-0.892,0.6136855,0,nan,0.0,0.0,0.0,0,4,1,1,1,31,0,0,0
477714669,0,37.455925799999996,126.95418919999999,169.698,188.155,1725537603899871,11141125,0.31300002,0.47341776,0.93600005,1.3110001,0.53,0.78,66,14,0.78700006,0.58400005,0.528,-0.952,0.73522186,0,nan,0.0,0.0,0.0,0,4,1,1,1,31,0,0,0
477829784,0,37.455926399999996,126.9541898,169.784,188.241,1725537603999872,11141125,0.321,0.41612417,0.93700004,1.3130001,0.53,0.78,66,6,0.89900005,0.70400006,0.559,-0.90200007,0.671392,0,nan,0.0,0.0,0.0,0,4,1,1,1,31,0,0,0
477926783,0,37.455926999999996,126.9541905,169.89000000000001,188.347,1725537604099871,11141125,0.31800002,0.4130182,0.938,1.314,0.53,0.78,66,6,0.91800004,0.638,0.66,-0.96500003,0.80304766,0,nan,0.0,0.0,0.0,0,4,1,1,1,31,0,0,0
478021783,0,37.455927599999995,126.95419129999999,169.999,188.45600000000002,1725537604199871,11141125,0.32000002,0.36008796,0.938,1.3160001,0.53,0.78,66,6,1.0380001,0.8,0.66200006,-0.99100006,0.69101787,0,nan,0.0,0.0,0.0,0,4,1,1,1,31,0,0,0
478120783,0,37.4559283,126.9541922,170.102,188.559,1725537604299871,11141125,0.319,0.3316265,0.93900007,1.317,0.53,0.78,66,6,1.149,0.809,0.81700003,-1.0220001,0.79026425,0,nan,0.0,0.0,0.0,0,4,1,1,1,31,0,0,0
478221786,0,37.4559291,126.9541931,170.224,188.681,1725537604399871,11141125,0.321,0.2900887,0.94000006,1.3180001,0.53,0.78,66,6,1.294,0.97400004,0.851,-1.054,0.71786267,0,nan,0.0,0.0,0.0,0,4,1,1,1,31,0,0,0
478320949,0,37.455929999999995,126.9541941,170.341,188.798,1725537604499871,11141125,0.319,0.2841717,0.94000006,1.319,0.53,0.78,66,6,1.3210001,0.97700006,0.88900006,-1.107,0.73853254,0,nan,0.0,0.0,0.0,0,4,1,1,1,31,0,0,0
478422783,0,37.4559309,126.95419509999999,170.445,188.901,1725537604599871,11141125,0.32000002,0.27038938,0.94100004,1.32,0.53,0.78,66,6,1.3770001,1.033,0.91,-1.1140001,0.7223443,0,nan,0.0,0.0,0.0,0,4,1,1,1,31,0,0,0
478522784,0,37.455931799999995,126.9541962,170.56300000000002,189.02,1725537604699871,11141125,0.31800002,0.24667434,0.94100004,1.3210001,0.53,0.78,66,6,1.483,1.093,1.003,-1.1090001,0.7424388,0,nan,0.0,0.0,0.0,0,4,1,1,1,31,0,0,0
478617790,0,37.4559329,126.95419729999999,170.67600000000002,189.133,1725537604799871,11141125,0.32200003,0.2265624,0.94200003,1.322,0.53,0.78,66,6,1.6250001,1.2750001,1.0070001,-1.0840001,0.6683199,0,nan,0.0,0.0,0.0,0,4,1,1,1,31,0,0,0
478726030,0,37.455934,126.95419849999999,170.814,189.27100000000002,1725537604899871,11141125,0.31800002,0.22168474,0.94200003,1.322,0.53,0.78,66,6,1.667,1.245,1.1090001,-1.107,0.7279435,0,nan,0.0,0.0,0.0,0,4,1,1,1,31,0,0,0
478831783,0,37.4559351,126.95419989999999,170.93800000000002,189.395,1725537604999872,11141125,0.32000002,0.20808686,0.943,1.3230001,0.53,0.78,66,6,1.812,1.3440001,1.2140001,-1.169,0.7345895,0,nan,0.0,0.0,0.0,0,4,1,1,1,31,0,0,0
478930785,0,37.4559364,126.95420139999999,171.044,189.5,1725537605099871,11141125,0.32200003,0.18477136,0.943,1.3230001,0.53,0.78,66,6,2.0310001,1.493,1.376,-1.1240001,0.7443705,0,nan,0.0,0.0,0.0,0,4,1,1,1,31,0,0,0
479023782,0,37.4559377,126.9542031,171.16,189.617,1725537605199871,11141125,0.321,0.18449403,0.94400007,1.3230001,0.53,0.78,66,6,2.147,1.455,1.5780001,-1.144,0.8260718,0,nan,0.0,0.0,0.0,0,4,1,1,1,31,0,0,0
479122785,0,37.455939,126.95420499999999,171.275,189.732,1725537605299870,11141125,0.323,0.17191266,0.94400007,1.3230001,0.53,0.78,66,6,2.3160002,1.5550001,1.7160001,-1.047,0.8346332,0,nan,0.0,0.0,0.0,0,4,1,1,1,31,0,0,0
479220783,0,37.455940399999996,126.954207,171.4,189.857,1725537605399870,11141125,0.32200003,0.16032176,0.94500005,1.3230001,0.53,0.78,66,6,2.5,1.6350001,1.891,-1.051,0.8580428,0,nan,0.0,0.0,0.0,0,4,1,1,1,31,0,0,0
479325783,0,37.4559419,126.95420929999999,171.513,189.97,1725537605499870,11141125,0.32000002,0.15520847,0.94600004,1.3240001,0.53,0.78,66,6,2.595,1.6330001,2.0180001,-0.99200004,0.8904549,0,nan,0.0,0.0,0.0,0,4,1,1,1,31,0,0,0
479425802,0,37.455943399999995,126.95421169999999,171.612,190.06900000000002,1725537605599870,11141125,0.31800002,0.14100252,0.94600004,1.3240001,0.53,0.78,66,6,2.832,1.7220001,2.2480001,-0.97300005,0.9170031,0,nan,0.0,0.0,0.0,0,4,1,1,1,31,0,0,0
479519169,0,37.455945,126.9542144,171.716,190.173,1725537605699870,11141125,0.321,0.12808743,0.947,1.3240001,0.53,0.78,66,6,3.1480002,1.9160001,2.4970002,-0.896,0.9164771,0,nan,0.0,0.0,0.0,0,4,1,1,1,31,0,0,0
479622782,0,37.4559467,126.95421739999999,171.8,190.257,1725537605799870,11141125,0.319,0.12216677,0.9480001,1.3230001,0.53,0.78,66,6,3.3220003,1.9230001,2.709,-0.83000004,0.9536197,0,nan,0.0,0.0,0.0,0,4,1,1,1,31,0,0,0
479721782,0,37.4559485,126.9542207,171.898,190.355,1725537605899870,11141125,0.319,0.11275926,0.9480001,1.322,0.53,0.78,66,6,3.6220002,2.071,2.9720001,-0.82400006,0.96223104,0,nan,0.0,0.0,0.0,0,4,1,1,1,31,0,0,0
479830415,0,37.4559503,126.9542242,171.975,190.43200000000002,1725537605999871,11141125,0.317,0.108059265,0.94900006,1.322,0.53,0.78,66,13,3.8160002,2.108,3.1810002,-0.71900004,0.9857042,0,nan,0.0,0.0,0.0,0,4,1,1,1,31,0,0,0
479922827,0,37.4559522,126.954228,172.061,190.517,1725537606099870,11141125,0.312,0.10155617,0.94900006,1.3210001,0.53,0.78,66,13,4.012,2.176,3.3700001,-0.647,0.9974232,0,nan,0.0,0.0,0.0,0,4,1,1,1,31,0,0,0
480021784,0,37.4559542,126.95423199999999,172.127,190.584,1725537606199870,11141125,0.30600002,0.09483525,0.95000005,1.32,0.53,0.78,66,13,4.2770004,2.233,3.647,-0.63000005,1.0215293,0,nan,0.0,0.0,0.0,0,4,1,1,1,31,0,0,0
480119784,0,37.455956199999996,126.95423629999999,172.196,190.653,1725537606299870,11141125,0.307,0.09087266,0.95000005,1.32,0.53,0.78,66,13,4.5150003,2.26,3.9090002,-0.558,1.0465448,0,nan,0.0,0.0,0.0,0,4,1,1,1,31,0,0,0
480220785,0,37.4559581,126.95424089999999,172.28,190.737,1725537606399870,11141125,0.303,0.08276438,0.95100003,1.319,0.53,0.78,66,13,4.6780005,2.1880002,4.135,-0.57900006,1.0840585,0,nan,0.0,0.0,0.0,0,4,1,1,1,31,0,0,0
480322512,0,37.4559602,126.9542457,172.34300000000002,190.8,1725537606499870,11141125,0.305,0.08073509,0.95100003,1.319,0.53,0.78,66,13,4.9030004,2.334,4.3120003,-0.50600004,1.0746907,0,nan,0.0,0.0,0.0,0,4,1,1,1,31,0,0,0
480418970,0,37.455962199999995,126.95425069999999,172.387,190.844,1725537606599870,11141125,0.31,0.082129434,0.95100003,1.3180001,0.53,0.78,66,13,5.05,2.299,4.4960003,-0.45800003,1.0982053,0,nan,0.0,0.0,0.0,0,4,1,1,1,31,0,0,0
480525783,0,37.4559642,126.95425589999999,172.446,190.903,1725537606699870,11141125,0.31300002,0.07950655,0.952,1.3180001,0.53,0.78,66,13,5.163,2.2930002,4.6260004,-0.44700003,1.1105709,0,nan,0.0,0.0,0.0,0,4,1,1,1,31,0,0,0
480626784,0,37.4559663,126.95426119999999,172.494,190.951,1725537606799870,11141125,0.30800003,0.07882273,0.95300007,1.317,0.53,0.78,66,13,5.262,2.3360002,4.715,-0.425,1.1108291,0,nan,0.0,0.0,0.0,0,4,1,1,1,31,0,0,0
480727782,0,37.455968299999995,126.95426649999999,172.546,191.00300000000001,1725537606899870,11141125,0.303,0.07998006,0.95300007,1.317,0.53,0.78,66,13,5.0740004,2.2280002,4.558,-0.367,1.1161393,0,nan,0.0,0.0,0.0,0,4,1,1,1,31,0,0,0
480836783,0,37.4559703,126.9542716,172.564,191.02100000000002,1725537606999871,11141125,0.29200003,0.080296665,0.95300007,1.317,0.53,0.78,66,13,5.0030003,2.2410002,4.472,-0.201,1.1062617,0,nan,0.0,0.0,0.0,0,4,1,1,1,31,0,0,0
480929786,0,37.4559723,126.9542766,172.567,191.024,1725537607099870,11141125,0.282,0.08327943,0.95300007,1.3160001,0.53,0.78,66,13,4.755,2.028,4.301,-0.040000003,1.130223,0,nan,0.0,0.0,0.0,0,4,1,1,1,31,0,0,0
481021800,0,37.4559741,126.95428129999999,172.586,191.043,1725537607199870,11141125,0.29000002,0.08708617,0.95300007,1.3160001,0.53,0.78,66,13,4.505,2.023,4.025,-0.067,1.1051235,0,nan,0.0,0.0,0.0,0,4,1,1,1,31,0,0,0
481121783,0,37.4559759,126.9542857,172.591,191.048,1725537607299870,11141125,0.286,0.09665284,0.95300007,1.315,0.53,0.78,66,13,4.195,1.9890001,3.6940002,0.063,1.0767355,0,nan,0.0,0.0,0.0,0,4,1,1,1,31,0,0,0
481220906,0,37.4559777,126.9542896,172.586,191.043,1725537607399870,11141125,0.287,0.10452899,0.95300007,1.315,0.53,0.78,66,13,3.8840003,1.9810001,3.341,0.23500001,1.0355197,0,nan,0.0,0.0,0.0,0,4,1,1,1,31,0,0,0
481315784,0,37.4559794,126.95429329999999,172.566,191.023,1725537607499870,11141125,0.293,0.10821355,0.95400006,1.315,0.53,0.78,66,13,3.5950003,1.8570001,3.078,0.24000001,1.028035,0,nan,0.0,0.0,0.0,0,4,1,1,1,31,0,0,0
481421784,0,37.455981099999995,126.9542965,172.529,190.986,1725537607599870,11141125,0.29500002,0.11917264,0.95400006,1.315,0.53,0.78,66,13,3.2530003,1.8550001,2.673,0.231,0.96413696,0,nan,0.0,0.0,0.0,0,4,1,1,1,31,0,0,0
481523785,0,37.4559826,126.95429929999999,172.49,190.947,1725537607699870,11141125,0.293,0.13932388,0.95400006,1.314,0.53,0.78,66,13,2.7730002,1.6340001,2.24,0.216,0.9408125,0,nan,0.0,0.0,0.0,0,4,1,1,1,31,0,0,0
481621786,0,37.455984,126.9543016,172.493,190.95000000000002,1725537607799870,11141125,0.30800003,0.16749087,0.95400006,1.315,0.53,0.78,66,13,2.292,1.4790001,1.7500001,0.076000005,0.8689884,0,nan,0.0,0.0,0.0,0,4,1,1,1,31,0,0,0
481721784,0,37.4559852,126.9543034,172.508,190.965,1725537607899870,11141125,0.29900002,0.20224439,0.95400006,1.315,0.53,0.78,66,13,1.8730001,1.213,1.427,-0.021000002,0.8660626,0,nan,0.0,0.0,0.0,0,4,1,1,1,31,0,0,0
481830784,0,37.4559863,126.9543049,172.523,190.98,1725537607999871,11141125,0.30800003,0.23786567,0.95400006,1.315,0.53,0.78,66,10,1.6220001,1.153,1.141,-0.086,0.77993786,0,nan,0.0,0.0,0.0,0,4,1,1,1,31,0,0,0
481930965,0,37.4559873,126.9543061,172.528,190.985,1725537608099869,11141125,0.31500003,0.29317725,0.95400006,1.315,0.53,0.78,66,10,1.355,1.0220001,0.88900006,-0.143,0.71609116,0,nan,0.0,0.0,0.0,0,4,1,1,1,31,0,0,0
482024118,0,37.4559881,126.9543071,172.535,190.992,1725537608199869,11141125,0.312,0.33361006,0.95400006,1.3160001,0.53,0.78,66,10,1.156,0.823,0.81200004,-0.064,0.7791273,0,nan,0.0,0.0,0.0,0,4,1,1,1,31,0,0,0
482122783,0,37.4559888,126.954308,172.552,191.00900000000001,1725537608299869,11141125,0.312,0.4060524,0.95400006,1.3160001,0.53,0.78,66,10,0.957,0.624,0.726,-0.023000002,0.86136323,0,nan,0.0,0.0,0.0,0,4,1,1,1,31,0,0,0
482214908,0,37.4559892,126.95430879999999,172.55700000000002,191.013,1725537608399869,11141125,0.324,0.5185293,0.95500004,1.317,0.53,0.78,66,10,0.76500005,0.44700003,0.62,0.018000001,0.9460374,0,nan,0.0,0.0,0.0,0,4,1,1,1,31,0,0,0
482321784,0,37.4559895,126.9543095,172.558,191.01500000000001,1725537608499869,11141125,0.31,0.64772135,0.95500004,1.3180001,0.53,0.78,66,10,0.61700004,0.22200002,0.57600003,0.048,1.2034599,0,nan,0.0,0.0,0.0,0,4,1,1,1,31,0,0,0
482422974,0,37.455989599999995,126.9543101,172.549,191.006,1725537608599869,11141125,0.321,0.8091205,0.95500004,1.319,0.53,0.78,66,10,0.476,0.014,0.47500002,0.089,0.998581,0,nan,0.0,0.0,0.0,0,4,1,1,1,31,0,0,0
482521846,0,37.4559895,126.9543106,172.55100000000002,191.008,1725537608699869,11141125,0.356,0.68951833,0.95600003,1.319,0.53,0.78,66,10,0.507,-0.18400002,0.47300002,0.09,1.9419304,0,nan,0.0,0.0,0.0,0,4,1,1,1,31,0,0,0
482622000,0,37.4559893,126.9543111,172.53900000000002,190.996,1725537608799869,11141125,0.37600002,0.6732188,0.95600003,1.32,0.53,0.78,66,10,0.47200003,-0.33200002,0.33600003,0.097,2.3496323,0,nan,0.0,0.0,0.0,0,4,1,1,1,31,0,0,0
482722520,0,37.4559889,126.95431149999999,172.541,190.998,1725537608899869,11141125,0.379,0.51034683,0.95600003,1.32,0.53,0.78,66,10,0.624,-0.558,0.28,0.132,2.6759284,0,nan,0.0,0.0,0.0,0,4,1,1,1,31,0,0,0
482827783,0,37.4559883,126.9543118,172.53300000000002,190.99,1725537608999870,11141125,0.37500003,0.46340898,0.957,1.3210001,0.53,0.78,66,22,0.68200004,-0.63900006,0.238,0.18900001,2.7854722,0,nan,0.0,0.0,0.0,0,4,1,1,1,31,0,0,0
482921875,0,37.4559877,126.95431199999999,172.538,190.995,1725537609099869,11141125,0.37500003,0.45050853,0.957,1.322,0.53,0.78,66,22,0.70900005,-0.69500005,0.14400001,0.148,2.9372792,0,nan,0.0,0.0,0.0,0,4,1,1,1,31,0,0,0
483021803,0,37.4559871,126.9543121,172.536,190.993,1725537609199869,11141125,0.374,0.43314096,0.957,1.322,0.53,0.78,66,22,0.754,-0.753,0.048,0.102000006,3.0780783,0,nan,0.0,0.0,0.0,0,4,1,1,1,31,0,0,0
483115786,0,37.4559864,126.9543121,172.519,190.976,1725537609299869,11141125,0.363,0.42934975,0.95800006,1.3230001,0.53,0.78,66,22,0.78000003,-0.77900004,-0.038000003,0.123,3.1905434,0,nan,0.0,0.0,0.0,0,4,1,1,1,31,0,0,0
483221785,0,37.4559856,126.9543121,172.516,190.973,1725537609399869,11141125,0.35700002,0.33189425,0.95800006,1.3230001,0.53,0.78,66,22,1.005,-1.0,-0.09900001,0.149,3.2404583,0,nan,0.0,0.0,0.0,0,4,1,1,1,31,0,0,0
483320784,0,37.455984699999995,126.9543119,172.487,190.94400000000002,1725537609499869,11141125,0.34100002,0.33885425,0.95800006,1.3230001,0.53,0.78,66,22,1.021,-0.9850001,-0.268,0.19600001,3.4071772,0,nan,0.0,0.0,0.0,0,4,1,1,1,31,0,0,0
483420784,0,37.4559837,126.9543114,172.472,190.929,1725537609599869,11141125,0.33600003,0.28741872,0.95800006,1.3240001,0.53,0.78,66,22,1.2780001,-1.182,-0.48600003,0.23500001,3.5316002,0,nan,0.0,0.0,0.0,0,4,1,1,1,31,0,0,0
483521782,0,37.4559825,126.9543107,172.45600000000002,190.913,1725537609699869,11141125,0.32200003,0.23781507,0.95900005,1.3240001,0.53,0.78,66,22,1.5270001,-1.3510001,-0.712,0.165,3.6262977,0,nan,0.0,0.0,0.0,0,4,1,1,1,31,0,0,0
483620977,0,37.4559812,126.95430979999999,172.457,190.91400000000002,1725537609799869,11141125,0.32200003,0.20201452,0.95900005,1.3240001,0.53,0.78,66,22,1.8000001,-1.5830001,-0.855,0.172,3.6369352,0,nan,0.0,0.0,0.0,0,4,1,1,1,31,0,0,0
483719782,0,37.4559797,126.9543087,172.427,190.88400000000001,1725537609899869,11141125,0.316,0.19078839,0.95900005,1.3240001,0.53,0.78,66,22,1.95,-1.621,-1.0830001,0.22900002,3.7305987,0,nan,0.0,0.0,0.0,0,4,1,1,1,31,0,0,0
483828783,0,37.4559782,126.95430739999999,172.39000000000001,190.847,1725537609999870,11141125,0.31500003,0.17079599,0.95900005,1.3240001,0.53,0.78,66,8,2.1790001,-1.7770001,-1.2620001,0.23400001,3.7593377,0,nan,0.0,0.0,0.0,0,4,1,1,1,31,0,0,0
483925806,0,37.4559765,126.9543059,172.364,190.821,1725537610099869,11141125,0.316,0.16192797,0.95900005,1.325,0.53,0.78,66,8,2.3270001,-1.9110001,-1.327,0.24300002,3.7485383,0,nan,0.0,0.0,0.0,0,4,1,1,1,31,0,0,0
484015784,0,37.4559748,126.95430429999999,172.358,190.815,1725537610199869,11141125,0.312,0.15530463,0.95900005,1.325,0.53,0.78,66,8,2.5200002,-1.9790001,-1.5600001,0.23700002,3.8090787,0,nan,0.0,0.0,0.0,0,4,1,1,1,31,0,0,0
484120786,0,37.455973,126.9543025,172.33700000000002,190.794,1725537610299869,11141125,0.312,0.14579608,0.95900005,1.325,0.53,0.78,66,8,2.647,-2.0400002,-1.6860001,0.29000002,3.8322213,0,nan,0.0,0.0,0.0,0,4,1,1,1,31,0,0,0
484220783,0,37.4559711,126.95430049999999,172.297,190.754,1725537610399869,11141125,0.312,0.14444885,0.96000004,1.3260001,0.53,0.78,66,8,2.683,-2.051,-1.7300001,0.323,3.842441,0,nan,0.0,0.0,0.0,0,4,1,1,1,31,0,0,0
484319784,0,37.4559693,126.9542986,172.272,190.729,1725537610499869,11141125,0.30900002,0.13845365,0.96000004,1.3260001,0.53,0.78,66,8,2.71,-2.038,-1.7860001,0.34,3.861243,0,nan,0.0,0.0,0.0,0,4,1,1,1,31,0,0,0
484421783,0,37.4559675,126.9542965,172.244,190.701,1725537610599869,11141125,0.30900002,0.14102696,0.96000004,1.3260001,0.53,0.78,66,8,2.7050002,-1.973,-1.8510001,0.34800002,3.8950849,0,nan,0.0,0.0,0.0,0,4,1,1,1,31,0,0,0
484521783,0,37.4559657,126.9542944,172.211,190.668,1725537610699869,11141125,0.30800003,0.13654758,0.96000004,1.3260001,0.53,0.78,66,8,2.789,-2.032,-1.9110001,0.307,3.896152,0,nan,0.0,0.0,0.0,0,4,1,1,1,31,0,0,0
484621899,0,37.4559639,126.95429229999999,172.18,190.637,1725537610799868,11141125,0.30900002,0.14475167,0.96000004,1.3260001,0.53,0.78,66,8,2.6780002,-1.889,-1.899,0.37600002,3.9295087,0,nan,0.0,0.0,0.0,0,4,1,1,1,31,0,0,0
484718786,0,37.4559621,126.9542903,172.154,190.611,1725537610899868,11141125,0.30800003,0.14418793,0.961,1.3260001,0.53,0.78,66,8,2.686,-2.0570002,-1.7270001,0.37300003,3.8401368,0,nan,0.0,0.0,0.0,0,4,1,1,1,31,0,0,0
484828784,0,37.4559603,126.9542884,172.123,190.58,1725537610999869,11141125,0.305,0.14445688,0.961,1.3260001,0.53,0.78,66,21,2.6820002,-1.9920001,-1.7960001,0.333,3.8751893,0,nan,0.0,0.0,0.0,0,4,1,1,1,31,0,0,0
484917789,0,37.455958599999995,126.95428629999999,172.089,190.546,1725537611099868,11141125,0.30400002,0.14338961,0.961,1.3260001,0.53,0.78,66,21,2.6350002,-1.9020001,-1.8240001,0.39800003,3.9061964,0,nan,0.0,0.0,0.0,0,4,1,1,1,31,0,0,0
485020799,0,37.4559569,126.9542843,172.04500000000002,190.502,1725537611199868,11141125,0.30200002,0.1465087,0.961,1.3260001,0.53,0.78,66,21,2.5410001,-1.8460001,-1.746,0.42800003,3.8992805,0,nan,0.0,0.0,0.0,0,4,1,1,1,31,0,0,0
485119784,0,37.4559552,126.9542824,172.007,190.464,1725537611299868,11141125,0.305,0.15546905,0.961,1.3260001,0.53,0.78,66,21,2.516,-1.8010001,-1.7580001,0.41400003,3.9147727,0,nan,0.0,0.0,0.0,0,4,1,1,1,31,0,0,0
485219783,0,37.4559536,126.95428039999999,171.974,190.431,1725537611399868,11141125,0.303,0.14903697,0.961,1.327,0.53,0.78,66,21,2.6680002,-1.9060001,-1.868,0.441,3.916927,0,nan,0.0,0.0,0.0,0,4,1,1,1,31,0,0,0
485319790,0,37.455951899999995,126.9542783,171.934,190.391,1725537611499868,11141125,0.3,0.1466225,0.9620001,1.3260001,0.53,0.78,66,21,2.6680002,-1.9190001,-1.853,0.42000002,3.9095283,0,nan,0.0,0.0,0.0,0,4,1,1,1,31,0,0,0
485423347,0,37.455950099999995,126.95427629999999,171.88400000000001,190.341,1725537611599868,11141125,0.30200002,0.14377795,0.9620001,1.3260001,0.53,0.78,66,21,2.664,-1.9890001,-1.7720001,0.425,3.8693132,0,nan,0.0,0.0,0.0,0,4,1,1,1,31,0,0,0
485521783,0,37.455948299999996,126.95427409999999,171.826,190.282,1725537611699868,11141125,0.30100003,0.13401686,0.9620001,1.3260001,0.53,0.78,66,21,2.9080002,-2.0730002,-2.039,0.48600003,3.9187894,0,nan,0.0,0.0,0.0,0,4,1,1,1,31,0,0,0
485626018,0,37.455946399999995,126.95427199999999,171.781,190.238,1725537611799868,11141125,0.305,0.13764468,0.9620001,1.3260001,0.53,0.78,66,21,2.8260002,-2.124,-1.8650001,0.47300002,3.8622007,0,nan,0.0,0.0,0.0,0,4,1,1,1,31,0,0,0
485727785,0,37.4559444,126.9542699,171.735,190.192,1725537611899868,11141125,0.30800003,0.12922,0.9620001,1.3260001,0.53,0.78,66,21,2.9650002,-2.302,-1.8690001,0.44400004,3.82351,0,nan,0.0,0.0,0.0,0,4,1,1,1,31,0,0,0
485829785,0,37.4559424,126.9542678,171.71,190.167,1725537611999869,11141125,0.30800003,0.13174024,0.96300006,1.3260001,0.53,0.78,66,17,2.956,-2.174,-2.002,0.307,3.8858871,0,nan,0.0,0.0,0.0,0,4,1,1,1,31,0,0,0
485926783,0,37.455940399999996,126.9542656,171.661,190.118,1725537612099868,11141125,0.30800003,0.13627198,0.96300006,1.3260001,0.53,0.78,66,17,2.857,-2.131,-1.9030001,0.36400002,3.8704596,0,nan,0.0,0.0,0.0,0,4,1,1,1,31,0,0,0
486021783,0,37.455938499999995,126.9542635,171.615,190.072,1725537612199868,11141125,0.312,0.13423519,0.96300006,1.327,0.53,0.78,66,17,2.8950002,-2.1890001,-1.8960001,0.44900003,3.855413,0,nan,0.0,0.0,0.0,0,4,1,1,1,31,0,0,0
486119783,0,37.4559365,126.9542614,171.564,190.02100000000002,1725537612299868,11141125,0.31,0.13379711,0.96400005,1.327,0.53,0.78,66,17,2.881,-2.1820002,-1.8820001,0.42600003,3.8533142,0,nan,0.0,0.0,0.0,0,4,1,1,1,31,0,0,0
486219783,0,37.4559346,126.9542594,171.529,189.986,1725537612399868,11141125,0.30900002,0.13750541,0.96400005,1.327,0.53,0.78,66,17,2.7640002,-2.19,-1.6860001,0.46,3.7977936,0,nan,0.0,0.0,0.0,0,4,1,1,1,31,0,0,0
486320795,0,37.4559327,126.95425739999999,171.482,189.939,1725537612499868,11141125,0.307,0.1368448,0.96400005,1.327,0.53,0.78,66,17,2.762,-2.012,-1.8920001,0.43600002,3.8961124,0,nan,0.0,0.0,0.0,0,4,1,1,1,31,0,0,0
486419785,0,37.4559309,126.9542554,171.42600000000002,189.883,1725537612599868,11141125,0.307,0.14615421,0.96400005,1.327,0.53,0.78,66,17,2.6490002,-2.0080001,-1.728,0.455,3.8521802,0,nan,0.0,0.0,0.0,0,4,1,1,1,31,0,0,0
486519813,0,37.4559291,126.9542535,171.392,189.84900000000002,1725537612699868,11141125,0.30800003,0.151423,0.96400005,1.3260001,0.53,0.78,66,17,2.5400002,-1.9530001,-1.623,0.39200002,3.8351119,0,nan,0.0,0.0,0.0,0,4,1,1,1,31,0,0,0
486619786,0,37.4559275,126.9542517,171.355,189.812,1725537612799868,11141125,0.31,0.15934123,0.96400005,1.3260001,0.53,0.78,66,17,2.397,-1.7810001,-1.605,0.40300003,3.8751984,0,nan,0.0,0.0,0.0,0,4,1,1,1,31,0,0,0
486713784,0,37.4559259,126.9542499,171.322,189.779,1725537612899868,11141125,0.307,0.16171104,0.96500003,1.3260001,0.53,0.78,66,17,2.3830001,-1.733,-1.6350001,0.469,3.8981361,0,nan,0.0,0.0,0.0,0,4,1,1,1,31,0,0,0
486828889,0,37.4559244,126.9542481,171.272,189.729,1725537612999869,11141125,0.314,0.17099863,0.96500003,1.3260001,0.53,0.78,66,7,2.292,-1.7060001,-1.531,0.462,3.8729596,0,nan,0.0,0.0,0.0,0,4,1,1,1,31,0,0,0
486920784,0,37.4559229,126.95424639999999,171.233,189.69,1725537613099868,11141125,0.30600002,0.17652276,0.96500003,1.327,0.53,0.78,66,7,2.1460001,-1.5120001,-1.5230001,0.39000002,3.930668,0,nan,0.0,0.0,0.0,0,4,1,1,1,31,0,0,0
487020786,0,37.455921599999996,126.95424469999999,171.19,189.647,1725537613199868,11141125,0.30400002,0.17973278,0.96500003,1.327,0.53,0.78,66,7,2.062,-1.4430001,-1.473,0.42200002,3.937486,0,nan,0.0,0.0,0.0,0,4,1,1,1,31,0,0,0
487120146,0,37.4559204,126.9542431,171.148,189.605,1725537613299868,11141125,0.305,0.19753216,0.96500003,1.327,0.53,0.78,66,7,1.9590001,-1.394,-1.376,0.45400003,3.9203835,0,nan,0.0,0.0,0.0,0,4,1,1,1,31,0,0,0
487221783,0,37.4559192,126.9542415,171.121,189.577,1725537613399868,11141125,0.30900002,0.20464492,0.96500003,1.327,0.53,0.78,66,7,1.894,-1.213,-1.455,0.39900002,4.0171485,0,nan,0.0,0.0,0.0,0,4,1,1,1,31,0,0,0
487319798,0,37.4559182,126.95424,171.089,189.546,1725537613499867,11141125,0.296,0.20891556,0.96500003,1.327,0.53,0.78,66,7,1.7390001,-1.159,-1.297,0.33100003,3.9828684,0,nan,0.0,0.0,0.0,0,4,1,1,1,31,0,0,0
487421197,0,37.455917299999996,126.9542386,171.031,189.488,1725537613599867,11141125,0.296,0.2511398,0.96500003,1.327,0.53,0.78,66,7,1.4920001,-0.90500003,-1.1860001,0.42400002,4.060488,0,nan,0.0,0.0,0.0,0,4,1,1,1,31,0,0,0
487521785,0,37.4559165,126.95423729999999,171.008,189.465,1725537613699867,11141125,0.29900002,0.26466906,0.96500003,1.327,0.53,0.78,66,7,1.4030001,-0.87700003,-1.0960001,0.39800003,4.037424,0,nan,0.0,0.0,0.0,0,4,1,1,1,31,0,0,0
487616784,0,37.4559158,126.954236,170.96800000000002,189.425,1725537613799867,11141125,0.29500002,0.29700634,0.96500003,1.327,0.53,0.78,66,7,1.2870001,-0.70000005,-1.08,0.43600002,4.1371965,0,nan,0.0,0.0,0.0,0,4,1,1,1,31,0,0,0
487722784,0,37.4559153,126.95423489999999,170.90800000000002,189.365,1725537613899867,11141125,0.29500002,0.3270616,0.96500003,1.327,0.53,0.78,66,7,1.1650001,-0.60800004,-0.994,0.42100003,4.163359,0,nan,0.0,0.0,0.0,0,4,1,1,1,31,0,0,0
487833783,0,37.455914799999995,126.95423389999999,170.824,189.281,1725537613999868,11141125,0.29700002,0.31149328,0.96500003,1.3260001,0.53,0.78,66,19,1.195,-0.652,-1.0020001,0.48700002,4.1356225,0,nan,0.0,0.0,0.0,0,4,1,1,1,31,0,0,0
487929783,0,37.4559144,126.95423269999999,170.774,189.231,1725537614099867,11141125,0.31100002,0.30759054,0.96500003,1.3260001,0.53,0.78,66,19,1.212,-0.43500003,-1.131,0.38300002,4.3450637,0,nan,0.0,0.0,0.0,0,4,1,1,1,31,0,0,0
488025817,0,37.4559141,126.95423149999999,170.714,189.171,1725537614199867,11141125,0.31500003,0.33657452,0.96500003,1.3260001,0.53,0.78,66,19,1.113,-0.36600003,-1.052,0.49100003,4.3775506,0,nan,0.0,0.0,0.0,0,4,1,1,1,31,0,0,0
488125781,0,37.4559139,126.95423029999999,170.674,189.131,1725537614299867,11141125,0.32900003,0.3355671,0.96500003,1.325,0.53,0.78,66,19,1.103,-0.22600001,-1.079,0.34500003,4.505903,0,nan,0.0,0.0,0.0,0,4,1,1,1,31,0,0,0
488222014,0,37.4559138,126.954229,170.597,189.054,1725537614399867,11141125,0.328,0.30701965,0.96500003,1.325,0.53,0.78,66,19,1.194,-0.19600001,-1.1780001,0.46,4.5475945,0,nan,0.0,0.0,0.0,0,4,1,1,1,31,0,0,0
488320783,0,37.4559138,126.9542276,170.56,189.017,1725537614499867,11141125,0.33400002,0.2690076,0.96500003,1.3230001,0.53,0.78,66,19,1.319,0.029000001,-1.3180001,0.34800002,4.734224,0,nan,0.0,0.0,0.0,0,4,1,1,1,31,0,0,0
488421784,0,37.4559139,126.9542262,170.529,188.986,1725537614599867,11141125,0.33800003,0.2688802,0.96500003,1.322,0.53,0.78,66,19,1.335,0.026,-1.335,0.305,4.7318125,0,nan,0.0,0.0,0.0,0,4,1,1,1,31,0,0,0
488514783,0,37.455914,126.9542247,170.478,188.935,1725537614699867,11141125,0.33900002,0.26420078,0.96500003,1.322,0.53,0.78,66,19,1.3640001,0.05,-1.363,0.39100003,4.749095,0,nan,0.0,0.0,0.0,0,4,1,1,1,31,0,0,0
488621783,0,37.455914199999995,126.9542231,170.427,188.88400000000001,1725537614799867,11141125,0.33800003,0.24956147,0.96500003,1.322,0.53,0.78,66,19,1.4260001,0.119,-1.4210001,0.33400002,4.7960596,0,nan,0.0,0.0,0.0,0,4,1,1,1,31,0,0,0
488721791,0,37.4559144,126.9542216,170.376,188.833,1725537614899867,11141125,0.347,0.2600155,0.96500003,1.322,0.53,0.78,66,19,1.3520001,0.201,-1.337,0.28800002,4.8619437,0,nan,0.0,0.0,0.0,0,4,1,1,1,31,0,0,0
488830782,0,37.4559146,126.9542202,170.33700000000002,188.794,1725537614999868,11141125,0.35200003,0.28247613,0.96500003,1.322,0.53,0.78,66,10,1.291,0.22900002,-1.271,0.344,4.890946,0,nan,0.0,0.0,0.0,0,4,1,1,1,31,0,0,0
488921985,0,37.455914899999996,126.95421879999999,170.299,188.756,1725537615099867,11141125,0.358,0.29119718,0.96500003,1.322,0.53,0.78,66,10,1.2110001,0.15900001,-1.2010001,0.36100003,4.8438554,0,nan,0.0,0.0,0.0,0,4,1,1,1,31,0,0,0
489021782,0,37.4559151,126.95421739999999,170.25300000000001,188.71,1725537615199867,11141125,0.35200003,0.26874563,0.96500003,1.322,0.53,0.78,66,10,1.302,0.245,-1.279,0.31800002,4.90195,0,nan,0.0,0.0,0.0,0,4,1,1,1,31,0,0,0
489119783,0,37.455915399999995,126.95421599999999,170.198,188.654,1725537615299867,11141125,0.347,0.26193342,0.96500003,1.322,0.53,0.78,66,10,1.3280001,0.26700002,-1.3010001,0.39100003,4.9148397,0,nan,0.0,0.0,0.0,0,4,1,1,1,31,0,0,0
489219784,0,37.4559157,126.9542146,170.162,188.619,1725537615399867,11141125,0.35200003,0.2941927,0.96500003,1.3230001,0.53,0.78,66,10,1.1830001,0.261,-1.154,0.286,4.934573,0,nan,0.0,0.0,0.0,0,4,1,1,1,31,0,0,0
489323783,0,37.4559159,126.9542134,170.118,188.57500000000002,1725537615499867,11141125,0.35500002,0.3202056,0.96500003,1.3230001,0.53,0.78,66,10,1.095,0.208,-1.075,0.27800003,4.903915,0,nan,0.0,0.0,0.0,0,4,1,1,1,31,0,0,0
489417791,0,37.4559162,126.9542122,170.071,188.52700000000002,1725537615599867,11141125,0.35500002,0.3159271,0.96500003,1.3230001,0.53,0.78,66,10,1.1060001,0.26000002,-1.074,0.33600003,4.9499116,0,nan,0.0,0.0,0.0,0,4,1,1,1,31,0,0,0
489523782,0,37.4559164,126.954211,170.036,188.493,1725537615699867,11141125,0.356,0.33626422,0.96500003,1.3230001,0.53,0.78,66,10,1.036,0.23600002,-1.0090001,0.296,4.942243,0,nan,0.0,0.0,0.0,0,4,1,1,1,31,0,0,0
489624842,0,37.455916699999996,126.9542098,170.004,188.461,1725537615799867,11141125,0.36600003,0.32787386,0.966,1.3240001,0.53,0.78,66,10,1.0680001,0.256,-1.0370001,0.402,4.954882,0,nan,0.0,0.0,0.0,0,4,1,1,1,31,0,0,0
489722785,0,37.4559169,126.9542087,169.989,188.446,1725537615899867,11141125,0.365,0.37114093,0.966,1.3240001,0.53,0.78,66,10,0.95100003,0.18200001,-0.934,0.356,4.905004,0,nan,0.0,0.0,0.0,0,4,1,1,1,31,0,0,0
489833790,0,37.4559171,126.95420759999999,169.95000000000002,188.407,1725537615999868,11141125,0.356,0.3251571,0.966,1.325,0.53,0.78,66,8,1.065,0.231,-1.0400001,0.326,4.9309998,0,nan,0.0,0.0,0.0,0,4,1,1,1,31,0,0,0
489926783,0,37.455917299999996,126.9542065,169.905,188.362,1725537616099867,11141125,0.36100003,0.33357027,0.966,1.325,0.53,0.78,66,8,1.0250001,0.30400002,-0.97900003,0.30600002,5.0135546,0,nan,0.0,0.0,0.0,0,4,1,1,1,31,0,0,0
490020784,0,37.4559176,126.95420539999999,169.855,188.312,1725537616199866,11141125,0.36400002,0.36747608,0.966,1.325,0.53,0.78,66,8,0.9480001,0.24400002,-0.91600007,0.305,4.9730186,0,nan,0.0,0.0,0.0,0,4,1,1,1,31,0,0,0
490119790,0,37.4559178,126.95420449999999,169.808,188.264,1725537616299866,11141125,0.36,0.3965913,0.966,1.3260001,0.53,0.78,66,8,0.88100004,0.16600001,-0.86600006,0.35000002,4.9014053,0,nan,0.0,0.0,0.0,0,4,1,1,1,31,0,0,0
490224900,0,37.4559181,126.95420349999999,169.756,188.21200000000002,1725537616399866,11141125,0.367,0.34600854,0.966,1.3260001,0.53,0.78,66,8,0.97800004,0.326,-0.92200005,0.388,5.0522456,0,nan,0.0,0.0,0.0,0,4,1,1,1,31,0,0,0
490316785,0,37.4559184,126.9542025,169.715,188.172,1725537616499866,11141125,0.36,0.35208002,0.966,1.3260001,0.53,0.78,66,8,0.96500003,0.282,-0.92300004,0.32500002,5.008743,0,nan,0.0,0.0,0.0,0,4,1,1,1,31,0,0,0
490423410,0,37.4559187,126.9542015,169.672,188.129,1725537616599866,11141125,0.356,0.35782057,0.966,1.327,0.53,0.78,66,8,0.96400005,0.23200001,-0.93500006,0.34600002,4.9556947,0,nan,0.0,0.0,0.0,0,4,1,1,1,31,0,0,0
490522783,0,37.4559189,126.9542005,169.644,188.101,1725537616699866,11141125,0.365,0.42175162,0.966,1.327,0.53,0.78,66,8,0.82000005,0.202,-0.795,0.33400002,4.961036,0,nan,0.0,0.0,0.0,0,4,1,1,1,31,0,0,0
490619784,0,37.4559192,126.95419969999999,169.611,188.068,1725537616799866,11141125,0.37100002,0.4072691,0.96700007,1.327,0.53,0.78,66,8,0.83900005,0.263,-0.79700005,0.289,5.0312905,0,nan,0.0,0.0,0.0,0,4,1,1,1,31,0,0,0
490720783,0,37.4559194,126.9541988,169.572,188.029,1725537616899866,11141125,0.367,0.43653703,0.96700007,1.3280001,0.53,0.78,66,8,0.781,0.245,-0.74200004,0.287,5.0311475,0,nan,0.0,0.0,0.0,0,4,1,1,1,31,0,0,0
490829783,0,37.455919699999995,126.95419799999999,169.537,187.993,1725537616999867,11141125,0.36600003,0.40442437,0.96700007,1.3280001,0.53,0.78,66,18,0.859,0.231,-0.82800007,0.30900002,4.9843535,0,nan,0.0,0.0,0.0,0,4,1,1,1,31,0,0,0
490920784,0,37.4559199,126.95419709999999,169.51500000000001,187.972,1725537617099866,11141125,0.365,0.46233037,0.96700007,1.3290001,0.53,0.78,66,18,0.73800004,0.20500001,-0.70900005,0.284,4.99335,0,nan,0.0,0.0,0.0,0,4,1,1,1,31,0,0,0
491021783,0,37.4559201,126.95419629999999,169.473,187.929,1725537617199866,11141125,0.36900002,0.44347733,0.96700007,1.3290001,0.53,0.78,66,18,0.77800006,0.21200001,-0.749,0.272,4.987682,0,nan,0.0,0.0,0.0,0,4,1,1,1,31,0,0,0
491120918,0,37.4559204,126.9541955,169.436,187.892,1725537617299866,11141125,0.37500003,0.4155203,0.96700007,1.3290001,0.53,0.78,66,18,0.80200005,0.30200002,-0.74300003,0.35700002,5.098333,0,nan,0.0,0.0,0.0,0,4,1,1,1,31,0,0,0
491213809,0,37.4559206,126.95419469999999,169.393,187.84900000000002,1725537617399866,11141125,0.365,0.45293266,0.96700007,1.3290001,0.53,0.78,66,18,0.762,0.193,-0.73700005,0.273,4.968235,0,nan,0.0,0.0,0.0,0,4,1,1,1,31,0,0,0
491320785,0,37.4559208,126.95419389999999,169.369,187.826,1725537617499866,11141125,0.36100003,0.44324085,0.96700007,1.33,0.53,0.78,66,18,0.79200006,0.15,-0.77800006,0.257,4.90357,0,nan,0.0,0.0,0.0,0,4,1,1,1,31,0,0,0
491422178,0,37.455921,126.9541931,169.332,187.78900000000002,1725537617599866,11141125,0.37,0.45137304,0.96800005,1.33,0.53,0.78,66,18,0.76400006,0.26200002,-0.717,0.25300002,5.062753,0,nan,0.0,0.0,0.0,0,4,1,1,1,31,0,0,0
491520785,0,37.4559213,126.95419229999999,169.297,187.754,1725537617699866,11141125,0.372,0.45934045,0.96800005,1.33,0.53,0.78,66,18,0.74,0.277,-0.68600005,0.24000001,5.0963545,0,nan,0.0,0.0,0.0,0,4,1,1,1,31,0,0,0
491620799,0,37.455921499999995,126.95419159999999,169.256,187.713,1725537617799866,11141125,0.374,0.5185874,0.96800005,1.3310001,0.53,0.78,66,18,0.67700005,0.20500001,-0.64500004,0.256,5.0207562,0,nan,0.0,0.0,0.0,0,4,1,1,1,31,0,0,0
491720802,0,37.4559217,126.9541909,169.235,187.691,1725537617899866,11141125,0.36400002,0.55120236,0.96800005,1.3310001,0.53,0.78,66,18,0.643,0.17,-0.62,0.26700002,4.980293,0,nan,0.0,0.0,0.0,0,4,1,1,1,31,0,0,0
491827784,0,37.4559219,126.9541902,169.203,187.66,1725537617999867,11141125,0.363,0.61199427,0.96800005,1.332,0.53,0.78,66,15,0.577,0.16600001,-0.55200005,0.256,5.0037804,0,nan,0.0,0.0,0.0,0,4,1,1,1,31,0,0,0
491923797,0,37.455922099999995,126.9541895,169.167,187.624,1725537618099866,11141125,0.35500002,0.54293334,0.96800005,1.3330001,0.53,0.78,66,15,0.63900006,0.19600001,-0.60800004,0.277,5.023435,0,nan,0.0,0.0,0.0,0,4,1,1,1,31,0,0,0
492020797,0,37.455922199999996,126.95418889999999,169.143,187.59900000000002,1725537618199866,11141125,0.354,0.6134839,0.96800005,1.3330001,0.53,0.78,66,15,0.57900006,0.127,-0.565,0.29200003,4.9342804,0,nan,0.0,0.0,0.0,0,4,1,1,1,31,0,0,0
492114995,0,37.4559224,126.9541883,169.105,187.562,1725537618299866,11141125,0.36800003,0.7358811,0.96800005,1.3340001,0.53,0.78,66,15,0.46800002,0.18400002,-0.43,0.31300002,5.117797,0,nan,0.0,0.0,0.0,0,4,1,1,1,31,0,0,0
492219784,0,37.4559226,126.9541879,169.078,187.535,1725537618399866,11141125,0.365,0.8263979,0.96800005,1.3340001,0.53,0.78,66,15,0.411,0.18200001,-0.36800003,0.33900002,5.03674,0,nan,0.0,0.0,0.0,0,4,1,1,1,31,0,0,0
492318789,0,37.455922699999995,126.95418749999999,169.06,187.517,1725537618499866,11141125,0.34800002,1.0361165,0.96800005,1.335,0.53,0.78,66,15,0.36,0.056,-0.356,0.21700001,5.03674,0,nan,0.0,0.0,0.0,0,4,1,1,1,31,0,0,0
492418791,0,37.455922699999995,126.95418719999999,169.04500000000002,187.501,1725537618599866,11141125,0.35000002,2.2608223,0.96900004,1.335,0.53,0.78,66,15,0.157,0.049000002,-0.149,0.186,5.03674,0,nan,0.0,0.0,0.0,0,4,1,1,1,31,0,0,0
492519783,0,37.455922699999995,126.9541871,169.023,187.48,1725537618699866,11141125,0.317,3.1415925,0.96900004,1.3360001,0.53,0.78,66,15,0.11100001,-0.030000001,-0.10700001,0.27,5.03674,0,nan,0.0,0.0,0.0,0,4,1,1,1,31,0,0,0
492620782,0,37.455922699999995,126.95418699999999,168.993,187.45000000000002,1725537618799866,11141125,0.307,3.1415925,0.96900004,1.3360001,0.53,0.78,66,15,0.068,-0.051000003,-0.046000004,0.30200002,5.03674,0,nan,0.0,0.0,0.0,0,4,1,1,1,31,0,0,0
492719783,0,37.455922699999995,126.95418699999999,168.967,187.424,1725537618899865,11141125,0.32000002,3.1415925,0.96900004,1.337,0.53,0.78,66,15,0.087000005,-0.009000001,-0.086,0.26900002,5.03674,0,nan,0.0,0.0,0.0,0,4,1,1,1,31,0,0,0
492827849,0,37.455922699999995,126.9541869,168.945,187.401,1725537618999866,11141125,0.32200003,3.1415925,0.96900004,1.337,0.53,0.78,66,4,0.076000005,-0.002,-0.076000005,0.22700001,5.03674,0,nan,0.0,0.0,0.0,0,4,1,1,1,31,0,0,0
492922783,0,37.455922699999995,126.95418679999999,168.92000000000002,187.376,1725537619099865,11141125,0.323,3.1415925,0.96900004,1.338,0.53,0.78,66,4,0.040000003,0.031000001,-0.026,0.238,5.03674,0,nan,0.0,0.0,0.0,0,4,1,1,1,31,0,0,0
493012911,0,37.455922799999996,126.9541869,168.889,187.346,1725537619199865,11141125,0.31800002,3.1415925,0.96900004,1.338,0.53,0.78,66,4,0.043,0.040000003,0.017,0.23600002,5.03674,0,nan,0.0,0.0,0.0,0,4,1,1,1,31,0,0,0
493119073,0,37.4559229,126.95418679999999,168.866,187.323,1725537619299865,11141125,0.33900002,3.1415925,0.96900004,1.338,0.53,0.78,66,4,0.112,0.017,-0.11000001,0.19000001,5.03674,0,nan,0.0,0.0,0.0,0,4,1,1,1,31,0,0,0
493217791,0,37.4559229,126.9541867,168.83700000000002,187.294,1725537619399865,11141125,0.36200002,2.8874297,0.97,1.3390001,0.53,0.78,66,4,0.11800001,0.047000002,-0.109000005,0.142,5.03674,0,nan,0.0,0.0,0.0,0,4,1,1,1,31,0,0,0
493317782,0,37.4559231,126.95418649999999,168.808,187.26500000000001,1725537619499865,11141125,0.37100002,1.5657427,0.97,1.3390001,0.53,0.78,66,4,0.22000001,0.078,-0.20600002,0.19000001,5.03674,0,nan,0.0,0.0,0.0,0,4,1,1,1,31,0,0,0
493417784,0,37.4559232,126.95418629999999,168.77100000000002,187.228,1725537619599865,11141125,0.36400002,1.417432,0.97,1.3390001,0.53,0.78,66,4,0.23700002,0.108,-0.21100001,0.23900001,5.03674,0,nan,0.0,0.0,0.0,0,4,1,1,1,31,0,0,0
493517974,0,37.455923299999995,126.9541861,168.75300000000001,187.21,1725537619699865,11141125,0.372,1.361643,0.97,1.34,0.53,0.78,66,4,0.25,0.116000004,-0.22100002,0.171,5.03674,0,nan,0.0,0.0,0.0,0,4,1,1,1,31,0,0,0
493617792,0,37.4559235,126.9541859,168.724,187.181,1725537619799865,11141125,0.37600002,1.7943472,0.97,1.3410001,0.53,0.78,66,4,0.186,0.095000006,-0.16000001,0.14,5.03674,0,nan,0.0,0.0,0.0,0,4,1,1,1,31,0,0,0
493718784,0,37.4559236,126.95418579999999,168.711,187.168,1725537619899865,11141125,0.35900003,2.9503646,0.97,1.3410001,0.53,0.78,66,4,0.112,0.055000003,-0.097,0.125,5.03674,0,nan,0.0,0.0,0.0,0,4,1,1,1,31,0,0,0
493827350,0,37.4559237,126.95418579999999,168.693,187.15,1725537619999866,11141125,0.30100003,3.1415925,0.97,1.3410001,0.53,0.78,66,14,0.036000002,0.0050000004,0.036000002,0.147,5.03674,0,nan,0.0,0.0,0.0,0,4,1,1,1,31,0,0,0
493912783,0,37.4559237,126.9541859,168.663,187.12,1725537620099865,11141125,0.30100003,2.3193202,0.97,1.34,0.53,0.78,66,14,0.13100001,-0.1,0.085,0.20700002,5.03674,0,nan,0.0,0.0,0.0,0,4,1,1,1,31,0,0,0
494019796,0,37.4559236,126.9541861,168.643,187.1,1725537620199865,11141125,0.303,1.8009187,0.97,1.34,0.53,0.78,66,14,0.19100001,-0.063,0.18,0.17300001,5.03674,0,nan,0.0,0.0,0.0,0,4,1,1,1,31,0,0,0
494119784,0,37.4559236,126.95418629999999,168.632,187.089,1725537620299865,11141125,0.307,1.9110684,0.97,1.34,0.53,0.78,66,14,0.165,-0.1,0.13100001,0.19700001,5.03674,0,nan,0.0,0.0,0.0,0,4,1,1,1,31,0,0,0
494217783,0,37.4559236,126.9541864,168.601,187.058,1725537620399865,11141125,0.298,3.1415925,0.97,1.34,0.53,0.78,66,14,0.081,-0.044000003,0.068,0.128,5.03674,0,nan,0.0,0.0,0.0,0,4,1,1,1,31,0,0,0
494319418,0,37.4559237,126.95418649999999,168.59,187.047,1725537620499865,11141125,0.287,3.1415925,0.97,1.34,0.53,0.78,66,14,0.117000006,0.040000003,0.11000001,0.11000001,5.03674,0,nan,0.0,0.0,0.0,0,4,1,1,1,31,0,0,0
494418783,0,37.4559237,126.9541866,168.565,187.02100000000002,1725537620599865,11141125,0.29000002,3.1415925,0.97,1.3390001,0.53,0.78,66,14,0.057000004,-0.028,0.05,0.13800001,5.03674,0,nan,0.0,0.0,0.0,0,4,1,1,1,31,0,0,0
494517786,0,37.4559237,126.95418679999999,168.55,187.007,1725537620699865,11141125,0.30600002,2.406003,0.97,1.3390001,0.53,0.78,66,14,0.13900001,-0.053000003,0.12900001,0.101,5.03674,0,nan,0.0,0.0,0.0,0,4,1,1,1,31,0,0,0
494618785,0,37.4559237,126.9541869,168.535,186.992,1725537620799865,11141125,0.32900003,2.421082,0.97,1.338,0.53,0.78,66,14,0.12100001,-0.10300001,0.064,0.091000006,5.03674,0,nan,0.0,0.0,0.0,0,4,1,1,1,31,0,0,0
494717831,0,37.4559237,126.95418699999999,168.529,186.986,1725537620899865,11141125,0.30100003,3.1415925,0.97,1.338,0.53,0.78,66,14,0.082,-0.052,0.063,0.1,5.03674,0,nan,0.0,0.0,0.0,0,4,1,1,1,31,0,0,0
494817782,0,37.4559237,126.9541871,168.519,186.976,1725537620999866,11141125,0.29900002,3.1415925,0.97,1.338,0.53,0.78,66,10,0.082,-0.034,0.074,0.10700001,5.03674,0,nan,0.0,0.0,0.0,0,4,1,1,1,31,0,0,0
494918784,0,37.4559238,126.95418719999999,168.496,186.953,1725537621099865,11141125,0.312,2.780502,0.97,1.337,0.53,0.78,66,10,0.112,-0.066,0.09,0.12900001,5.03674,0,nan,0.0,0.0,0.0,0,4,1,1,1,31,0,0,0
495019783,0,37.4559238,126.9541873,168.476,186.933,1725537621199865,11141125,0.30200002,3.1415925,0.97,1.337,0.53,0.78,66,10,0.063,-0.043,-0.046000004,0.069000006,5.03674,0,nan,0.0,0.0,0.0,0,4,1,1,1,31,0,0,0
495117783,0,37.4559238,126.9541873,168.453,186.91,1725537621299865,11141125,0.31,3.1415925,0.97,1.337,0.53,0.78,66,10,0.033,-0.033,0.001,0.047000002,5.03674,0,nan,0.0,0.0,0.0,0,4,1,1,1,31,0,0,0
495217783,0,37.455923899999995,126.9541874,168.437,186.894,1725537621399865,11141125,0.31500003,3.1415925,0.9710001,1.3360001,0.53,0.78,66,10,0.045,0.039,0.022000002,0.096,5.03674,0,nan,0.0,0.0,0.0,0,4,1,1,1,31,0,0,0
495318786,0,37.455923999999996,126.9541874,168.417,186.874,1725537621499865,11141125,0.305,3.1415925,0.9710001,1.3360001,0.53,0.78,66,10,0.008,-0.004,-0.008,0.062000003,5.03674,0,nan,0.0,0.0,0.0,0,4,1,1,1,31,0,0,0
495416835,0,37.4559241,126.95418749999999,168.398,186.854,1725537621599865,11141125,0.303,3.1415925,0.97200006,1.3360001,0.53,0.78,66,10,0.086,0.053000003,0.068,0.014,5.03674,0,nan,0.0,0.0,0.0,0,4,1,1,1,31,0,0,0
495518795,0,37.4559242,126.95418769999999,168.388,186.845,1725537621699864,11141125,0.37500003,3.1415925,0.97200006,1.3360001,0.53,0.78,66,10,0.083000004,-0.022000002,0.080000006,-0.060000002,5.03674,0,nan,0.0,0.0,0.0,0,4,1,1,1,31,0,0,0
495619785,0,37.4559242,126.9541878,168.392,186.848,1725537621799864,11141125,0.37300003,3.1415925,0.97200006,1.3360001,0.53,0.78,66,10,0.11400001,-0.026,0.11100001,-0.135,5.03674,0,nan,0.0,0.0,0.0,0,4,1,1,1,31,0,0,0
495711864,0,37.4559242,126.95418799999999,168.377,186.834,1725537621899864,11141125,0.42100003,2.1755445,0.97300005,1.3360001,0.53,0.78,66,10,0.148,-0.087000005,0.120000005,-0.002,5.03674,0,nan,0.0,0.0,0.0,0,4,1,1,1,31,0,0,0
495827783,0,37.4559242,126.95418819999999,168.373,186.83,1725537621999865,11141125,0.41200003,2.1179976,0.97400004,1.3360001,0.53,0.78,70,18,0.163,-0.067,0.148,-0.042000003,5.03674,0,nan,0.0,0.0,0.0,0,4,1,1,1,31,0,0,0
495923782,0,37.4559242,126.95418839999999,168.368,186.82500000000002,1725537622099864,11141125,0.39600003,1.625047,0.97400004,1.3360001,0.53,0.78,70,18,0.21000001,-0.082,0.193,0.003,5.03674,0,nan,0.0,0.0,0.0,0,4,1,1,1,31,0,0,0
496017782,0,37.4559242,126.95418869999999,168.351,186.808,1725537622199864,11141125,0.38200003,1.6395179,0.975,1.3360001,0.53,0.78,70,18,0.194,-0.11100001,0.15900001,0.053000003,5.03674,0,nan,0.0,0.0,0.0,0,4,1,1,1,31,0,0,0
496116785,0,37.4559242,126.954189,168.33,186.786,1725537622299864,11141125,0.395,1.3135546,0.975,1.3360001,0.53,0.78,70,18,0.24800001,-0.134,0.208,0.037,5.03674,0,nan,0.0,0.0,0.0,0,4,1,1,1,31,0,0,0
496217783,0,37.4559241,126.95418919999999,168.31,186.767,1725537622399864,11141125,0.39000002,1.7409419,0.9760001,1.3360001,0.53,0.78,70,18,0.18800001,-0.1,0.15900001,0.031000001,5.03674,0,nan,0.0,0.0,0.0,0,4,1,1,1,31,0,0,0
496317938,0,37.4559241,126.95418939999999,168.311,186.767,1725537622499864,11141125,0.386,2.5258024,0.9760001,1.3360001,0.53,0.78,70,18,0.142,-0.056,0.13000001,0.006,5.03674,0,nan,0.0,0.0,0.0,0,4,1,1,1,31,0,0,0
496418782,0,37.4559241,126.95418959999999,168.312,186.769,1725537622599864,11141125,0.384,2.1709924,0.97700006,1.3360001,0.53,0.78,70,18,0.172,-0.039,0.16800001,-0.07,5.03674,0,nan,0.0,0.0,0.0,0,4,1,1,1,31,0,0,0
496518336,0,37.455923999999996,126.9541898,168.31300000000002,186.77,1725537622699864,11141125,0.37100002,1.5144151,0.97800004,1.337,0.53,0.78,70,18,0.24000001,-0.066,0.231,-0.009000001,5.03674,0,nan,0.0,0.0,0.0,0,4,1,1,1,31,0,0,0
496611783,0,37.455923999999996,126.95419,168.318,186.774,1725537622799864,11141125,0.363,3.135681,0.97800004,1.337,0.53,0.78,70,18,0.120000005,-0.018000001,0.11800001,-0.029000001,5.03674,0,nan,0.0,0.0,0.0,0,4,1,1,1,31,0,0,0
496717782,0,37.455923999999996,126.9541902,168.32500000000002,186.781,1725537622899864,11141125,0.356,2.715933,0.97800004,1.337,0.53,0.78,70,18,0.14,-0.009000001,0.14,-0.046000004,5.03674,0,nan,0.0,0.0,0.0,0,4,1,1,1,31,0,0,0
496829351,0,37.455923999999996,126.95419039999999,168.318,186.775,1725537622999865,11141125,0.379,1.4734464,0.97900003,1.338,0.53,0.78,70,16,0.23400001,-0.104,0.21000001,0.042000003,5.03674,0,nan,0.0,0.0,0.0,0,4,1,1,1,31,0,0,0
496921832,0,37.455923999999996,126.95419059999999,168.323,186.779,1725537623099864,11141125,0.342,3.1415925,0.97900003,1.338,0.53,0.78,70,16,0.07700001,0.015000001,0.076000005,-0.039,5.03674,0,nan,0.0,0.0,0.0,0,4,1,1,1,31,0,0,0
497021784,0,37.455923999999996,126.9541907,168.30700000000002,186.764,1725537623199864,11141125,0.363,3.1415925,0.98,1.3390001,0.53,0.78,70,16,0.108,-0.016,0.106000006,-0.030000001,5.03674,0,nan,0.0,0.0,0.0,0,4,1,1,1,31,0,0,0
497121783,0,37.455923999999996,126.95419079999999,168.326,186.78300000000002,1725537623299864,11141125,0.36900002,3.1415925,0.98,1.3390001,0.53,0.78,70,16,0.10700001,-0.021000002,0.105000004,-0.07300001,5.03674,0,nan,0.0,0.0,0.0,0,4,1,1,1,31,0,0,0
497219782,0,37.455923999999996,126.954191,168.333,186.79,1725537623399864,11141125,0.34,3.1415925,0.98100007,1.3390001,0.53,0.78,70,16,0.124000005,0.018000001,0.123,-0.055000003,5.03674,0,nan,0.0,0.0,0.0,0,4,1,1,1,31,0,0,0
497319781,0,37.455923999999996,126.95419109999999,168.338,186.79500000000002,1725537623499864,11141125,0.409,3.1415925,0.98100007,1.3390001,0.53,0.78,70,16,0.054,-0.044000003,0.031000001,-0.006,5.03674,0,nan,0.0,0.0,0.0,0,4,1,1,1,31,0,0,0
497419794,0,37.455923999999996,126.95419109999999,168.345,186.802,1725537623599864,11141125,0.36400002,3.1415925,0.98100007,1.34,0.53,0.78,70,16,0.036000002,-0.036000002,0.002,-0.057000004,5.03674,0,nan,0.0,0.0,0.0,0,4,1,1,1,31,0,0,0
497512786,0,37.455923999999996,126.9541912,168.348,186.805,1725537623699864,11141125,0.319,3.1415925,0.98200005,1.34,0.53,0.78,70,16,0.014,-0.011000001,-0.008,-0.059000004,5.03674,0,nan,0.0,0.0,0.0,0,4,1,1,1,31,0,0,0
497617822,0,37.455923999999996,126.9541912,168.353,186.81,1725537623799864,11141125,0.30100003,3.1415925,0.98200005,1.34,0.53,0.78,70,16,0.027,0.010000001,-0.025,-0.043,5.03674,0,nan,0.0,0.0,0.0,0,4,1,1,1,31,0,0,0
497719782,0,37.4559241,126.95419109999999,168.344,186.8,1725537623899864,11141125,0.328,3.1415925,0.98200005,1.34,0.53,0.78,70,16,0.053000003,-0.007,-0.052,0.003,5.03674,0,nan,0.0,0.0,0.0,0,4,1,1,1,31,0,0,0
497828128,0,37.4559241,126.95419109999999,168.357,186.814,1725537623999865,11141125,0.37600002,3.1415925,0.98300004,1.3410001,0.53,0.78,71,11,0.038000003,-0.038000003,0.004,-0.048,5.03674,0,nan,0.0,0.0,0.0,0,4,1,1,1,31,0,0,0
497927782,0,37.4559241,126.9541912,168.357,186.814,1725537624099864,11141125,0.342,3.1415925,0.98300004,1.3410001,0.53,0.78,71,11,0.048,0.008,0.047000002,-0.038000003,5.03674,0,nan,0.0,0.0,0.0,0,4,1,1,1,31,0,0,0
498020785,0,37.4559241,126.9541912,168.352,186.809,1725537624199864,11141125,0.351,3.1415925,0.98300004,1.342,0.53,0.78,71,11,0.048,-0.001,0.048,-0.012,5.03674,0,nan,0.0,0.0,0.0,0,4,1,1,1,31,0,0,0
498119402,0,37.4559241,126.95419129999999,168.347,186.804,1725537624299864,11141125,0.38200003,3.1415925,0.98300004,1.342,0.53,0.78,71,11,0.054,-0.026,0.048,-0.05,5.03674,0,nan,0.0,0.0,0.0,0,4,1,1,1,31,0,0,0
498219782,0,37.4559241,126.95419129999999,168.354,186.811,1725537624399863,11141125,0.347,3.1415925,0.98300004,1.342,0.53,0.78,71,11,0.032,-0.029000001,-0.013,-0.036000002,5.03674,0,nan,0.0,0.0,0.0,0,4,1,1,1,31,0,0,0
498315383,0,37.4559242,126.95419129999999,168.35,186.80700000000002,1725537624499863,11141125,0.32000002,3.1415925,0.984,1.343,0.53,0.78,71,11,0.029000001,-0.018000001,-0.023000002,-0.021000002,5.03674,0,nan,0.0,0.0,0.0,0,4,1,1,1,31,0,0,0
498410783,0,37.4559242,126.9541914,168.35,186.806,1725537624599863,11141125,0.37,3.1415925,0.984,1.343,0.53,0.78,71,11,0.052,-0.015000001,0.05,-0.051000003,5.03674,0,nan,0.0,0.0,0.0,0,4,1,1,1,31,0,0,0
498516211,0,37.4559242,126.9541914,168.339,186.79500000000002,1725537624699863,11141125,0.34,3.1415925,0.984,1.3440001,0.53,0.78,71,11,0.021000002,-0.001,0.021000002,-0.046000004,5.03674,0,nan,0.0,0.0,0.0,0,4,1,1,1,31,0,0,0
498616818,0,37.4559242,126.9541914,168.332,186.78900000000002,1725537624799863,11141125,0.35000002,3.1415925,0.984,1.3440001,0.53,0.78,71,11,0.025,-0.024,-0.006,-0.038000003,5.03674,0,nan,0.0,0.0,0.0,0,4,1,1,1,31,0,0,0
498717420,0,37.4559243,126.9541914,168.33100000000002,186.787,1725537624899863,11141125,0.32500002,3.1415925,0.984,1.345,0.53,0.78,71,11,0.057000004,0.017,-0.054,-0.040000003,5.03674,0,nan,0.0,0.0,0.0,0,4,1,1,1,31,0,0,0
498824784,0,37.4559243,126.9541914,168.342,186.798,1725537624999864,11141125,0.31100002,3.1415925,0.9850001,1.345,0.53,0.78,71,15,0.039,0.017,-0.035,-0.045,5.03674,0,nan,0.0,0.0,0.0,0,4,1,1,1,31,0,0,0
498915783,0,37.4559244,126.95419129999999,168.323,186.78,1725537625099863,11141125,0.36100003,3.1415925,0.9850001,1.3460001,0.53,0.78,71,15,0.056,0.006,-0.056,0.018000001,5.03674,0,nan,0.0,0.0,0.0,0,4,1,1,1,31,0,0,0
499015790,0,37.4559244,126.95419129999999,168.318,186.775,1725537625199863,11141125,0.39800003,3.1415925,0.9850001,1.3460001,0.53,0.78,71,15,0.016,0.015000001,-0.006,0.0,5.03674,0,nan,0.0,0.0,0.0,0,4,1,1,1,31,0,0,0
499117786,0,37.4559245,126.95419129999999,168.309,186.766,1725537625299863,11141125,0.351,3.1415925,0.9850001,1.3470001,0.53,0.78,71,15,0.029000001,0.001,0.029000001,-0.032,5.03674,0,nan,0.0,0.0,0.0,0,4,1,1,1,31,0,0,0
499215782,0,37.4559245,126.95419129999999,168.291,186.747,1725537625399863,11141125,0.347,3.1415925,0.98600006,1.348,0.53,0.78,71,15,0.045,-0.040000003,-0.021000002,-0.028,5.03674,0,nan,0.0,0.0,0.0,0,4,1,1,1,31,0,0,0
499310783,0,37.4559245,126.9541914,168.287,186.743,1725537625499863,11141125,0.386,3.1415925,0.98600006,1.348,0.53,0.78,71,15,0.044000003,-0.018000001,0.040000003,-0.039,5.03674,0,nan,0.0,0.0,0.0,0,4,1,1,1,31,0,0,0
499418785,0,37.4559245,126.9541914,168.284,186.741,1725537625599863,11141125,0.317,3.1415925,0.98600006,1.3490001,0.53,0.78,71,15,0.033,0.026,0.021000002,-0.043,5.03674,0,nan,0.0,0.0,0.0,0,4,1,1,1,31,0,0,0
