timestamp,timestamp_sample,latitude_deg,longitude_deg,altitude_msl_m,altitude_ellipsoid_m,time_utc_usec,device_id,s_variance_m_s,c_variance_rad,eph,epv,hdop,vdop,noise_per_ms,jamming_indicator,vel_m_s,vel_n_m_s,vel_e_m_s,vel_d_m_s,cog_rad,timestamp_time_relative,heading,heading_offset,heading_accuracy,rtcm_injection_rate,automatic_gain_control,fix_type,jamming_state,spoofing_state,vel_ned_valid,satellites_used,selected_rtcm_instance,rtcm_crc_failed,rtcm_msg_used
95239941,0,37.4559387,126.9541934,164.56900000000002,183.026,1725533734200146,11141125,0.14600001,2.076322,0.45700002,0.83000004,0.52,0.78999996,72,4,0.060000002,-0.012,-0.059000004,-0.012,0.8105997,0,nan,0.0,0.0,0.0,0,3,1,1,1,32,0,0,0
95348716,0,37.4559387,126.9541934,164.566,183.023,1725533734300146,11141125,0.17600001,2.5975308,0.45700002,0.83000004,0.52,0.78999996,72,4,0.046000004,0.019000001,0.042000003,0.063,0.8105997,0,nan,0.0,0.0,0.0,0,3,1,1,1,32,0,0,0
95448715,0,37.4559387,126.9541934,164.56900000000002,183.025,1725533734400146,11141125,0.14,2.9179952,0.45700002,0.83000004,0.52,0.78999996,72,4,0.043,-0.041,-0.014,-0.002,0.8105997,0,nan,0.0,0.0,0.0,0,3,1,1,1,32,0,0,0
95546716,0,37.4559387,126.95419349999999,164.573,183.029,1725533734500146,11141125,0.14,2.5452914,0.45700002,0.83000004,0.52,0.78999996,72,4,0.052,-0.003,0.052,0.014,0.8105997,0,nan,0.0,0.0,0.0,0,3,1,1,1,32,0,0,0
95646715,0,37.4559387,126.95419349999999,164.579,183.036,1725533734600146,11141125,0.12100001,2.4200091,0.45700002,0.83000004,0.52,0.78999996,72,4,0.058000002,0.056,-0.015000001,-0.014,0.8105997,0,nan,0.0,0.0,0.0,0,3,1,1,1,32,0,0,0
95747785,0,37.4559387,126.95419349999999,164.585,183.041,1725533734700146,11141125,0.123,2.1895163,0.45600003,0.83000004,0.52,0.78999996,72,4,0.066,-0.059000004,0.030000001,0.028,0.8105997,0,nan,0.0,0.0,0.0,0,3,1,1,1,32,0,0,0
95845717,0,37.455938599999996,126.95419349999999,164.584,183.041,1725533734800146,11141125,0.158,3.1415925,0.45600003,0.83000004,0.52,0.78999996,72,6,0.036000002,0.034,-0.009000001,0.029000001,0.8105997,0,nan,0.0,0.0,0.0,0,3,1,1,1,32,0,0,0
95949717,0,37.4559387,126.95419349999999,164.588,183.044,1725533734900146,11141125,0.141,3.1415925,0.45600003,0.83000004,0.52,0.78999996,72,6,0.021000002,0.021000002,0.0050000004,-0.016,0.8105997,0,nan,0.0,0.0,0.0,0,3,1,1,1,32,0,0,0
96061728,0,37.455938599999996,126.95419349999999,164.589,183.046,1725533735000146,11141125,0.126,3.1415925,0.45600003,0.83000004,0.52,0.78999996,72,6,0.044000003,-0.035,0.027,-0.008,0.8105997,0,nan,0.0,0.0,0.0,0,3,1,1,1,32,0,0,0
96147334,0,37.4559387,126.95419349999999,164.595,183.052,1725533735100146,11141125,0.125,1.8364094,0.45600003,0.83000004,0.52,0.78999996,72,6,0.085,0.062000003,-0.058000002,0.014,0.8105997,0,nan,0.0,0.0,0.0,0,3,1,1,1,32,0,0,0
96253939,0,37.4559387,126.95419349999999,164.596,183.053,1725533735200145,11141125,0.13100001,2.7119577,0.45600003,0.83000004,0.52,0.78999996,72,6,0.055000003,-0.024,0.049000002,-0.006,0.8105997,0,nan,0.0,0.0,0.0,0,3,1,1,1,32,0,0,0
96353745,0,37.4559387,126.9541936,164.602,183.058,1725533735300145,11141125,0.134,3.1415925,0.45600003,0.83000004,0.52,0.78999996,72,6,0.014,0.014,0.0,0.001,0.8105997,0,nan,0.0,0.0,0.0,0,3,1,1,1,32,0,0,0
96451731,0,37.455938599999996,126.9541936,164.6,183.05700000000002,1725533735400145,11141125,0.16900001,3.1415925,0.45600003,0.83000004,0.52,0.78999996,72,6,0.022000002,-0.021000002,-0.007,0.071,0.8105997,0,nan,0.0,0.0,0.0,0,3,1,1,1,32,0,0,0
96553714,0,37.455938599999996,126.9541936,164.608,183.065,1725533735500145,11141125,0.156,3.1415925,0.45600003,0.82900006,0.52,0.78999996,72,6,0.002,0.001,0.002,-0.016,0.8105997,0,nan,0.0,0.0,0.0,0,3,1,1,1,32,0,0,0
96653844,0,37.455938599999996,126.9541936,164.605,183.061,1725533735600145,11141125,0.12900001,3.1415925,0.45600003,0.82900006,0.52,0.78999996,72,6,0.002,0.002,0.0,-0.002,0.8105997,0,nan,0.0,0.0,0.0,0,3,1,1,1,32,0,0,0
96753714,0,37.455938599999996,126.9541936,164.617,183.074,1725533735700145,11141125,0.16700001,3.1415925,0.45600003,0.82900006,0.52,0.78999996,72,6,0.006,0.001,-0.006,-0.031000001,0.8105997,0,nan,0.0,0.0,0.0,0,3,1,1,1,32,0,0,0
96853731,0,37.455938599999996,126.9541936,164.612,183.06900000000002,1725533735800145,11141125,0.148,3.1415925,0.45600003,0.82900006,0.52,0.78999996,72,4,0.023000002,-0.023000002,-0.001,0.027,0.8105997,0,nan,0.0,0.0,0.0,0,3,1,1,1,32,0,0,0
96953905,0,37.455938599999996,126.9541936,164.62,183.077,1725533735900145,11141125,0.16600001,3.1415925,0.45600003,0.82900006,0.52,0.78999996,72,4,0.037,0.036000002,-0.009000001,0.039,0.8105997,0,nan,0.0,0.0,0.0,0,3,1,1,1,32,0,0,0
97054715,0,37.455938599999996,126.9541936,164.625,183.08100000000002,1725533736000145,11141125,0.165,3.1415925,0.45600003,0.82900006,0.52,0.78999996,72,4,0.029000001,-0.004,-0.029000001,-0.025,0.8105997,0,nan,0.0,0.0,0.0,0,3,1,1,1,32,0,0,0
97161715,0,37.455938599999996,126.9541936,164.627,183.084,1725533736100145,11141125,0.18,3.1415925,0.45600003,0.82900006,0.52,0.78999996,72,4,0.008,-0.008,0.002,-0.036000002,0.8105997,0,nan,0.0,0.0,0.0,0,3,1,1,1,32,0,0,0
97253714,0,37.455938599999996,126.9541936,164.63400000000001,183.091,1725533736200145,11141125,0.14600001,2.8191984,0.45600003,0.82900006,0.52,0.78999996,72,4,0.043,-0.015000001,-0.041,0.003,0.8105997,0,nan,0.0,0.0,0.0,0,3,1,1,1,32,0,0,0
97350716,0,37.455938599999996,126.9541936,164.637,183.094,1725533736300145,11141125,0.14600001,2.6214135,0.45600003,0.82900006,0.52,0.78999996,72,4,0.05,0.001,0.05,-0.019000001,0.8105997,0,nan,0.0,0.0,0.0,0,3,1,1,1,32,0,0,0
97453306,0,37.455938599999996,126.9541936,164.648,183.105,1725533736400145,11141125,0.17400001,3.1415925,0.45600003,0.82900006,0.52,0.78999996,72,4,0.032,-0.009000001,-0.031000001,-0.033,0.8105997,0,nan,0.0,0.0,0.0,0,3,1,1,1,32,0,0,0
97553714,0,37.455938599999996,126.9541936,164.653,183.109,1725533736500145,11141125,0.13900001,3.1415925,0.45600003,0.82900006,0.52,0.78999996,72,4,0.004,0.003,0.003,-0.0050000004,0.8105997,0,nan,0.0,0.0,0.0,0,3,1,1,1,32,0,0,0
97650913,0,37.455938599999996,126.9541936,164.654,183.111,1725533736600145,11141125,0.17400001,3.1415925,0.45600003,0.82900006,0.52,0.78999996,72,4,0.027,-0.024,-0.012,-0.023000002,0.8105997,0,nan,0.0,0.0,0.0,0,3,1,1,1,32,0,0,0
97753713,0,37.455938499999995,126.9541936,164.66,183.117,1725533736700145,11141125,0.18,3.1415925,0.45600003,0.82900006,0.52,0.78999996,72,4,0.011000001,-0.010000001,0.003,-0.046000004,0.8105997,0,nan,0.0,0.0,0.0,0,3,1,1,1,32,0,0,0
97853715,0,37.455938499999995,126.9541936,164.666,183.123,1725533736800145,11141125,0.15,3.1415925,0.45600003,0.82900006,0.52,0.78999996,72,3,0.012,0.008,0.009000001,-0.004,0.8105997,0,nan,0.0,0.0,0.0,0,3,1,1,1,32,0,0,0
97942783,0,37.455938499999995,126.9541936,164.677,183.133,1725533736900145,11141125,0.17500001,3.1415925,0.45600003,0.82900006,0.52,0.78999996,72,3,0.037,-0.011000001,-0.036000002,-0.037,0.8105997,0,nan,0.0,0.0,0.0,0,3,1,1,1,32,0,0,0
98062715,0,37.455938499999995,126.9541936,164.678,183.135,1725533737000145,11141125,0.12100001,3.1415925,0.45600003,0.82900006,0.52,0.78999996,72,3,0.020000001,-0.015000001,0.013,0.0,0.8105997,0,nan,0.0,0.0,0.0,0,3,1,1,1,32,0,0,0
98161715,0,37.455938499999995,126.9541936,164.68,183.136,1725533737100145,11141125,0.165,3.1415925,0.45600003,0.82900006,0.52,0.78999996,72,3,0.010000001,-0.007,0.007,0.021000002,0.8105997,0,nan,0.0,0.0,0.0,0,3,1,1,1,32,0,0,0
98249715,0,37.455938499999995,126.95419369999999,164.681,183.138,1725533737200145,11141125,0.120000005,3.1415925,0.45600003,0.82900006,0.52,0.78999996,72,3,0.018000001,0.015000001,-0.009000001,-0.003,0.8105997,0,nan,0.0,0.0,0.0,0,3,1,1,1,32,0,0,0
98353342,0,37.455938499999995,126.95419369999999,164.681,183.138,1725533737300145,11141125,0.15900001,3.1415925,0.45600003,0.82900006,0.52,0.78999996,72,3,0.032,-0.009000001,0.030000001,0.029000001,0.8105997,0,nan,0.0,0.0,0.0,0,3,1,1,1,32,0,0,0
98453713,0,37.455938499999995,126.95419369999999,164.687,183.143,1725533737400145,11141125,0.17300001,3.1415925,0.45600003,0.82900006,0.52,0.78999996,72,3,0.026,0.025,-0.009000001,0.040000003,0.8105997,0,nan,0.0,0.0,0.0,0,3,1,1,1,32,0,0,0
98551767,0,37.455938499999995,126.95419369999999,164.696,183.153,1725533737500145,11141125,0.148,3.1415925,0.45600003,0.82900006,0.52,0.78999996,72,3,0.019000001,0.019000001,-0.002,0.009000001,0.8105997,0,nan,0.0,0.0,0.0,0,3,1,1,1,32,0,0,0
98653717,0,37.455938499999995,126.95419369999999,164.696,183.153,1725533737600145,11141125,0.17600001,3.1415925,0.45600003,0.82900006,0.52,0.78999996,72,3,0.020000001,-0.020000001,-0.003,-0.025,0.8105997,0,nan,0.0,0.0,0.0,0,3,1,1,1,32,0,0,0
98753751,0,37.455938499999995,126.95419369999999,164.703,183.16,1725533737700145,11141125,0.18200001,3.1415925,0.45600003,0.82900006,0.52,0.78999996,72,3,0.007,-0.006,-0.004,-0.062000003,0.8105997,0,nan,0.0,0.0,0.0,0,3,1,1,1,32,0,0,0
98843715,0,37.455938499999995,126.95419369999999,164.723,183.18,1725533737800145,11141125,0.162,2.3248456,0.45600003,0.82900006,0.52,0.78999996,72,3,0.064,0.039,-0.05,-0.102000006,0.8105997,0,nan,0.0,0.0,0.0,0,3,1,1,1,32,0,0,0
98954227,0,37.455938599999996,126.9541936,164.739,183.195,1725533737900145,11141125,0.172,2.0452206,0.45600003,0.82800007,0.52,0.78999996,72,3,0.072000004,0.047000002,-0.055000003,-0.21900001,0.8105997,0,nan,0.0,0.0,0.0,0,3,1,1,1,32,0,0,0
99067713,0,37.455938599999996,126.9541936,164.767,183.22400000000002,1725533738000144,11141125,0.177,2.1736295,0.45600003,0.82800007,0.52,0.78999996,72,3,0.065000005,0.021000002,-0.061000004,-0.33100003,0.8105997,0,nan,0.0,0.0,0.0,0,3,1,1,1,32,0,0,0
99151731,0,37.455938599999996,126.95419349999999,164.828,183.285,1725533738100144,11141125,0.16900001,0.89556605,0.45600003,0.82800007,0.52,0.78999996,72,3,0.164,0.080000006,-0.14400001,-0.333,0.8105997,0,nan,0.0,0.0,0.0,0,3,1,1,1,32,0,0,0
99252715,0,37.4559387,126.9541934,164.862,183.31900000000002,1725533738200144,11141125,0.18,1.8923854,0.45600003,0.82800007,0.52,0.78999996,72,3,0.07700001,0.026,-0.07300001,-0.35700002,0.8105997,0,nan,0.0,0.0,0.0,0,3,1,1,1,32,0,0,0
99348715,0,37.4559387,126.9541933,164.9,183.356,1725533738300144,11141125,0.17600001,2.2229388,0.45600003,0.82800007,0.52,0.78999996,72,3,0.066,0.063,-0.021000002,-0.448,0.8105997,0,nan,0.0,0.0,0.0,0,3,1,1,1,32,0,0,0
99447715,0,37.4559388,126.95419319999999,164.949,183.406,1725533738400144,11141125,0.171,0.6485987,0.45600003,0.82800007,0.52,0.78999996,72,3,0.223,0.079,-0.209,-0.402,5.0724206,0,nan,0.0,0.0,0.0,0,3,1,1,1,32,0,0,0
99547715,0,37.4559389,126.9541931,164.989,183.445,1725533738500144,11141125,0.16700001,0.7920848,0.45600003,0.82800007,0.52,0.78999996,72,3,0.185,0.156,-0.1,-0.416,6.072031,0,nan,0.0,0.0,0.0,0,3,1,1,1,32,0,0,0
99651715,0,37.455939,126.95419299999999,165.04500000000002,183.502,1725533738600144,11141125,0.17600001,1.6666362,0.45600003,0.82800007,0.52,0.78999996,72,3,0.07700001,0.074,0.023000002,-0.527,6.072031,0,nan,0.0,0.0,0.0,0,3,1,1,1,32,0,0,0
99743012,0,37.455939099999995,126.95419299999999,165.088,183.54500000000002,1725533738700144,11141125,0.171,0.89714146,0.45600003,0.82800007,0.52,0.78999996,72,3,0.164,0.133,-0.096,-0.51900005,6.072031,0,nan,0.0,0.0,0.0,0,3,1,1,1,32,0,0,0
99851832,0,37.4559393,126.9541929,165.156,183.612,1725533738800144,11141125,0.162,0.5819875,0.45600003,0.82800007,0.52,0.78999996,72,6,0.26700002,0.238,-0.120000005,-0.535,5.8185334,0,nan,0.0,0.0,0.0,0,3,1,1,1,32,0,0,0
99951718,0,37.4559394,126.9541928,165.23,183.687,1725533738900144,11141125,0.17500001,1.1806382,0.45600003,0.82800007,0.52,0.78999996,72,6,0.113000005,0.113000005,0.0050000004,-0.57100004,5.9315915,0,nan,0.0,0.0,0.0,0,3,1,1,1,32,0,0,0
100059714,0,37.4559396,126.9541929,165.284,183.74,1725533739000144,11141125,0.165,0.45397478,0.45600003,0.82800007,0.52,0.78999996,72,6,0.28500003,0.268,0.098000005,-0.586,0.35133862,0,nan,0.0,0.0,0.0,0,3,1,1,1,32,0,0,0
100152714,0,37.455939799999996,126.95419299999999,165.36,183.816,1725533739100144,11141125,0.179,2.0256379,0.45600003,0.827,0.52,0.78999996,72,6,0.060000002,0.055000003,0.026,-0.65800005,0.08544312,0,nan,0.0,0.0,0.0,0,3,1,1,1,32,0,0,0
100251714,0,37.455939799999996,126.95419299999999,165.44,183.897,1725533739200144,11141125,0.18300001,1.6674149,0.45600003,0.82800007,0.52,0.78999996,72,6,0.102000006,0.098000005,-0.030000001,-0.768,0.08544312,0,nan,0.0,0.0,0.0,0,3,1,1,1,32,0,0,0
100350722,0,37.4559399,126.9541931,165.508,183.965,1725533739300144,11141125,0.17600001,0.56934226,0.45600003,0.82800007,0.52,0.78999996,72,6,0.208,0.135,0.158,-0.68,0.8633224,0,nan,0.0,0.0,0.0,0,3,1,1,1,32,0,0,0
100452714,0,37.45594,126.9541931,165.594,184.05100000000002,1725533739400144,11141125,0.18400002,1.6969836,0.45600003,0.82800007,0.52,0.78999996,72,6,0.082,0.020000001,-0.080000006,-0.71800005,0.38783902,0,nan,0.0,0.0,0.0,0,3,1,1,1,32,0,0,0
100551755,0,37.45594,126.9541931,165.708,184.165,1725533739500144,11141125,0.18300001,1.7319758,0.45600003,0.827,0.52,0.78999996,72,6,0.087000005,-0.052,0.069000006,-0.919,0.38783902,0,nan,0.0,0.0,0.0,0,3,1,1,1,32,0,0,0
100642729,0,37.45594,126.95419319999999,165.80100000000002,184.258,1725533739600144,11141125,0.18200001,1.3871839,0.45600003,0.827,0.52,0.78999996,72,6,0.087000005,0.048,0.07300001,-0.93900007,0.38783902,0,nan,0.0,0.0,0.0,0,3,1,1,1,32,0,0,0
100752715,0,37.45594,126.9541933,165.898,184.355,1725533739700144,11141125,0.18300001,2.6424644,0.45600003,0.827,0.52,0.78999996,72,6,0.059000004,-0.040000003,0.044000003,-0.93000007,0.38783902,0,nan,0.0,0.0,0.0,0,3,1,1,1,32,0,0,0
100851291,0,37.45594,126.9541933,165.996,184.452,1725533739800144,11141125,0.18300001,3.1415925,0.45600003,0.827,0.52,0.78999996,73,4,0.021000002,-0.004,0.020000001,-0.92700005,0.38783902,0,nan,0.0,0.0,0.0,0,3,1,1,1,32,0,0,0
100948713,0,37.45594,126.9541934,166.088,184.54500000000002,1725533739900144,11141125,0.18300001,3.1415925,0.45600003,0.827,0.52,0.78999996,73,4,0.030000001,0.013,0.027,-0.975,0.38783902,0,nan,0.0,0.0,0.0,0,3,1,1,1,32,0,0,0
101056718,0,37.45594,126.95419349999999,166.179,184.636,1725533740000144,11141125,0.18300001,3.1415925,0.45600003,0.827,0.52,0.78999996,73,4,0.033,-0.001,0.033,-1.001,0.38783902,0,nan,0.0,0.0,0.0,0,3,1,1,1,32,0,0,0
101151717,0,37.45594,126.95419349999999,166.314,184.77100000000002,1725533740100144,11141125,0.18300001,3.1415925,0.45600003,0.827,0.52,0.78999996,73,4,0.031000001,-0.022000002,0.022000002,-1.0170001,0.38783902,0,nan,0.0,0.0,0.0,0,3,1,1,1,32,0,0,0
101243790,0,37.45594,126.9541936,166.418,184.875,1725533740200144,11141125,0.18300001,1.366027,0.45600003,0.82600003,0.52,0.78999996,73,4,0.094000004,-0.013,0.093,-1.0070001,0.38783902,0,nan,0.0,0.0,0.0,0,3,1,1,1,32,0,0,0
101344714,0,37.45594,126.9541936,166.52,184.977,1725533740300144,11141125,0.185,2.29022,0.455,0.82600003,0.52,0.78999996,73,4,0.063,-0.062000003,0.007,-0.92100006,0.38783902,0,nan,0.0,0.0,0.0,0,3,1,1,1,32,0,0,0
101448716,0,37.4559399,126.9541936,166.611,185.067,1725533740400144,11141125,0.186,1.4803764,0.455,0.82600003,0.52,0.78999996,73,4,0.09900001,-0.09900001,0.003,-0.749,0.38783902,0,nan,0.0,0.0,0.0,0,3,1,1,1,32,0,0,0
101538959,0,37.455939799999996,126.95419369999999,166.67600000000002,185.133,1725533740500144,11141125,0.187,0.99221146,0.455,0.82600003,0.52,0.78999996,73,4,0.147,-0.14500001,0.020000001,-0.586,0.38783902,0,nan,0.0,0.0,0.0,0,3,1,1,1,32,0,0,0
101646715,0,37.4559397,126.95419369999999,166.739,185.196,1725533740600144,11141125,0.18400002,2.6164978,0.455,0.82600003,0.52,0.78999996,73,4,0.057000004,-0.049000002,0.028,-0.36800003,0.38783902,0,nan,0.0,0.0,0.0,0,3,1,1,1,32,0,0,0
101746730,0,37.4559397,126.95419369999999,166.77,185.227,1725533740700144,11141125,0.178,0.82031566,0.455,0.82500005,0.52,0.78999996,73,4,0.16000001,-0.147,-0.062000003,-0.15400001,0.38783902,0,nan,0.0,0.0,0.0,0,3,1,1,1,32,0,0,0
101845717,0,37.4559395,126.95419369999999,166.784,185.241,1725533740800144,11141125,0.155,0.73588383,0.455,0.82500005,0.52,0.78999996,73,4,0.19100001,-0.19000001,-0.015000001,-0.09900001,3.2194674,0,nan,0.0,0.0,0.0,0,3,1,1,1,32,0,0,0
101945714,0,37.4559394,126.95419369999999,166.791,185.247,1725533740900143,11141125,0.158,0.8837369,0.455,0.82500005,0.52,0.78999996,73,4,0.16100001,-0.16100001,0.012,-0.11800001,1.4487847,0,nan,0.0,0.0,0.0,0,3,1,1,1,32,0,0,0
102054714,0,37.4559393,126.95419369999999,166.816,185.273,1725533741000143,11141125,0.172,0.6325747,0.455,0.82400006,0.52,0.78999996,73,4,0.19900002,-0.193,-0.05,-0.192,3.395479,0,nan,0.0,0.0,0.0,0,3,1,1,1,32,0,0,0
102150714,0,37.455939099999995,126.95419369999999,166.839,185.29500000000002,1725533741100143,11141125,0.177,0.92410946,0.455,0.82400006,0.52,0.78999996,73,4,0.148,-0.147,0.019000001,-0.26200002,2.5682724,0,nan,0.0,0.0,0.0,0,3,1,1,1,32,0,0,0
102245840,0,37.455939,126.95419369999999,166.874,185.33100000000002,1725533741200143,11141125,0.177,0.9289663,0.455,0.82400006,0.52,0.78999996,73,4,0.14400001,-0.14400001,-0.003,-0.22900002,2.5682724,0,nan,0.0,0.0,0.0,0,3,1,1,1,32,0,0,0
102344882,0,37.4559389,126.9541936,166.906,185.363,1725533741300143,11141125,0.178,0.72513336,0.455,0.823,0.52,0.78999996,73,4,0.162,-0.112,-0.117000006,-0.16900001,3.9499261,0,nan,0.0,0.0,0.0,0,3,1,1,1,32,0,0,0
102437715,0,37.4559388,126.9541936,166.92000000000002,185.377,1725533741400143,11141125,0.14400001,3.1415925,0.455,0.823,0.52,0.78999996,73,4,0.039,-0.035,0.018000001,-0.022000002,3.1653628,0,nan,0.0,0.0,0.0,0,3,1,1,1,32,0,0,0
102544714,0,37.4559388,126.9541936,166.927,185.38400000000001,1725533741500143,11141125,0.177,1.8852268,0.455,0.823,0.52,0.78999996,73,4,0.068,0.006,0.068,0.141,3.1653628,0,nan,0.0,0.0,0.0,0,3,1,1,1,32,0,0,0
102645714,0,37.4559389,126.95419369999999,166.924,185.38,1725533741600143,11141125,0.18100001,3.1415925,0.455,0.823,0.52,0.78999996,73,4,0.034,0.012,0.032,0.116000004,3.1653628,0,nan,0.0,0.0,0.0,0,3,1,1,1,32,0,0,0
102743716,0,37.4559389,126.9541938,166.925,185.381,1725533741700143,11141125,0.177,0.9914992,0.455,0.822,0.52,0.78999996,73,4,0.119,0.067,0.09900001,0.1,3.1653628,0,nan,0.0,0.0,0.0,0,3,1,1,1,32,0,0,0
102844714,0,37.455939,126.95419389999999,166.921,185.37800000000001,1725533741800143,11141125,0.18,1.3814714,0.455,0.822,0.52,0.78999996,72,4,0.093,0.081,0.045,0.13100001,3.1653628,0,nan,0.0,0.0,0.0,0,3,1,1,1,32,0,0,0
102944717,0,37.455939,126.95419389999999,166.921,185.37800000000001,1725533741900143,11141125,0.18100001,2.7683494,0.455,0.822,0.52,0.78999996,72,4,0.042000003,0.031000001,0.029000001,0.12100001,3.1653628,0,nan,0.0,0.0,0.0,0,3,1,1,1,32,0,0,0
103053715,0,37.455939099999995,126.954194,166.913,185.37,1725533742000143,11141125,0.17400001,1.5343565,0.455,0.822,0.52,0.78999996,72,4,0.076000005,0.041,0.064,0.07,3.1653628,0,nan,0.0,0.0,0.0,0,3,1,1,1,32,0,0,0
103152762,0,37.455939199999996,126.9541941,166.913,185.37,1725533742100143,11141125,0.149,1.0506697,0.455,0.82100004,0.52,0.78999996,72,4,0.112,0.08400001,0.07300001,0.014,3.1653628,0,nan,0.0,0.0,0.0,0,3,1,1,1,32,0,0,0
103246716,0,37.455939199999996,126.95419419999999,166.924,185.38,1725533742200143,11141125,0.14500001,0.9833127,0.455,0.82100004,0.52,0.78999996,72,4,0.120000005,0.072000004,0.096,0.029000001,3.1653628,0,nan,0.0,0.0,0.0,0,3,1,1,1,32,0,0,0
103339714,0,37.4559393,126.9541943,166.934,185.391,1725533742300143,11141125,0.15200001,1.357956,0.45400003,0.82000005,0.52,0.78999996,72,4,0.087000005,0.047000002,0.07300001,0.043,3.1653628,0,nan,0.0,0.0,0.0,0,3,1,1,1,32,0,0,0
103446715,0,37.4559394,126.95419439999999,166.93800000000002,185.395,1725533742400143,11141125,0.136,0.98400456,0.45400003,0.82000005,0.52,0.78999996,72,4,0.116000004,0.087000005,0.076000005,0.021000002,3.1653628,0,nan,0.0,0.0,0.0,0,3,1,1,1,32,0,0,0
103547715,0,37.4559394,126.9541945,166.96,185.417,1725533742500143,11141125,0.128,2.1971328,0.45400003,0.81900007,0.52,0.78999996,72,4,0.05,0.038000003,0.033,-0.020000001,3.1653628,0,nan,0.0,0.0,0.0,0,3,1,1,1,32,0,0,0
103645965,0,37.4559395,126.9541945,166.968,185.425,1725533742600143,11141125,0.134,1.6832314,0.45400003,0.81900007,0.52,0.78999996,72,4,0.067,0.057000004,0.035,-0.011000001,3.1653628,0,nan,0.0,0.0,0.0,0,3,1,1,1,32,0,0,0
103747006,0,37.4559395,126.9541946,166.96200000000002,185.419,1725533742700143,11141125,0.14400001,1.7573737,0.45400003,0.81900007,0.52,0.78999996,72,4,0.075,-0.009000001,0.074,0.044000003,3.1653628,0,nan,0.0,0.0,0.0,0,3,1,1,1,32,0,0,0
103845821,0,37.4559395,126.95419469999999,166.976,185.433,1725533742800143,11141125,0.148,3.1415925,0.45400003,0.818,0.52,0.78999996,72,3,0.044000003,-0.023000002,0.038000003,0.046000004,3.1653628,0,nan,0.0,0.0,0.0,0,3,1,1,1,32,0,0,0
103944740,0,37.4559395,126.95419469999999,166.979,185.436,1725533742900143,11141125,0.119,3.1415925,0.453,0.818,0.52,0.78999996,72,3,0.025,-0.018000001,0.018000001,0.006,3.1653628,0,nan,0.0,0.0,0.0,0,3,1,1,1,32,0,0,0
104054715,0,37.4559395,126.95419469999999,166.982,185.439,1725533743000143,11141125,0.178,3.1415925,0.453,0.81700003,0.52,0.78999996,72,3,0.024,0.020000001,0.013,0.039,3.1653628,0,nan,0.0,0.0,0.0,0,3,1,1,1,32,0,0,0
104152714,0,37.4559395,126.95419469999999,166.996,185.453,1725533743100143,11141125,0.162,3.1415925,0.453,0.81600004,0.52,0.78999996,72,3,0.016,0.004,0.016,0.032,3.1653628,0,nan,0.0,0.0,0.0,0,3,1,1,1,32,0,0,0
104236714,0,37.4559395,126.95419469999999,166.999,185.45600000000002,1725533743200143,11141125,0.164,3.1415925,0.453,0.81600004,0.52,0.78999996,72,3,0.025,0.024,-0.008,0.037,3.1653628,0,nan,0.0,0.0,0.0,0,3,1,1,1,32,0,0,0
104342714,0,37.4559396,126.95419469999999,167.002,185.459,1725533743300143,11141125,0.15300001,3.1415925,0.45200002,0.81500006,0.52,0.78999996,72,3,0.029000001,0.016,0.024,-0.053000003,3.1653628,0,nan,0.0,0.0,0.0,0,3,1,1,1,32,0,0,0
104443714,0,37.4559396,126.95419469999999,167.019,185.475,1725533743400143,11141125,0.135,1.5249441,0.45200002,0.814,0.52,0.78999996,72,3,0.079,0.072000004,-0.032,0.017,3.1653628,0,nan,0.0,0.0,0.0,0,3,1,1,1,32,0,0,0
104543714,0,37.4559397,126.95419469999999,167.029,185.486,1725533743500143,11141125,0.13900001,0.886625,0.45200002,0.813,0.52,0.78999996,72,3,0.142,0.113000005,-0.085,0.052,3.1653628,0,nan,0.0,0.0,0.0,0,3,1,1,1,32,0,0,0
104643714,0,37.455939799999996,126.9541945,167.03300000000002,185.49,1725533743600143,11141125,0.134,0.8367555,0.45200002,0.813,0.52,0.78999996,72,3,0.155,0.09,-0.126,0.056,3.1653628,0,nan,0.0,0.0,0.0,0,3,1,1,1,32,0,0,0
104747714,0,37.4559399,126.95419439999999,167.048,185.505,1725533743700142,11141125,0.132,0.6667318,0.45100003,0.81200004,0.52,0.78999996,72,3,0.187,0.15400001,-0.10700001,0.031000001,5.6767077,0,nan,0.0,0.0,0.0,0,3,1,1,1,32,0,0,0
104843715,0,37.45594,126.9541943,167.05700000000002,185.514,1725533743800142,11141125,0.13700001,0.7428362,0.45100003,0.81100005,0.52,0.78999996,72,6,0.16800001,0.13700001,-0.098000005,0.053000003,5.6620717,0,nan,0.0,0.0,0.0,0,3,1,1,1,32,0,0,0
104944714,0,37.4559402,126.95419419999999,167.073,185.529,1725533743900142,11141125,0.13100001,0.6104879,0.45100003,0.81100005,0.52,0.78999996,72,6,0.202,0.164,-0.11800001,0.026,5.6604276,0,nan,0.0,0.0,0.0,0,3,1,1,1,32,0,0,0
105052721,0,37.4559403,126.954194,167.086,185.543,1725533744000142,11141125,0.124000005,0.5706029,0.45100003,0.81000006,0.52,0.78999996,72,6,0.22200002,0.16600001,-0.148,-0.006,5.5537243,0,nan,0.0,0.0,0.0,0,3,1,1,1,32,0,0,0
105142715,0,37.4559405,126.9541938,167.102,185.558,1725533744100142,11141125,0.120000005,0.43903983,0.45000002,0.81000006,0.52,0.78999996,72,6,0.28800002,0.21300001,-0.19500001,-0.060000002,5.541439,0,nan,0.0,0.0,0.0,0,3,1,1,1,32,0,0,0
105245714,0,37.4559406,126.9541936,167.116,185.573,1725533744200142,11141125,0.123,0.4720585,0.45000002,0.809,0.52,0.78999996,72,6,0.273,0.187,-0.19900002,0.011000001,5.4675503,0,nan,0.0,0.0,0.0,0,3,1,1,1,32,0,0,0
105346722,0,37.4559408,126.9541934,167.122,185.579,1725533744300142,11141125,0.133,0.3986414,0.45000002,0.808,0.52,0.78999996,72,6,0.31800002,0.24100001,-0.20700002,0.086,5.5725517,0,nan,0.0,0.0,0.0,0,3,1,1,1,32,0,0,0
105443907,0,37.455940999999996,126.95419319999999,167.12,185.577,1725533744400142,11141125,0.133,0.5131867,0.45000002,0.808,0.52,0.78999996,72,6,0.26200002,0.148,-0.216,0.102000006,5.3134437,0,nan,0.0,0.0,0.0,0,3,1,1,1,32,0,0,0
105545382,0,37.4559411,126.95419299999999,167.13,185.586,1725533744500142,11141125,0.13900001,0.74843085,0.45000002,0.80700004,0.52,0.78999996,72,6,0.17400001,0.117000006,-0.13000001,0.10700001,5.445906,0,nan,0.0,0.0,0.0,0,3,1,1,1,32,0,0,0
105646715,0,37.4559412,126.9541928,167.139,185.595,1725533744600142,11141125,0.12100001,0.9176779,0.44900003,0.80700004,0.52,0.78999996,72,6,0.14600001,0.08400001,-0.119,0.022000002,5.4522095,0,nan,0.0,0.0,0.0,0,3,1,1,1,32,0,0,0
105745715,0,37.4559412,126.9541927,167.148,185.605,1725533744700142,11141125,0.123,1.0638785,0.44900003,0.80600005,0.52,0.78999996,72,6,0.125,0.0050000004,-0.125,-0.053000003,5.4522095,0,nan,0.0,0.0,0.0,0,3,1,1,1,32,0,0,0
105846749,0,37.4559412,126.9541926,167.167,185.624,1725533744800142,11141125,0.116000004,1.1336666,0.44900003,0.80500007,0.52,0.78999996,72,6,0.117000006,-0.004,-0.117000006,0.027,5.4522095,0,nan,0.0,0.0,0.0,0,3,1,1,1,32,0,0,0
105946012,0,37.4559413,126.95419249999999,167.18,185.636,1725533744900142,11141125,0.125,2.2896574,0.44900003,0.80500007,0.52,0.78999996,72,6,0.057000004,0.029000001,-0.049000002,0.019000001,5.4522095,0,nan,0.0,0.0,0.0,0,3,1,1,1,32,0,0,0
106043715,0,37.4559413,126.9541924,167.184,185.64000000000001,1725533745000142,11141125,0.13100001,1.6726848,0.44900003,0.804,0.52,0.78999996,72,6,0.078,0.048,-0.061000004,0.032,5.4522095,0,nan,0.0,0.0,0.0,0,3,1,1,1,32,0,0,0
106145889,0,37.4559414,126.95419229999999,167.195,185.65200000000002,1725533745100142,11141125,0.14600001,0.85600066,0.448,0.804,0.52,0.78999996,72,6,0.149,0.112,-0.09900001,0.11000001,5.4522095,0,nan,0.0,0.0,0.0,0,3,1,1,1,32,0,0,0
106245715,0,37.4559415,126.9541922,167.192,185.649,1725533745200142,11141125,0.147,0.77742654,0.448,0.80300003,0.52,0.78999996,72,6,0.163,0.113000005,-0.11800001,0.135,5.475606,0,nan,0.0,0.0,0.0,0,3,1,1,1,32,0,0,0
106343749,0,37.455941599999996,126.9541921,167.197,185.654,1725533745300142,11141125,0.14400001,0.6657921,0.448,0.80200005,0.52,0.78999996,72,6,0.185,0.16900001,-0.075,0.096,5.86832,0,nan,0.0,0.0,0.0,0,3,1,1,1,32,0,0,0
106444754,0,37.4559417,126.95419199999999,167.205,185.662,1725533745400142,11141125,0.141,0.70130324,0.448,0.80200005,0.52,0.78999996,72,6,0.18,0.136,-0.117000006,0.07700001,5.5696573,0,nan,0.0,0.0,0.0,0,3,1,1,1,32,0,0,0
106548714,0,37.4559418,126.9541919,167.198,185.655,1725533745500142,11141125,0.15200001,0.9709205,0.44700003,0.80100006,0.52,0.78999996,72,6,0.13000001,0.105000004,-0.076000005,0.094000004,5.6366453,0,nan,0.0,0.0,0.0,0,3,1,1,1,32,0,0,0
106645715,0,37.4559419,126.9541919,167.18800000000002,185.645,1725533745600142,11141125,0.16800001,1.2681967,0.44700003,0.80100006,0.52,0.78999996,72,6,0.096,0.08400001,-0.048,0.23,5.6366453,0,nan,0.0,0.0,0.0,0,3,1,1,1,32,0,0,0
106747716,0,37.455942,126.95419179999999,167.17600000000002,185.633,1725533745700142,11141125,0.171,1.462528,0.44700003,0.8,0.52,0.78999996,72,6,0.081,0.081,-0.003,0.23400001,5.6366453,0,nan,0.0,0.0,0.0,0,3,1,1,1,32,0,0,0
106846715,0,37.455942,126.95419179999999,167.159,185.615,1725533745800142,11141125,0.172,2.4978297,0.44700003,0.8,0.52,0.78999996,72,5,0.053000003,0.052,-0.010000001,0.277,5.6366453,0,nan,0.0,0.0,0.0,0,3,1,1,1,32,0,0,0
106938713,0,37.4559421,126.95419179999999,167.129,185.586,1725533745900142,11141125,0.17,3.1415925,0.44700003,0.799,0.52,0.78999996,72,5,0.033,-0.032,0.0050000004,0.45000002,5.6366453,0,nan,0.0,0.0,0.0,0,3,1,1,1,32,0,0,0
107053757,0,37.455942,126.95419179999999,167.106,185.562,1725533746000142,11141125,0.162,0.8583147,0.44700003,0.799,0.52,0.78999996,72,5,0.15200001,-0.15100001,-0.014,0.46300003,5.6366453,0,nan,0.0,0.0,0.0,0,3,1,1,1,32,0,0,0
107153714,0,37.4559419,126.9541919,167.04,185.497,1725533746100142,11141125,0.16900001,0.8691685,0.44700003,0.799,0.52,0.78999996,72,5,0.15100001,-0.027,0.148,0.568,5.6366453,0,nan,0.0,0.0,0.0,0,3,1,1,1,32,0,0,0
107244714,0,37.4559418,126.95419199999999,167.001,185.458,1725533746200142,11141125,0.165,0.9433492,0.446,0.79800004,0.52,0.78999996,72,5,0.136,-0.136,0.0,0.513,5.6366453,0,nan,0.0,0.0,0.0,0,3,1,1,1,32,0,0,0
107346715,0,37.4559417,126.95419199999999,166.963,185.419,1725533746300142,11141125,0.16100001,0.6976694,0.446,0.79800004,0.52,0.78999996,72,5,0.187,-0.187,0.003,0.46800002,3.127434,0,nan,0.0,0.0,0.0,0,3,1,1,1,32,0,0,0
107446762,0,37.4559415,126.9541921,166.923,185.38,1725533746400142,11141125,0.17,0.96261483,0.446,0.79800004,0.52,0.78999996,72,5,0.149,-0.08800001,0.12100001,0.507,4.3754,0,nan,0.0,0.0,0.0,0,3,1,1,1,32,0,0,0
107545716,0,37.4559415,126.9541921,166.90800000000002,185.364,1725533746500141,11141125,0.16900001,3.1415925,0.446,0.79800004,0.52,0.78999996,72,5,0.029000001,-0.027,0.011000001,0.43100002,4.3754,0,nan,0.0,0.0,0.0,0,3,1,1,1,32,0,0,0
107646715,0,37.4559414,126.9541922,166.862,185.318,1725533746600141,11141125,0.17,2.7024162,0.446,0.79700005,0.52,0.78999996,72,5,0.054,-0.040000003,0.036000002,0.393,4.3754,0,nan,0.0,0.0,0.0,0,3,1,1,1,32,0,0,0
107747717,0,37.4559414,126.9541921,166.821,185.278,1725533746700141,11141125,0.16700001,0.9974317,0.446,0.79700005,0.52,0.78999996,72,5,0.134,-0.120000005,-0.059000004,0.45700002,4.3754,0,nan,0.0,0.0,0.0,0,3,1,1,1,32,0,0,0
107838714,0,37.4559414,126.9541922,166.803,185.26,1725533746800141,11141125,0.18100001,0.81359375,0.446,0.79600006,0.52,0.78999996,72,5,0.177,0.13100001,0.119,0.39900002,4.3754,0,nan,0.0,0.0,0.0,0,3,1,1,1,32,0,0,0
107945715,0,37.4559415,126.95419229999999,166.767,185.22400000000002,1725533746900141,11141125,0.187,1.5581691,0.446,0.79600006,0.52,0.78999996,72,5,0.094000004,0.062000003,0.071,0.39800003,4.3754,0,nan,0.0,0.0,0.0,0,3,1,1,1,32,0,0,0
108053715,0,37.4559414,126.95419229999999,166.73,185.187,1725533747000141,11141125,0.177,1.3269224,0.446,0.79600006,0.52,0.78999996,72,5,0.108,-0.108,-0.009000001,0.45200002,4.3754,0,nan,0.0,0.0,0.0,0,3,1,1,1,32,0,0,0
108149714,0,37.4559414,126.9541924,166.699,185.156,1725533747100141,11141125,0.19000001,0.47223842,0.446,0.79600006,0.52,0.78999996,72,5,0.284,0.14500001,0.24400002,0.446,1.0353221,0,nan,0.0,0.0,0.0,0,3,1,1,1,32,0,0,0
108244714,0,37.4559415,126.9541926,166.653,185.11,1725533747200141,11141125,0.18400002,1.3409055,0.446,0.79600006,0.52,0.78999996,72,5,0.105000004,-0.021000002,0.10300001,0.44000003,0.110707976,0,nan,0.0,0.0,0.0,0,3,1,1,1,32,0,0,0
108346714,0,37.4559415,126.9541928,166.607,185.064,1725533747300141,11141125,0.178,0.82507765,0.446,0.79600006,0.52,0.78999996,72,5,0.16900001,-0.057000004,0.15900001,0.379,0.110707976,0,nan,0.0,0.0,0.0,0,3,1,1,1,32,0,0,0
108442716,0,37.4559414,126.9541929,166.58100000000002,185.038,1725533747400141,11141125,0.18400002,1.0433475,0.446,0.79600006,0.52,0.78999996,72,5,0.13700001,-0.061000004,0.123,0.44300002,0.110707976,0,nan,0.0,0.0,0.0,0,3,1,1,1,32,0,0,0
108544904,0,37.4559413,126.95419299999999,166.548,185.004,1725533747500141,11141125,0.171,0.7101099,0.446,0.79600006,0.52,0.78999996,72,5,0.19000001,-0.18800001,0.024,0.42800003,3.014899,0,nan,0.0,0.0,0.0,0,3,1,1,1,32,0,0,0
108646716,0,37.4559411,126.95419319999999,166.505,184.96200000000002,1725533747600141,11141125,0.17500001,0.5422869,0.446,0.79600006,0.52,0.78999996,72,5,0.266,-0.105000004,0.24400002,0.41500002,1.977578,0,nan,0.0,0.0,0.0,0,3,1,1,1,32,0,0,0
108738714,0,37.455940999999996,126.9541934,166.463,184.92000000000002,1725533747700141,11141125,0.16700001,0.5237171,0.446,0.79600006,0.52,0.78999996,72,5,0.266,-0.24700001,0.09900001,0.462,2.7619462,0,nan,0.0,0.0,0.0,0,3,1,1,1,32,0,0,0
108845714,0,37.4559408,126.9541934,166.431,184.888,1725533747800141,11141125,0.162,0.5729797,0.446,0.79600006,0.52,0.78999996,72,3,0.21200001,-0.208,-0.040000003,0.388,3.3333511,0,nan,0.0,0.0,0.0,0,3,1,1,1,32,0,0,0
108944715,0,37.4559406,126.9541934,166.40200000000002,184.859,1725533747900141,11141125,0.163,0.657547,0.446,0.79600006,0.52,0.78999996,72,3,0.23200001,-0.194,0.127,0.35200003,2.5622952,0,nan,0.0,0.0,0.0,0,3,1,1,1,32,0,0,0
109053714,0,37.455940399999996,126.9541936,166.375,184.832,1725533748000141,11141125,0.162,0.6036828,0.446,0.79700005,0.52,0.78999996,72,3,0.25800002,-0.23700002,0.101,0.409,2.7388031,0,nan,0.0,0.0,0.0,0,3,1,1,1,32,0,0,0
109150963,0,37.4559402,126.95419369999999,166.342,184.799,1725533748100141,11141125,0.16000001,0.74051476,0.44700003,0.79700005,0.52,0.78999996,72,3,0.21700001,-0.19000001,0.104,0.30600002,2.6402318,0,nan,0.0,0.0,0.0,0,3,1,1,1,32,0,0,0
109245412,0,37.4559401,126.95419369999999,166.311,184.768,1725533748200141,11141125,0.178,2.1326358,0.44700003,0.79700005,0.52,0.78999996,72,3,0.065000005,-0.065000005,0.003,0.407,2.6757793,0,nan,0.0,0.0,0.0,0,3,1,1,1,32,0,0,0
109342714,0,37.45594,126.95419369999999,166.276,184.733,1725533748300141,11141125,0.17300001,1.0800645,0.44700003,0.79700005,0.52,0.78999996,72,3,0.12900001,-0.12900001,0.002,0.45100003,2.6757793,0,nan,0.0,0.0,0.0,0,3,1,1,1,32,0,0,0
109444716,0,37.4559399,126.9541938,166.238,184.695,1725533748400141,11141125,0.178,1.3899573,0.44700003,0.79700005,0.52,0.78999996,72,3,0.112,-0.08800001,0.069000006,0.446,2.6757793,0,nan,0.0,0.0,0.0,0,3,1,1,1,32,0,0,0
109544716,0,37.455939799999996,126.9541938,166.208,184.665,1725533748500141,11141125,0.18900001,1.9553837,0.44700003,0.79700005,0.52,0.78999996,72,3,0.075,0.054,0.052,0.42100003,2.6757793,0,nan,0.0,0.0,0.0,0,3,1,1,1,32,0,0,0
109637716,0,37.455939799999996,126.95419389999999,166.172,184.629,1725533748600141,11141125,0.18200001,3.1415925,0.44700003,0.79700005,0.52,0.78999996,72,3,0.05,-0.038000003,0.032,0.418,2.6757793,0,nan,0.0,0.0,0.0,0,3,1,1,1,32,0,0,0
109745714,0,37.455939799999996,126.95419389999999,166.138,184.595,1725533748700141,11141125,0.185,3.1415925,0.448,0.79700005,0.52,0.78999996,72,3,0.037,0.019000001,0.032,0.333,2.6757793,0,nan,0.0,0.0,0.0,0,3,1,1,1,32,0,0,0
109845750,0,37.455939799999996,126.95419389999999,166.114,184.57,1725533748800141,11141125,0.17500001,2.606766,0.448,0.79700005,0.52,0.78999996,72,3,0.060000002,-0.047000002,0.038000003,0.27,2.6757793,0,nan,0.0,0.0,0.0,0,3,1,1,1,32,0,0,0
109947714,0,37.4559397,126.95419389999999,166.104,184.561,1725533748900141,11141125,0.172,3.0831168,0.448,0.79700005,0.52,0.78999996,72,3,0.049000002,-0.047000002,0.013,0.238,2.6757793,0,nan,0.0,0.0,0.0,0,3,1,1,1,32,0,0,0
110053715,0,37.4559397,126.954194,166.086,184.543,1725533749000141,11141125,0.18300001,2.4479265,0.448,0.79700005,0.52,0.78999996,72,3,0.057000004,0.008,0.057000004,0.32200003,2.6757793,0,nan,0.0,0.0,0.0,0,3,1,1,1,32,0,0,0
110150746,0,37.4559397,126.954194,166.068,184.525,1725533749100141,11141125,0.17400001,2.558832,0.448,0.79800004,0.52,0.78999996,72,3,0.060000002,-0.054,0.028,0.23,2.6757793,0,nan,0.0,0.0,0.0,0,3,1,1,1,32,0,0,0
110243714,0,37.4559396,126.954194,166.065,184.52100000000002,1725533749200141,11141125,0.18100001,3.1415925,0.448,0.79800004,0.52,0.78999996,72,3,0.031000001,-0.007,0.031000001,0.149,2.6757793,0,nan,0.0,0.0,0.0,0,3,1,1,1,32,0,0,0
110344714,0,37.4559396,126.9541941,166.053,184.51,1725533749300140,11141125,0.172,2.0597467,0.448,0.79800004,0.52,0.78999996,72,3,0.069000006,-0.068,0.013,0.22200002,2.6757793,0,nan,0.0,0.0,0.0,0,3,1,1,1,32,0,0,0
110444714,0,37.4559395,126.9541941,166.01,184.467,1725533749400140,11141125,0.16800001,0.8801371,0.448,0.799,0.52,0.78999996,72,3,0.16600001,-0.163,0.030000001,0.418,2.6757793,0,nan,0.0,0.0,0.0,0,3,1,1,1,32,0,0,0
110536715,0,37.4559393,126.9541941,165.977,184.434,1725533749500140,11141125,0.172,1.0956689,0.448,0.799,0.52,0.78999996,72,3,0.132,-0.12900001,0.024,0.46400002,2.6757793,0,nan,0.0,0.0,0.0,0,3,1,1,1,32,0,0,0
110646715,0,37.455939199999996,126.95419419999999,165.952,184.409,1725533749600140,11141125,0.17600001,2.0670643,0.448,0.799,0.52,0.78999996,72,3,0.076000005,-0.061000004,0.044000003,0.372,2.6757793,0,nan,0.0,0.0,0.0,0,3,1,1,1,32,0,0,0
110747715,0,37.455939099999995,126.9541943,165.912,184.368,1725533749700140,11141125,0.16100001,0.65272117,0.448,0.799,0.52,0.78999996,72,3,0.23700002,-0.21100001,0.10700001,0.38700002,2.6708844,0,nan,0.0,0.0,0.0,0,3,1,1,1,32,0,0,0
110843717,0,37.4559388,126.9541943,165.879,184.335,1725533749800140,11141125,0.143,0.36593515,0.448,0.799,0.52,0.78999996,72,5,0.349,-0.349,-0.003,0.379,3.1489952,0,nan,0.0,0.0,0.0,0,3,1,1,1,32,0,0,0
110943868,0,37.455938599999996,126.9541943,165.85,184.30700000000002,1725533749900140,11141125,0.156,0.72396445,0.448,0.799,0.52,0.78999996,72,5,0.16900001,-0.162,-0.049000002,0.323,3.434234,0,nan,0.0,0.0,0.0,0,3,1,1,1,32,0,0,0
111052724,0,37.4559384,126.9541943,165.826,184.28300000000002,1725533750000140,11141125,0.16100001,0.94954824,0.448,0.799,0.52,0.78999996,72,5,0.15,-0.149,0.017,0.30100003,3.1163864,0,nan,0.0,0.0,0.0,0,3,1,1,1,32,0,0,0
111146963,0,37.4559383,126.9541943,165.812,184.268,1725533750100140,11141125,0.14500001,1.1283752,0.448,0.799,0.52,0.78999996,72,5,0.134,-0.13100001,0.028,0.11800001,3.1163864,0,nan,0.0,0.0,0.0,0,3,1,1,1,32,0,0,0
111244713,0,37.4559382,126.9541943,165.82500000000002,184.282,1725533750200140,11141125,0.132,2.7761784,0.44900003,0.799,0.52,0.78999996,72,5,0.059000004,-0.038000003,0.046000004,0.026,3.1163864,0,nan,0.0,0.0,0.0,0,3,1,1,1,32,0,0,0
111350714,0,37.4559382,126.9541943,165.823,184.28,1725533750300140,11141125,0.172,3.1415925,0.44900003,0.799,0.52,0.78999996,72,5,0.010000001,-0.009000001,-0.006,0.072000004,3.1163864,0,nan,0.0,0.0,0.0,0,3,1,1,1,32,0,0,0
111439325,0,37.4559382,126.9541943,165.821,184.278,1725533750400140,11141125,0.18400002,2.5505443,0.44900003,0.799,0.52,0.78999996,72,5,0.053000003,0.016,0.051000003,0.163,3.1163864,0,nan,0.0,0.0,0.0,0,3,1,1,1,32,0,0,0
111545716,0,37.4559381,126.95419439999999,165.814,184.27100000000002,1725533750500140,11141125,0.178,3.1415925,0.44900003,0.799,0.52,0.78999996,72,5,0.032,-0.018000001,0.027,0.22200002,3.1163864,0,nan,0.0,0.0,0.0,0,3,1,1,1,32,0,0,0
111646717,0,37.4559381,126.95419439999999,165.80100000000002,184.258,1725533750600140,11141125,0.18,3.1415925,0.44900003,0.799,0.52,0.78999996,72,5,0.043,-0.009000001,0.042000003,0.28100002,3.1163864,0,nan,0.0,0.0,0.0,0,3,1,1,1,32,0,0,0
111746713,0,37.4559381,126.9541945,165.766,184.222,1725533750700140,11141125,0.17500001,1.7514484,0.44900003,0.799,0.52,0.78999996,72,5,0.091000006,-0.072000004,0.056,0.33,3.1163864,0,nan,0.0,0.0,0.0,0,3,1,1,1,32,0,0,0
111845877,0,37.455937999999996,126.9541945,165.731,184.187,1725533750800140,11141125,0.171,1.2626649,0.44900003,0.799,0.52,0.78999996,72,4,0.11000001,-0.109000005,-0.017,0.35000002,3.1163864,0,nan,0.0,0.0,0.0,0,3,1,1,1,32,0,0,0
111946714,0,37.455937899999995,126.9541945,165.731,184.18800000000002,1725533750900140,11141125,0.14600001,3.1415925,0.44900003,0.799,0.52,0.78999996,72,4,0.025,-0.024,-0.008,0.020000001,3.1163864,0,nan,0.0,0.0,0.0,0,3,1,1,1,32,0,0,0
112055714,0,37.4559378,126.9541945,165.738,184.195,1725533751000140,11141125,0.14500001,2.8329146,0.44900003,0.799,0.52,0.78999996,72,4,0.055000003,-0.037,0.040000003,-0.046000004,3.1163864,0,nan,0.0,0.0,0.0,0,3,1,1,1,32,0,0,0
112153716,0,37.4559378,126.9541945,165.74,184.197,1725533751100140,11141125,0.158,1.7522417,0.44900003,0.799,0.52,0.78999996,72,4,0.068,-0.059000004,-0.033,0.11800001,3.1163864,0,nan,0.0,0.0,0.0,0,3,1,1,1,32,0,0,0
112242715,0,37.4559378,126.95419439999999,165.731,184.18800000000002,1725533751200140,11141125,0.16800001,2.3230066,0.44900003,0.799,0.52,0.78999996,72,4,0.064,0.060000002,-0.023000002,0.098000005,3.1163864,0,nan,0.0,0.0,0.0,0,3,1,1,1,32,0,0,0
112336714,0,37.4559378,126.95419439999999,165.735,184.192,1725533751300140,11141125,0.128,2.8922517,0.44900003,0.799,0.52,0.78999996,72,4,0.05,0.048,-0.014,-0.021000002,3.1163864,0,nan,0.0,0.0,0.0,0,3,1,1,1,32,0,0,0
112443714,0,37.4559378,126.95419439999999,165.734,184.191,1725533751400140,11141125,0.128,3.1415925,0.44900003,0.799,0.52,0.78999996,72,4,0.027,0.026,-0.007,-0.011000001,3.1163864,0,nan,0.0,0.0,0.0,0,3,1,1,1,32,0,0,0
112543717,0,37.455937899999995,126.95419439999999,165.735,184.192,1725533751500140,11141125,0.14,1.8334882,0.44900003,0.799,0.52,0.78999996,72,4,0.068,0.065000005,0.019000001,-0.017,3.1163864,0,nan,0.0,0.0,0.0,0,3,1,1,1,32,0,0,0
112641715,0,37.455937899999995,126.95419439999999,165.743,184.20000000000002,1725533751600140,11141125,0.17600001,2.0582528,0.44900003,0.799,0.52,0.78999996,72,4,0.056,0.045,0.034,0.056,3.1163864,0,nan,0.0,0.0,0.0,0,3,1,1,1,32,0,0,0
112743714,0,37.455937899999995,126.95419439999999,165.732,184.189,1725533751700140,11141125,0.126,2.8976333,0.44900003,0.79800004,0.52,0.78999996,72,4,0.052,0.038000003,-0.036000002,0.021000002,3.1163864,0,nan,0.0,0.0,0.0,0,3,1,1,1,32,0,0,0
112847714,0,37.455937899999995,126.95419439999999,165.74,184.197,1725533751800140,11141125,0.16800001,3.1415925,0.44900003,0.79800004,0.52,0.78999996,72,3,0.011000001,0.003,0.010000001,-0.072000004,3.1163864,0,nan,0.0,0.0,0.0,0,3,1,1,1,32,0,0,0
112945717,0,37.455937899999995,126.95419439999999,165.749,184.20600000000002,1725533751900140,11141125,0.158,3.1415925,0.44900003,0.79800004,0.52,0.78999996,72,3,0.003,0.001,0.003,0.004,3.1163864,0,nan,0.0,0.0,0.0,0,3,1,1,1,32,0,0,0
113055714,0,37.455937899999995,126.95419439999999,165.744,184.201,1725533752000140,11141125,0.162,3.1415925,0.44900003,0.79800004,0.52,0.78999996,72,3,0.011000001,0.003,-0.011000001,0.028,3.1163864,0,nan,0.0,0.0,0.0,0,3,1,1,1,32,0,0,0
113158005,0,37.455937899999995,126.95419439999999,165.747,184.204,1725533752100139,11141125,0.15400001,2.9157095,0.44900003,0.79800004,0.52,0.78999996,72,3,0.039,0.026,0.029000001,-0.065000005,3.1163864,0,nan,0.0,0.0,0.0,0,3,1,1,1,32,0,0,0
113238715,0,37.455937899999995,126.95419439999999,165.76,184.217,1725533752200139,11141125,0.164,3.1415925,0.44900003,0.79800004,0.52,0.78999996,72,3,0.003,-0.001,-0.003,0.042000003,3.1163864,0,nan,0.0,0.0,0.0,0,3,1,1,1,32,0,0,0
113345716,0,37.455937899999995,126.95419439999999,165.75300000000001,184.21,1725533752300139,11141125,0.134,3.1415925,0.44900003,0.79700005,0.52,0.78999996,72,3,0.017,0.004,-0.017,0.011000001,3.1163864,0,nan,0.0,0.0,0.0,0,3,1,1,1,32,0,0,0
113447714,0,37.455937899999995,126.95419439999999,165.756,184.213,1725533752400139,11141125,0.156,3.1415925,0.44900003,0.79700005,0.52,0.78999996,72,3,0.008,0.004,0.008,-0.024,3.1163864,0,nan,0.0,0.0,0.0,0,3,1,1,1,32,0,0,0
113545714,0,37.455937899999995,126.9541945,165.757,184.214,1725533752500139,11141125,0.13700001,3.1415925,0.44900003,0.79700005,0.52,0.78999996,72,3,0.032,0.007,0.032,-0.014,3.1163864,0,nan,0.0,0.0,0.0,0,3,1,1,1,32,0,0,0
113646729,0,37.455937899999995,126.9541945,165.754,184.211,1725533752600139,11141125,0.162,3.1415925,0.44900003,0.79700005,0.52,0.78999996,72,3,0.022000002,0.017,-0.014,0.040000003,3.1163864,0,nan,0.0,0.0,0.0,0,3,1,1,1,32,0,0,0
113748731,0,37.4559378,126.95419439999999,165.756,184.21200000000002,1725533752700139,11141125,0.14400001,3.1415925,0.44900003,0.79700005,0.52,0.78999996,72,3,0.031000001,-0.011000001,-0.029000001,0.028,3.1163864,0,nan,0.0,0.0,0.0,0,3,1,1,1,32,0,0,0
113845749,0,37.4559378,126.9541945,165.754,184.211,1725533752800139,11141125,0.172,2.527962,0.44900003,0.79700005,0.52,0.78999996,72,3,0.048,0.017,0.045,0.049000002,3.1163864,0,nan,0.0,0.0,0.0,0,3,1,1,1,32,0,0,0
113945800,0,37.4559378,126.9541945,165.766,184.223,1725533752900139,11141125,0.177,3.1415925,0.44900003,0.79700005,0.52,0.78999996,72,3,0.015000001,0.014,0.007,0.037,3.1163864,0,nan,0.0,0.0,0.0,0,3,1,1,1,32,0,0,0
114055715,0,37.4559378,126.9541945,165.769,184.225,1725533753000139,11141125,0.171,3.1415925,0.44900003,0.79700005,0.52,0.78999996,72,3,0.015000001,-0.014,-0.0050000004,-0.013,3.1163864,0,nan,0.0,0.0,0.0,0,3,1,1,1,32,0,0,0
114138716,0,37.4559378,126.95419439999999,165.77100000000002,184.227,1725533753100139,11141125,0.162,3.1415925,0.44900003,0.79600006,0.52,0.78999996,72,3,0.024,0.013,-0.020000001,-0.045,3.1163864,0,nan,0.0,0.0,0.0,0,3,1,1,1,32,0,0,0
114245781,0,37.4559378,126.95419439999999,165.776,184.233,1725533753200139,11141125,0.143,3.1415925,0.44900003,0.79600006,0.52,0.78999996,72,3,0.010000001,0.004,0.009000001,-0.002,3.1163864,0,nan,0.0,0.0,0.0,0,3,1,1,1,32,0,0,0
114346714,0,37.4559378,126.9541945,165.77,184.227,1725533753300139,11141125,0.14,3.1415925,0.44900003,0.79600006,0.52,0.78999996,72,3,0.027,-0.027,-0.003,-0.001,3.1163864,0,nan,0.0,0.0,0.0,0,3,1,1,1,32,0,0,0
114445878,0,37.4559378,126.95419439999999,165.773,184.229,1725533753400139,11141125,0.119,3.1415925,0.44900003,0.79600006,0.52,0.78999996,72,3,0.023000002,0.013,-0.019000001,-0.004,3.1163864,0,nan,0.0,0.0,0.0,0,3,1,1,1,32,0,0,0
114545715,0,37.4559377,126.95419439999999,165.778,184.235,1725533753500139,11141125,0.158,3.1415925,0.44900003,0.79600006,0.52,0.78999996,72,3,0.031000001,-0.030000001,-0.010000001,-0.013,3.1163864,0,nan,0.0,0.0,0.0,0,3,1,1,1,32,0,0,0
114647713,0,37.4559377,126.95419439999999,165.776,184.233,1725533753600139,11141125,0.120000005,3.1415925,0.44900003,0.79600006,0.52,0.78999996,72,3,0.014,0.010000001,-0.010000001,0.004,3.1163864,0,nan,0.0,0.0,0.0,0,3,1,1,1,32,0,0,0
114745716,0,37.4559377,126.95419439999999,165.781,184.238,1725533753700139,11141125,0.16700001,3.1415925,0.44900003,0.795,0.52,0.78999996,72,3,0.033,-0.0050000004,-0.032,-0.035,3.1163864,0,nan,0.0,0.0,0.0,0,3,1,1,1,32,0,0,0
114846724,0,37.4559377,126.95419439999999,165.791,184.248,1725533753800139,11141125,0.13900001,3.1415925,0.44900003,0.795,0.52,0.78999996,72,3,0.035,0.009000001,0.034,-0.006,3.1163864,0,nan,0.0,0.0,0.0,0,3,1,1,1,32,0,0,0
114946718,0,37.4559377,126.95419439999999,165.787,184.244,1725533753900139,11141125,0.15200001,3.1415925,0.44900003,0.795,0.52,0.78999996,72,3,0.023000002,0.021000002,-0.009000001,0.021000002,3.1163864,0,nan,0.0,0.0,0.0,0,3,1,1,1,32,0,0,0
115045715,0,37.4559377,126.95419439999999,165.794,184.251,1725533754000139,11141125,0.17300001,3.1415925,0.44900003,0.795,0.52,0.78999996,72,3,0.008,-0.008,-0.001,-0.047000002,3.1163864,0,nan,0.0,0.0,0.0,0,3,1,1,1,32,0,0,0
115155907,0,37.4559377,126.95419439999999,165.796,184.25300000000001,1725533754100139,11141125,0.163,3.1415925,0.44900003,0.795,0.52,0.78999996,72,3,0.003,-0.003,-0.001,0.039,3.1163864,0,nan,0.0,0.0,0.0,0,3,1,1,1,32,0,0,0
115246715,0,37.4559377,126.95419439999999,165.80100000000002,184.257,1725533754200139,11141125,0.15100001,3.1415925,0.44900003,0.795,0.52,0.78999996,72,3,0.024,0.023000002,-0.004,0.016,3.1163864,0,nan,0.0,0.0,0.0,0,3,1,1,1,32,0,0,0
115345714,0,37.4559377,126.95419439999999,165.803,184.26,1725533754300139,11141125,0.16700001,3.1415925,0.44900003,0.795,0.52,0.78999996,72,3,0.013,-0.006,0.011000001,-0.058000002,3.1163864,0,nan,0.0,0.0,0.0,0,3,1,1,1,32,0,0,0
115445713,0,37.4559377,126.95419439999999,165.80700000000002,184.264,1725533754400139,11141125,0.13900001,2.7825317,0.44900003,0.795,0.52,0.78999996,72,3,0.045,-0.013,-0.043,0.012,3.1163864,0,nan,0.0,0.0,0.0,0,3,1,1,1,32,0,0,0
115545715,0,37.4559376,126.95419439999999,165.806,184.263,1725533754500139,11141125,0.172,2.4902668,0.44900003,0.794,0.52,0.78999996,72,3,0.048,0.021000002,0.043,0.040000003,3.1163864,0,nan,0.0,0.0,0.0,0,3,1,1,1,32,0,0,0
115644715,0,37.4559377,126.95419439999999,165.80700000000002,184.264,1725533754600139,11141125,0.127,3.1415925,0.44900003,0.794,0.52,0.78999996,72,3,0.032,0.031000001,-0.006,-0.004,3.1163864,0,nan,0.0,0.0,0.0,0,3,1,1,1,32,0,0,0
115747917,0,37.4559377,126.95419439999999,165.811,184.268,1725533754700139,11141125,0.143,3.1415925,0.44900003,0.794,0.52,0.78999996,72,3,0.004,-0.003,-0.002,0.010000001,3.1163864,0,nan,0.0,0.0,0.0,0,3,1,1,1,32,0,0,0
115847714,0,37.4559377,126.95419439999999,165.811,184.268,1725533754800139,11141125,0.116000004,3.1415925,0.44900003,0.794,0.52,0.78999996,72,6,0.017,0.010000001,-0.013,0.002,3.1163864,0,nan,0.0,0.0,0.0,0,3,1,1,1,32,0,0,0
115939715,0,37.4559376,126.95419439999999,165.81300000000002,184.27,1725533754900138,11141125,0.16900001,3.1415925,0.44900003,0.794,0.52,0.78999996,72,6,0.013,-0.011000001,-0.008,-0.008,3.1163864,0,nan,0.0,0.0,0.0,0,3,1,1,1,32,0,0,0
116055714,0,37.4559376,126.95419439999999,165.814,184.27100000000002,1725533755000138,11141125,0.15900001,3.1415925,0.44900003,0.794,0.52,0.78999996,72,6,0.009000001,0.004,-0.008,0.020000001,3.1163864,0,nan,0.0,0.0,0.0,0,3,1,1,1,32,0,0,0
116150780,0,37.4559376,126.95419439999999,165.811,184.268,1725533755100138,11141125,0.14600001,3.1415925,0.44900003,0.794,0.52,0.78999996,72,6,0.008,-0.004,0.007,-0.011000001,3.1163864,0,nan,0.0,0.0,0.0,0,3,1,1,1,32,0,0,0
116245714,0,37.4559376,126.95419439999999,165.817,184.273,1725533755200138,11141125,0.17300001,3.1415925,0.44900003,0.794,0.52,0.78999996,72,6,0.007,0.0,0.007,0.011000001,3.1163864,0,nan,0.0,0.0,0.0,0,3,1,1,1,32,0,0,0
116345746,0,37.4559376,126.95419439999999,165.814,184.27100000000002,1725533755300138,11141125,0.171,3.1415925,0.44900003,0.794,0.52,0.78999996,72,6,0.013,0.013,0.0,0.027,3.1163864,0,nan,0.0,0.0,0.0,0,3,1,1,1,32,0,0,0
116447168,0,37.4559376,126.95419439999999,165.816,184.273,1725533755400138,11141125,0.141,3.1415925,0.44900003,0.79300004,0.52,0.78999996,72,6,0.024,-0.007,0.023000002,0.014,3.1163864,0,nan,0.0,0.0,0.0,0,3,1,1,1,32,0,0,0
116546180,0,37.4559376,126.95419439999999,165.82,184.27700000000002,1725533755500138,11141125,0.16600001,3.1415925,0.44900003,0.79300004,0.52,0.78999996,72,6,0.016,0.013,-0.010000001,0.052,3.1163864,0,nan,0.0,0.0,0.0,0,3,1,1,1,32,0,0,0
116646717,0,37.4559376,126.95419439999999,165.817,184.274,1725533755600138,11141125,0.134,3.1415925,0.44900003,0.79300004,0.52,0.78999996,72,6,0.025,-0.025,-0.001,0.017,3.1163864,0,nan,0.0,0.0,0.0,0,3,1,1,1,32,0,0,0
116749951,0,37.4559375,126.95419439999999,165.818,184.275,1725533755700138,11141125,0.143,3.1415925,0.44900003,0.79300004,0.52,0.78999996,72,6,0.015000001,-0.015000001,0.001,0.016,3.1163864,0,nan,0.0,0.0,0.0,0,3,1,1,1,32,0,0,0
116838715,0,37.4559375,126.95419439999999,165.816,184.273,1725533755800138,11141125,0.16100001,3.1415925,0.44900003,0.79300004,0.52,0.78999996,72,3,0.027,0.022000002,0.015000001,0.010000001,3.1163864,0,nan,0.0,0.0,0.0,0,3,1,1,1,32,0,0,0
116944718,0,37.4559375,126.95419439999999,165.823,184.28,1725533755900138,11141125,0.13800001,3.1415925,0.44900003,0.79300004,0.52,0.78999996,72,3,0.016,-0.015000001,-0.006,0.007,3.1163864,0,nan,0.0,0.0,0.0,0,3,1,1,1,32,0,0,0
117054714,0,37.4559375,126.95419439999999,165.82,184.27700000000002,1725533756000138,11141125,0.15200001,3.1415925,0.44900003,0.79300004,0.52,0.78999996,72,3,0.004,-0.002,0.004,-0.010000001,3.1163864,0,nan,0.0,0.0,0.0,0,3,1,1,1,32,0,0,0
117152717,0,37.4559375,126.95419439999999,165.81900000000002,184.275,1725533756100138,11141125,0.148,3.1415925,0.44900003,0.79300004,0.52,0.78999996,72,3,0.036000002,0.029000001,0.022000002,-0.003,3.1163864,0,nan,0.0,0.0,0.0,0,3,1,1,1,32,0,0,0
117245776,0,37.4559375,126.9541945,165.816,184.273,1725533756200138,11141125,0.17300001,3.1415925,0.44900003,0.79200006,0.52,0.78999996,72,3,0.003,0.001,0.002,0.025,3.1163864,0,nan,0.0,0.0,0.0,0,3,1,1,1,32,0,0,0
117347713,0,37.4559375,126.9541945,165.814,184.27100000000002,1725533756300138,11141125,0.13700001,3.1415925,0.44900003,0.79200006,0.52,0.78999996,72,3,0.025,-0.024,-0.002,-0.001,3.1163864,0,nan,0.0,0.0,0.0,0,3,1,1,1,32,0,0,0
117443714,0,37.4559375,126.9541945,165.81,184.266,1725533756400138,11141125,0.172,3.1415925,0.44900003,0.79200006,0.52,0.78999996,72,3,0.006,0.003,0.0050000004,0.054,3.1163864,0,nan,0.0,0.0,0.0,0,3,1,1,1,32,0,0,0
117545714,0,37.4559375,126.9541945,165.809,184.266,1725533756500138,11141125,0.136,3.1415925,0.44900003,0.79200006,0.52,0.78999996,72,3,0.013,-0.001,0.013,0.003,3.1163864,0,nan,0.0,0.0,0.0,0,3,1,1,1,32,0,0,0
117645714,0,37.4559375,126.9541945,165.81300000000002,184.27,1725533756600138,11141125,0.156,3.1415925,0.44900003,0.79200006,0.52,0.78999996,72,3,0.012,0.006,-0.010000001,0.022000002,3.1163864,0,nan,0.0,0.0,0.0,0,3,1,1,1,32,0,0,0
117739715,0,37.4559375,126.9541945,165.81300000000002,184.27,1725533756700138,11141125,0.127,3.1415925,0.44900003,0.79200006,0.52,0.78999996,72,3,0.018000001,-0.010000001,0.015000001,0.009000001,3.1163864,0,nan,0.0,0.0,0.0,0,3,1,1,1,32,0,0,0
117845807,0,37.455937399999996,126.9541945,165.815,184.272,1725533756800138,11141125,0.116000004,3.1415925,0.44900003,0.79200006,0.52,0.78999996,72,4,0.033,0.018000001,-0.027,-0.004,3.1163864,0,nan,0.0,0.0,0.0,0,3,1,1,1,32,0,0,0
117944715,0,37.455937399999996,126.9541945,165.817,184.274,1725533756900138,11141125,0.123,3.1415925,0.44900003,0.791,0.52,0.78999996,72,4,0.035,-0.007,0.034,-0.004,3.1163864,0,nan,0.0,0.0,0.0,0,3,1,1,1,32,0,0,0
118048716,0,37.455937399999996,126.9541945,165.816,184.272,1725533757000138,11141125,0.17300001,3.1415925,0.44900003,0.791,0.52,0.78999996,72,4,0.010000001,-0.009000001,-0.0050000004,-0.035,3.1163864,0,nan,0.0,0.0,0.0,0,3,1,1,1,32,0,0,0
118144716,0,37.455937399999996,126.9541945,165.81,184.267,1725533757100138,11141125,0.16000001,3.1415925,0.448,0.791,0.52,0.78999996,72,4,0.007,0.007,-0.002,-0.037,3.1163864,0,nan,0.0,0.0,0.0,0,3,1,1,1,32,0,0,0
118316082,0,37.455937399999996,126.9541945,165.812,184.269,1725533757200138,11141125,0.156,3.1415925,0.448,0.791,0.52,0.78999996,72,4,0.036000002,-0.033,-0.014,-0.012,3.1163864,0,nan,0.0,0.0,0.0,0,3,1,1,1,32,0,0,0
118341716,0,37.455937399999996,126.9541945,165.815,184.272,1725533757300138,11141125,0.14,3.0025368,0.448,0.791,0.52,0.78999996,72,4,0.038000003,0.029000001,0.024,-0.016,3.1163864,0,nan,0.0,0.0,0.0,0,3,1,1,1,32,0,0,0
118442881,0,37.455937399999996,126.9541945,165.81,184.267,1725533757400138,11141125,0.133,3.1415925,0.448,0.79,0.52,0.78999996,72,4,0.019000001,-0.003,-0.019000001,0.006,3.1163864,0,nan,0.0,0.0,0.0,0,3,1,1,1,32,0,0,0
118543716,0,37.455937399999996,126.95419439999999,165.816,184.272,1725533757500138,11141125,0.12200001,3.1415925,0.448,0.79,0.52,0.78999996,72,4,0.042000003,0.019000001,-0.037,-0.011000001,3.1163864,0,nan,0.0,0.0,0.0,0,3,1,1,1,32,0,0,0
118637757,0,37.455937399999996,126.95419439999999,165.814,184.27100000000002,1725533757600138,11141125,0.164,3.1415925,0.448,0.79,0.52,0.78999996,72,4,0.018000001,0.006,0.017,0.014,3.1163864,0,nan,0.0,0.0,0.0,0,3,1,1,1,32,0,0,0
118744715,0,37.455937399999996,126.95419439999999,165.818,184.275,1725533757700137,11141125,0.13000001,3.1415925,0.448,0.79,0.52,0.78999996,72,4,0.003,-0.002,0.002,0.003,3.1163864,0,nan,0.0,0.0,0.0,0,3,1,1,1,32,0,0,0
118843714,0,37.455937399999996,126.95419439999999,165.814,184.27100000000002,1725533757800137,11141125,0.125,3.1415925,0.448,0.79,0.52,0.78999996,72,5,0.012,0.008,-0.009000001,-0.004,3.1163864,0,nan,0.0,0.0,0.0,0,3,1,1,1,32,0,0,0
