timestamp,timestamp_sample,latitude_deg,longitude_deg,altitude_msl_m,altitude_ellipsoid_m,time_utc_usec,device_id,s_variance_m_s,c_variance_rad,eph,epv,hdop,vdop,noise_per_ms,jamming_indicator,vel_m_s,vel_n_m_s,vel_e_m_s,vel_d_m_s,cog_rad,timestamp_time_relative,heading,heading_offset,heading_accuracy,rtcm_injection_rate,automatic_gain_control,fix_type,jamming_state,spoofing_state,vel_ned_valid,satellites_used,selected_rtcm_instance,rtcm_crc_failed,rtcm_msg_used
818769844,0,37.4559346,126.9542049,168.704,187.161,1725542685999896,11141125,0.316,3.1415925,0.9250001,1.363,0.53,0.83,65,8,0.015000001,-0.008,0.013,0.032,0.0,0,nan,0.0,0.0,0.0,0,4,2,1,1,31,0,0,0
819167782,0,37.4559345,126.95420469999999,168.699,187.155,1725542686399895,11141125,0.35500002,3.1415925,0.924,1.363,0.53,0.83,65,8,0.043,0.043,-0.003,0.004,0.0,0,nan,0.0,0.0,0.0,0,4,2,1,1,31,0,0,0
819266840,0,37.4559345,126.95420469999999,168.70000000000002,187.157,1725542686499895,11141125,0.34300002,3.1415925,0.924,1.363,0.53,0.83,65,8,0.012,-0.010000001,0.006,0.001,0.0,0,nan,0.0,0.0,0.0,0,4,2,1,1,31,0,0,0
819366784,0,37.4559345,126.9542046,168.692,187.149,1725542686599895,11141125,0.317,3.1415925,0.924,1.3620001,0.53,0.83,65,8,0.062000003,0.040000003,-0.047000002,0.026,0.0,0,nan,0.0,0.0,0.0,0,4,2,1,1,31,0,0,0
819463795,0,37.4559345,126.9542046,168.697,187.154,1725542686699895,11141125,0.326,3.1415925,0.924,1.3620001,0.53,0.83,65,8,0.059000004,0.038000003,0.045,-0.024,0.0,0,nan,0.0,0.0,0.0,0,4,2,1,1,31,0,0,0
819565009,0,37.4559345,126.9542046,168.708,187.165,1725542686799895,11141125,0.32200003,3.1415925,0.924,1.3620001,0.53,0.83,65,8,0.027,-0.018000001,-0.021000002,-0.004,0.0,0,nan,0.0,0.0,0.0,0,4,2,1,1,31,0,0,0
819663783,0,37.4559345,126.9542046,168.705,187.161,1725542686899895,11141125,0.321,3.1415925,0.924,1.3620001,0.53,0.83,65,8,0.023000002,0.023000002,0.006,0.021000002,0.0,0,nan,0.0,0.0,0.0,0,4,2,1,1,31,0,0,0
819772784,0,37.4559345,126.9542046,168.709,187.166,1725542686999896,11141125,0.312,3.1415925,0.92300004,1.3620001,0.53,0.83,65,6,0.026,-0.009000001,0.024,0.024,0.0,0,nan,0.0,0.0,0.0,0,4,1,1,1,31,0,0,0
819865786,0,37.4559344,126.95420449999999,168.709,187.166,1725542687099895,11141125,0.312,3.1415925,0.92300004,1.3620001,0.53,0.83,65,6,0.034,-0.014,-0.031000001,0.047000002,0.0,0,nan,0.0,0.0,0.0,0,4,1,1,1,31,0,0,0
819966785,0,37.4559344,126.95420449999999,168.708,187.16400000000002,1725542687199895,11141125,0.33800003,3.1415925,0.92300004,1.3620001,0.53,0.83,65,6,0.066,-0.064,0.016,-0.024,0.0,0,nan,0.0,0.0,0.0,0,4,1,1,1,31,0,0,0
820066791,0,37.4559344,126.95420449999999,168.703,187.16,1725542687299895,11141125,0.31500003,3.1415925,0.92300004,1.3610001,0.53,0.83,65,6,0.039,0.038000003,0.011000001,0.05,0.0,0,nan,0.0,0.0,0.0,0,4,1,1,1,31,0,0,0
820164784,0,37.4559344,126.95420449999999,168.70600000000002,187.162,1725542687399895,11141125,0.354,3.1415925,0.92300004,1.3610001,0.53,0.83,65,6,0.047000002,0.047000002,-0.002,-0.001,0.0,0,nan,0.0,0.0,0.0,0,4,1,1,1,31,0,0,0
820265920,0,37.4559344,126.9542044,168.717,187.173,1725542687499895,11141125,0.32700002,3.1415925,0.92300004,1.3610001,0.53,0.83,65,6,0.07300001,-0.061000004,-0.041,-0.032,0.0,0,nan,0.0,0.0,0.0,0,4,1,1,1,31,0,0,0
820366801,0,37.455934299999996,126.9542043,168.724,187.181,1725542687599895,11141125,0.31,3.1415925,0.92300004,1.3610001,0.53,0.83,65,6,0.051000003,0.045,-0.025,0.062000003,0.0,0,nan,0.0,0.0,0.0,0,4,1,1,1,31,0,0,0
820465784,0,37.455934299999996,126.9542043,168.723,187.18,1725542687699895,11141125,0.30800003,3.1415925,0.92300004,1.3610001,0.53,0.83,65,6,0.044000003,0.015000001,0.041,-0.014,0.0,0,nan,0.0,0.0,0.0,0,4,1,1,1,31,0,0,0
820563820,0,37.455934299999996,126.9542043,168.721,187.178,1725542687799895,11141125,0.30600002,3.1415925,0.92300004,1.3610001,0.53,0.83,65,6,0.047000002,-0.012,-0.046000004,-0.017,0.0,0,nan,0.0,0.0,0.0,0,4,1,1,1,30,0,0,0
820662785,0,37.455934299999996,126.9542043,168.722,187.179,1725542687899894,11141125,0.3,3.1415925,0.92300004,1.3610001,0.53,0.83,65,6,0.040000003,0.0050000004,0.039,0.004,0.0,0,nan,0.0,0.0,0.0,0,4,1,1,1,30,0,0,0
820775782,0,37.455934299999996,126.9542043,168.725,187.181,1725542687999895,11141125,0.321,3.1415925,0.92300004,1.3610001,0.53,0.83,65,7,0.009000001,0.009000001,0.003,-0.027,0.0,0,nan,0.0,0.0,0.0,0,4,1,1,1,30,0,0,0
820871783,0,37.455934299999996,126.95420419999999,168.735,187.192,1725542688099894,11141125,0.33400002,3.1415925,0.92300004,1.3610001,0.53,0.83,65,7,0.023000002,0.018000001,-0.014,0.0,0.0,0,nan,0.0,0.0,0.0,0,4,1,1,1,30,0,0,0
820965786,0,37.455934299999996,126.95420419999999,168.754,187.211,1725542688199894,11141125,0.34100002,3.1415925,0.92200005,1.3610001,0.53,0.83,65,7,0.022000002,-0.022000002,0.001,0.024,0.0,0,nan,0.0,0.0,0.0,0,4,1,1,1,30,0,0,0
821065957,0,37.4559342,126.95420419999999,168.747,187.204,1725542688299894,11141125,0.324,3.1415925,0.92200005,1.3610001,0.53,0.83,65,7,0.011000001,0.010000001,0.0050000004,0.011000001,0.0,0,nan,0.0,0.0,0.0,0,4,1,1,1,30,0,0,0
821167784,0,37.455934299999996,126.9542041,168.754,187.211,1725542688399894,11141125,0.35200003,3.1415925,0.92200005,1.3610001,0.53,0.83,65,7,0.048,0.045,-0.017,-0.017,0.0,0,nan,0.0,0.0,0.0,0,4,1,1,1,30,0,0,0
821267784,0,37.4559342,126.9542041,168.754,187.211,1725542688499894,11141125,0.32900003,3.1415925,0.92200005,1.3610001,0.53,0.83,65,7,0.030000001,-0.025,-0.016,-0.012,0.0,0,nan,0.0,0.0,0.0,0,4,1,1,1,30,0,0,0
821366781,0,37.4559342,126.9542041,168.747,187.204,1725542688599894,11141125,0.354,3.1415925,0.92200005,1.3610001,0.53,0.83,65,7,0.049000002,-0.049000002,0.0,0.021000002,0.0,0,nan,0.0,0.0,0.0,0,4,1,1,1,30,0,0,0
821464783,0,37.4559341,126.95420399999999,168.751,187.208,1725542688699894,11141125,0.30800003,3.1415925,0.92200005,1.36,0.53,0.83,65,7,0.031000001,0.009000001,-0.030000001,-0.015000001,0.0,0,nan,0.0,0.0,0.0,0,4,1,1,1,30,0,0,0
821564783,0,37.4559341,126.95420399999999,168.752,187.209,1725542688799894,11141125,0.32000002,3.1415925,0.92200005,1.36,0.53,0.83,65,7,0.018000001,-0.010000001,-0.015000001,0.004,0.0,0,nan,0.0,0.0,0.0,0,4,1,1,1,32,0,0,0
821665786,0,37.455934,126.9542039,168.742,187.199,1725542688899894,11141125,0.35700002,3.1415925,0.92200005,1.36,0.53,0.83,65,7,0.062000003,-0.058000002,-0.022000002,0.015000001,0.0,0,nan,0.0,0.0,0.0,0,4,1,1,1,32,0,0,0
821775783,0,37.455934,126.9542039,168.755,187.21200000000002,1725542688999895,11141125,0.35700002,3.1415925,0.92200005,1.36,0.53,0.83,65,11,0.05,0.049000002,-0.008,-0.019000001,0.0,0,nan,0.0,0.0,0.0,0,4,1,1,1,32,0,0,0
821870784,0,37.455934,126.9542039,168.768,187.225,1725542689099894,11141125,0.314,3.1415925,0.92200005,1.3610001,0.53,0.83,65,11,0.037,0.009000001,0.036000002,-0.065000005,0.0,0,nan,0.0,0.0,0.0,0,4,1,1,1,32,0,0,0
821965935,0,37.455934,126.9542039,168.763,187.22,1725542689199894,11141125,0.35000002,3.1415925,0.92200005,1.3610001,0.53,0.83,65,11,0.05,0.049000002,0.009000001,-0.046000004,0.0,0,nan,0.0,0.0,0.0,0,4,1,1,1,32,0,0,0
822064790,0,37.455934,126.9542039,168.767,187.22400000000002,1725542689299894,11141125,0.33400002,3.1415925,0.92200005,1.3610001,0.53,0.83,65,11,0.010000001,0.006,0.008,-0.016,0.0,0,nan,0.0,0.0,0.0,0,4,1,1,1,32,0,0,0
822165784,0,37.455934,126.95420379999999,168.778,187.235,1725542689399894,11141125,0.33800003,3.1415925,0.92300004,1.3610001,0.53,0.83,65,11,0.052,0.043,-0.029000001,-0.052,0.0,0,nan,0.0,0.0,0.0,0,4,1,1,1,32,0,0,0
822264785,0,37.4559341,126.95420379999999,168.778,187.235,1725542689499894,11141125,0.35300002,3.1415925,0.92300004,1.3610001,0.53,0.83,65,11,0.059000004,0.056,0.019000001,-0.047000002,0.0,0,nan,0.0,0.0,0.0,0,4,1,1,1,32,0,0,0
822362784,0,37.4559341,126.95420379999999,168.792,187.249,1725542689599894,11141125,0.317,3.1415925,0.92300004,1.3610001,0.53,0.83,65,11,0.027,0.011000001,0.025,-0.07700001,0.0,0,nan,0.0,0.0,0.0,0,4,1,1,1,32,0,0,0
822461784,0,37.4559341,126.95420379999999,168.796,187.25300000000001,1725542689699894,11141125,0.32000002,3.1415925,0.92300004,1.3620001,0.53,0.83,65,11,0.08400001,0.031000001,0.078,-0.014,0.0,0,nan,0.0,0.0,0.0,0,4,1,1,1,32,0,0,0
822564783,0,37.4559341,126.95420379999999,168.802,187.25900000000001,1725542689799894,11141125,0.344,3.1415925,0.924,1.3620001,0.53,0.83,65,11,0.065000005,0.046000004,0.046000004,-0.046000004,0.0,0,nan,0.0,0.0,0.0,0,4,1,1,1,32,0,0,0
822664790,0,37.4559341,126.9542039,168.81,187.267,1725542689899894,11141125,0.314,3.1415925,0.924,1.3620001,0.53,0.83,65,11,0.055000003,0.014,0.053000003,-0.125,0.0,0,nan,0.0,0.0,0.0,0,4,1,1,1,31,0,0,0
822776793,0,37.4559341,126.95420399999999,168.815,187.272,1725542689999895,11141125,0.33400002,1.86311,0.9250001,1.3620001,0.53,0.83,65,9,0.193,0.12100001,0.15,-0.149,0.0,0,nan,0.0,0.0,0.0,0,4,1,1,1,32,0,0,0
822875784,0,37.455934299999996,126.9542041,168.82500000000002,187.282,1725542690099894,11141125,0.354,1.3517779,0.9250001,1.363,0.53,0.83,65,9,0.259,0.20400001,0.16100001,-0.14,0.0,0,nan,0.0,0.0,0.0,0,4,1,1,1,32,0,0,0
822966913,0,37.4559344,126.9542043,168.85,187.30700000000002,1725542690199894,11141125,0.34300002,1.410359,0.92600006,1.363,0.53,0.83,65,9,0.264,0.18,0.194,-0.23,0.0,0,nan,0.0,0.0,0.0,0,4,1,1,1,32,0,0,0
823067786,0,37.4559346,126.95420449999999,168.869,187.326,1725542690299894,11141125,0.347,1.1040316,0.92600006,1.3640001,0.53,0.83,65,9,0.34,0.22700001,0.25300002,-0.19000001,0.0,0,nan,0.0,0.0,0.0,0,4,1,1,1,32,0,0,0
823164786,0,37.4559348,126.9542048,168.89000000000001,187.347,1725542690399894,11141125,0.344,1.1236883,0.92700005,1.365,0.53,0.83,65,9,0.33600003,0.224,0.25100002,-0.202,0.0,0,nan,0.0,0.0,0.0,0,4,1,1,1,32,0,0,0
823264782,0,37.455935,126.95420499999999,168.912,187.369,1725542690499894,11141125,0.35200003,0.9933469,0.92800003,1.365,0.53,0.83,65,9,0.374,0.294,0.23200001,-0.21800001,0.0,0,nan,0.0,0.0,0.0,0,4,1,1,1,32,0,0,0
823365783,0,37.4559352,126.9542053,168.937,187.394,1725542690599893,11141125,0.34300002,0.9105896,0.92800003,1.366,0.53,0.83,65,9,0.41300002,0.25800002,0.323,-0.32500002,0.0,0,nan,0.0,0.0,0.0,0,4,1,1,1,32,0,0,0
823464138,0,37.4559356,126.9542056,168.993,187.449,1725542690699893,11141125,0.35500002,0.79782945,0.929,1.366,0.53,0.83,65,9,0.45000002,0.379,0.24200001,-0.393,0.0,0,nan,0.0,0.0,0.0,0,4,1,1,1,32,0,0,0
823563786,0,37.4559358,126.9542058,169.02,187.476,1725542690799893,11141125,0.35200003,0.9924211,0.929,1.3670001,0.53,0.83,65,9,0.333,0.303,0.13900001,-0.42800003,0.0,0,nan,0.0,0.0,0.0,0,4,1,1,1,32,0,0,0
823663784,0,37.455936099999995,126.95420589999999,169.066,187.523,1725542690899893,11141125,0.34100002,1.3446242,0.93000007,1.3670001,0.53,0.83,65,9,0.26200002,0.21000001,0.156,-0.49400002,0.0,0,nan,0.0,0.0,0.0,0,4,1,1,1,32,0,0,0
823770813,0,37.4559363,126.954206,169.125,187.582,1725542690999894,11141125,0.34300002,1.1112158,0.93100005,1.368,0.53,0.83,65,14,0.328,0.277,0.177,-0.55,0.0,0,nan,0.0,0.0,0.0,0,4,1,1,1,32,0,0,0
823863784,0,37.4559365,126.9542061,169.186,187.642,1725542691099893,11141125,0.34300002,1.1676655,0.93100005,1.3690001,0.53,0.83,65,14,0.287,0.286,0.020000001,-0.652,0.0,0,nan,0.0,0.0,0.0,0,4,1,1,1,32,0,0,0
823963979,0,37.455936699999995,126.9542061,169.263,187.719,1725542691199893,11141125,0.328,3.1415925,0.93200004,1.3700001,0.53,0.83,65,14,0.064,0.059000004,-0.025,-0.693,0.0,0,nan,0.0,0.0,0.0,0,4,1,1,1,32,0,0,0
824062783,0,37.455936799999996,126.954206,169.36,187.817,1725542691299893,11141125,0.33100003,2.3337777,0.933,1.371,0.53,0.83,65,14,0.142,0.142,-0.013,-0.81200004,0.0,0,nan,0.0,0.0,0.0,0,4,1,1,1,32,0,0,0
824161785,0,37.4559369,126.95420589999999,169.446,187.903,1725542691399893,11141125,0.33,2.2477865,0.933,1.3720001,0.53,0.83,65,14,0.14600001,0.13700001,-0.051000003,-0.855,0.0,0,nan,0.0,0.0,0.0,0,4,1,1,1,32,0,0,0
824261782,0,37.455937,126.9542058,169.554,188.011,1725542691499893,11141125,0.33,3.1415925,0.934,1.3720001,0.53,0.83,65,14,0.087000005,0.081,-0.032,-0.915,0.0,0,nan,0.0,0.0,0.0,0,4,1,1,1,32,0,0,0
824362794,0,37.4559371,126.9542058,169.644,188.1,1725542691599893,11141125,0.335,2.12709,0.934,1.373,0.53,0.83,65,14,0.15400001,0.15400001,-0.002,-0.87900007,0.0,0,nan,0.0,0.0,0.0,0,4,1,1,1,32,0,0,0
824463793,0,37.4559371,126.9542058,169.749,188.20600000000002,1725542691699893,11141125,0.328,3.1415925,0.93500006,1.3740001,0.53,0.83,65,14,0.067,0.0,0.067,-0.93900007,0.0,0,nan,0.0,0.0,0.0,0,4,1,1,1,32,0,0,0
824562911,0,37.4559371,126.95420589999999,169.847,188.303,1725542691799893,11141125,0.32700002,3.1415925,0.93600005,1.3750001,0.53,0.83,65,14,0.066,-0.012,0.065000005,-0.96300006,0.0,0,nan,0.0,0.0,0.0,0,4,1,1,1,32,0,0,0
824662860,0,37.4559371,126.95420589999999,169.945,188.40200000000002,1725542691899893,11141125,0.328,3.1415925,0.93600005,1.376,0.53,0.83,65,14,0.10700001,-0.018000001,0.106000006,-0.96400005,0.0,0,nan,0.0,0.0,0.0,0,4,1,1,1,31,0,0,0
824769791,0,37.455937,126.954206,170.04,188.496,1725542691999894,11141125,0.328,1.6922367,0.93700004,1.3770001,0.53,0.83,65,10,0.20600002,-0.15,0.142,-0.94000006,0.0,0,nan,0.0,0.0,0.0,0,4,1,1,1,31,0,0,0
824865786,0,37.4559369,126.9542061,170.136,188.59300000000002,1725542692099893,11141125,0.324,3.1415925,0.93700004,1.378,0.53,0.83,65,10,0.11000001,-0.081,0.074,-0.93500006,0.0,0,nan,0.0,0.0,0.0,0,4,1,1,1,31,0,0,0
824963783,0,37.455936699999995,126.9542063,170.24,188.696,1725542692199893,11141125,0.326,1.1723493,0.938,1.3790001,0.53,0.83,65,10,0.316,-0.16100001,0.272,-0.97200006,0.0,0,nan,0.0,0.0,0.0,0,4,1,1,1,31,0,0,0
825061782,0,37.4559366,126.95420659999999,170.335,188.792,1725542692299893,11141125,0.324,1.7534198,0.93900007,1.3800001,0.53,0.83,65,10,0.20600002,-0.119,0.16800001,-0.9990001,0.0,0,nan,0.0,0.0,0.0,0,4,1,1,1,31,0,0,0
825161783,0,37.4559365,126.9542068,170.457,188.91400000000002,1725542692399893,11141125,0.32500002,1.6085489,0.93900007,1.3800001,0.53,0.83,65,10,0.22900002,-0.1,0.20600002,-1.024,0.0,0,nan,0.0,0.0,0.0,0,4,1,1,1,31,0,0,0
825262783,0,37.4559364,126.95420689999999,170.56900000000002,189.025,1725542692499893,11141125,0.324,1.9620192,0.94000006,1.381,0.53,0.83,65,10,0.18800001,-0.095000006,0.162,-1.11,0.0,0,nan,0.0,0.0,0.0,0,4,1,1,1,31,0,0,0
825364877,0,37.4559363,126.95420709999999,170.69,189.147,1725542692599893,11141125,0.32500002,1.5174782,0.94000006,1.3820001,0.53,0.83,65,10,0.24200001,-0.136,0.2,-1.1220001,0.0,0,nan,0.0,0.0,0.0,0,4,1,1,1,31,0,0,0
825464787,0,37.455936099999995,126.9542073,170.8,189.257,1725542692699893,11141125,0.324,1.490063,0.94100004,1.383,0.53,0.83,65,10,0.22500001,-0.20500001,0.09200001,-1.146,0.0,0,nan,0.0,0.0,0.0,0,4,1,1,1,32,0,0,0
825564800,0,37.4559359,126.95420739999999,170.924,189.381,1725542692799893,11141125,0.32500002,1.3397715,0.94100004,1.383,0.53,0.83,65,10,0.254,-0.215,0.134,-1.153,0.0,0,nan,0.0,0.0,0.0,0,4,1,1,1,32,0,0,0
825664784,0,37.4559358,126.9542075,171.034,189.491,1725542692899893,11141125,0.32700002,1.8502513,0.94200003,1.3840001,0.53,0.83,65,10,0.18800001,-0.155,0.106000006,-1.141,0.0,0,nan,0.0,0.0,0.0,0,4,1,1,1,32,0,0,0
825774783,0,37.4559356,126.9542075,171.139,189.596,1725542692999894,11141125,0.328,2.8429446,0.943,1.3850001,0.53,0.83,64,6,0.12200001,-0.119,-0.030000001,-1.138,0.0,0,nan,0.0,0.0,0.0,0,4,1,1,1,31,0,0,0
825868785,0,37.455935499999995,126.9542075,171.25900000000001,189.715,1725542693099893,11141125,0.32900003,2.8820562,0.943,1.3870001,0.53,0.83,64,6,0.12200001,-0.117000006,-0.037,-1.148,0.0,0,nan,0.0,0.0,0.0,0,4,1,1,1,31,0,0,0
825964782,0,37.4559354,126.9542075,171.375,189.832,1725542693199893,11141125,0.326,3.1415925,0.94400007,1.388,0.53,0.83,64,6,0.104,-0.10300001,0.014,-1.223,0.0,0,nan,0.0,0.0,0.0,0,4,1,1,1,32,0,0,0
826062785,0,37.4559354,126.95420739999999,171.493,189.95000000000002,1725542693299892,11141125,0.328,3.1415925,0.94500005,1.389,0.53,0.83,64,6,0.116000004,0.001,-0.116000004,-1.149,0.0,0,nan,0.0,0.0,0.0,0,4,1,1,1,31,0,0,0
826162918,0,37.4559353,126.9542072,171.606,190.06300000000002,1725542693399892,11141125,0.32700002,2.22377,0.94500005,1.389,0.53,0.83,64,6,0.171,-0.10700001,-0.133,-1.0960001,0.0,0,nan,0.0,0.0,0.0,0,4,1,1,1,31,0,0,0
826264785,0,37.4559352,126.954207,171.717,190.174,1725542693499892,11141125,0.32900003,1.742139,0.94600004,1.3900001,0.53,0.83,64,6,0.23,-0.05,-0.224,-1.052,0.0,0,nan,0.0,0.0,0.0,0,4,1,1,1,31,0,0,0
826365784,0,37.4559352,126.9542067,171.849,190.306,1725542693599892,11141125,0.328,1.664125,0.947,1.391,0.53,0.83,64,6,0.238,-0.069000006,-0.22800002,-1.074,0.0,0,nan,0.0,0.0,0.0,0,4,1,1,1,32,0,0,0
826464783,0,37.4559351,126.9542065,171.946,190.403,1725542693699892,11141125,0.32900003,1.7882968,0.947,1.3920001,0.53,0.83,64,6,0.22000001,-0.063,-0.21000001,-1.0760001,0.0,0,nan,0.0,0.0,0.0,0,4,1,1,1,31,0,0,0
826564783,0,37.4559351,126.95420619999999,172.036,190.493,1725542693799892,11141125,0.33100003,1.7943268,0.9480001,1.393,0.53,0.83,64,6,0.21400002,0.07,-0.202,-0.99000007,0.0,0,nan,0.0,0.0,0.0,0,4,1,1,1,31,0,0,0
826665024,0,37.4559351,126.95420589999999,172.133,190.59,1725542693899892,11141125,0.328,1.3982967,0.9480001,1.394,0.53,0.83,64,6,0.27800003,-0.05,-0.273,-0.961,0.0,0,nan,0.0,0.0,0.0,0,4,1,1,1,31,0,0,0
826770103,0,37.455935,126.95420569999999,172.241,190.698,1725542693999893,11141125,0.32700002,1.7838954,0.94900006,1.3950001,0.53,0.83,64,7,0.209,-0.1,-0.18300001,-0.93700004,0.0,0,nan,0.0,0.0,0.0,0,4,1,1,1,32,0,0,0
826862794,0,37.455935,126.9542053,172.33,190.787,1725542694099892,11141125,0.328,1.1537312,0.94900006,1.3950001,0.53,0.83,64,7,0.333,-0.043,-0.33,-0.89800006,0.0,0,nan,0.0,0.0,0.0,0,4,1,1,1,31,0,0,0
826962789,0,37.455934899999995,126.95420499999999,172.42000000000002,190.877,1725542694199892,11141125,0.328,1.3490926,0.95000005,1.396,0.53,0.83,64,7,0.29000002,-0.036000002,-0.28800002,-0.91200006,0.0,0,nan,0.0,0.0,0.0,0,4,1,1,1,31,0,0,0
827062810,0,37.455934899999995,126.95420469999999,172.492,190.949,1725542694299892,11141125,0.32900003,2.138416,0.95000005,1.3970001,0.53,0.83,64,7,0.177,0.065000005,-0.165,-0.84800005,0.0,0,nan,0.0,0.0,0.0,0,4,1,1,1,31,0,0,0
827164783,0,37.455934899999995,126.95420449999999,172.568,191.025,1725542694399892,11141125,0.33100003,1.8900889,0.95100003,1.3980001,0.53,0.83,64,7,0.21100001,-0.060000002,-0.202,-0.81700003,0.0,0,nan,0.0,0.0,0.0,0,4,1,1,1,31,0,0,0
827263783,0,37.455934899999995,126.95420419999999,172.672,191.129,1725542694499892,11141125,0.33200002,1.6483301,0.952,1.399,0.53,0.83,64,7,0.24400002,-0.001,-0.24400002,-0.78000003,0.0,0,nan,0.0,0.0,0.0,0,4,1,1,1,31,0,0,0
827362783,0,37.455935,126.95420399999999,172.744,191.20000000000002,1725542694599892,11141125,0.34,1.3579183,0.952,1.4000001,0.53,0.83,64,7,0.268,0.185,-0.193,-0.762,0.0,0,nan,0.0,0.0,0.0,0,4,1,1,1,32,0,0,0
827463784,0,37.4559351,126.9542037,172.82,191.27700000000002,1725542694699892,11141125,0.33400002,1.6866976,0.95300007,1.401,0.53,0.83,64,7,0.23300001,0.05,-0.22700001,-0.652,0.0,0,nan,0.0,0.0,0.0,0,4,1,1,1,32,0,0,0
827562784,0,37.4559351,126.9542034,172.897,191.354,1725542694799892,11141125,0.33100003,1.4384582,0.95400006,1.4020001,0.53,0.83,64,7,0.27800003,-0.014,-0.277,-0.632,0.0,0,nan,0.0,0.0,0.0,0,4,1,1,1,32,0,0,0
827661783,0,37.4559351,126.9542031,172.967,191.424,1725542694899892,11141125,0.33,1.5631535,0.95400006,1.4030001,0.53,0.83,64,7,0.256,-0.015000001,-0.256,-0.61700004,0.0,0,nan,0.0,0.0,0.0,0,4,1,1,1,32,0,0,0
827769784,0,37.4559351,126.95420279999999,173.02700000000002,191.484,1725542694999893,11141125,0.33100003,1.5373397,0.95500004,1.4030001,0.53,0.83,64,9,0.25100002,0.05,-0.246,-0.61600006,0.0,0,nan,0.0,0.0,0.0,0,4,1,1,1,31,0,0,0
827861867,0,37.455935,126.9542024,173.106,191.562,1725542695099892,11141125,0.32900003,1.3668146,0.95500004,1.404,0.53,0.83,64,9,0.28300002,-0.082,-0.27,-0.492,0.0,0,nan,0.0,0.0,0.0,0,4,1,1,1,31,0,0,0
827961783,0,37.4559351,126.9542022,173.156,191.613,1725542695199892,11141125,0.33800003,1.76402,0.95600003,1.4050001,0.53,0.83,64,9,0.21300001,0.105000004,-0.185,-0.46600002,0.0,0,nan,0.0,0.0,0.0,0,4,1,1,1,31,0,0,0
828060807,0,37.4559351,126.9542019,173.166,191.623,1725542695299892,11141125,0.335,1.7961451,0.95600003,1.4050001,0.53,0.83,64,9,0.21800001,0.019000001,-0.21700001,-0.185,0.0,0,nan,0.0,0.0,0.0,0,4,1,1,1,31,0,0,0
828161418,0,37.4559351,126.95420159999999,173.174,191.631,1725542695399892,11141125,0.33800003,1.376895,0.957,1.406,0.53,0.83,64,9,0.28300002,0.001,-0.28300002,0.057000004,0.0,0,nan,0.0,0.0,0.0,0,4,1,1,1,32,0,0,0
828262786,0,37.455935,126.9542012,173.172,191.629,1725542695499892,11141125,0.34300002,0.9550244,0.957,1.4070001,0.53,0.83,64,9,0.40300003,-0.07,-0.397,0.128,0.0,0,nan,0.0,0.0,0.0,0,4,1,1,1,31,0,0,0
828363907,0,37.455935,126.9542006,173.162,191.619,1725542695599892,11141125,0.33900002,0.7455538,0.95800006,1.4080001,0.53,0.83,64,9,0.514,-0.07700001,-0.509,0.08400001,4.5618806,0,nan,0.0,0.0,0.0,0,4,1,1,1,31,0,0,0
828462783,0,37.455935,126.95419989999999,173.163,191.62,1725542695699892,11141125,0.337,0.5555767,0.95800006,1.4080001,0.53,0.83,64,9,0.67700005,0.039,-0.67600006,0.039,4.7705827,0,nan,0.0,0.0,0.0,0,4,1,1,1,31,0,0,0
828562783,0,37.455935,126.95419899999999,173.177,191.63400000000001,1725542695799892,11141125,0.34300002,0.4608772,0.95900005,1.409,0.53,0.83,64,9,0.83900005,-0.004,-0.83900005,-0.041,4.7082157,0,nan,0.0,0.0,0.0,0,4,1,1,1,32,0,0,0
828661783,0,37.455935,126.9541979,173.183,191.639,1725542695899892,11141125,0.34500003,0.38108408,0.95900005,1.409,0.53,0.83,64,9,1.0170001,0.071,-1.0150001,-0.071,4.7822337,0,nan,0.0,0.0,0.0,0,4,1,1,1,31,0,0,0
828768786,0,37.4559351,126.9541967,173.198,191.655,1725542695999892,11141125,0.349,0.3389272,0.96000004,1.4100001,0.53,0.83,64,8,1.1600001,0.094000004,-1.156,-0.147,4.7938356,0,nan,0.0,0.0,0.0,0,4,1,1,1,31,0,0,0
828865969,0,37.4559351,126.9541953,173.189,191.64600000000002,1725542696099891,11141125,0.34800002,0.3011536,0.96000004,1.411,0.53,0.83,64,8,1.3060001,0.074,-1.304,-0.08400001,4.768767,0,nan,0.0,0.0,0.0,0,4,1,1,1,32,0,0,0
828965783,0,37.4559352,126.95419369999999,173.216,191.673,1725542696199891,11141125,0.35300002,0.27311262,0.961,1.4120001,0.53,0.83,64,8,1.4460001,0.064,-1.4440001,-0.135,4.756602,0,nan,0.0,0.0,0.0,0,4,1,1,1,32,0,0,0
829065786,0,37.4559353,126.95419199999999,173.236,191.693,1725542696299891,11141125,0.354,0.2524362,0.961,1.4130001,0.53,0.83,64,8,1.5560001,0.12200001,-1.5510001,-0.116000004,4.79109,0,nan,0.0,0.0,0.0,0,4,1,1,1,32,0,0,0
829163790,0,37.4559354,126.95419009999999,173.25300000000001,191.71,1725542696399891,11141125,0.349,0.24025871,0.9620001,1.414,0.53,0.83,64,8,1.6530001,0.078,-1.651,-0.20400001,4.7596064,0,nan,0.0,0.0,0.0,0,4,1,1,1,32,0,0,0
829265806,0,37.4559354,126.95418819999999,173.274,191.73000000000002,1725542696499891,11141125,0.356,0.23631111,0.96300006,1.4150001,0.53,0.83,64,8,1.692,0.091000006,-1.6890001,-0.238,4.7661247,0,nan,0.0,0.0,0.0,0,4,1,1,1,32,0,0,0
829367806,0,37.455935499999995,126.95418629999999,173.303,191.76,1725542696599891,11141125,0.35000002,0.22561976,0.96300006,1.416,0.53,0.83,64,8,1.7340001,0.105000004,-1.7310001,-0.25100002,4.7731194,0,nan,0.0,0.0,0.0,0,4,1,1,1,32,0,0,0
829466637,0,37.4559356,126.9541842,173.346,191.803,1725542696699891,11141125,0.34800002,0.21165572,0.96400005,1.416,0.53,0.83,64,8,1.8310001,0.082,-1.83,-0.37100002,4.7571025,0,nan,0.0,0.0,0.0,0,4,1,1,1,32,0,0,0
829565783,0,37.4559356,126.9541821,173.376,191.833,1725542696799891,11141125,0.342,0.21013607,0.96400005,1.417,0.53,0.83,64,8,1.8360001,0.065000005,-1.8340001,-0.328,4.747619,0,nan,0.0,0.0,0.0,0,4,1,1,1,32,0,0,0
829665027,0,37.4559357,126.95418,173.39600000000002,191.853,1725542696899891,11141125,0.34800002,0.20628867,0.96500003,1.4180001,0.53,0.83,64,8,1.8960001,0.087000005,-1.894,-0.266,4.7581186,0,nan,0.0,0.0,0.0,0,4,1,1,1,32,0,0,0
829771788,0,37.4559358,126.95417789999999,173.424,191.88,1725542696999892,11141125,0.347,0.20979641,0.96500003,1.4180001,0.53,0.83,64,7,1.8540001,0.108,-1.8510001,-0.22100002,4.770724,0,nan,0.0,0.0,0.0,0,4,1,1,1,32,0,0,0
829871782,0,37.4559358,126.95417579999999,173.457,191.91400000000002,1725542697099891,11141125,0.342,0.20505558,0.966,1.419,0.53,0.83,64,7,1.8880001,0.060000002,-1.8870001,-0.256,4.744343,0,nan,0.0,0.0,0.0,0,4,1,1,1,32,0,0,0
829968401,0,37.4559359,126.95417359999999,173.469,191.92600000000002,1725542697199891,11141125,0.342,0.21175084,0.966,1.4200001,0.53,0.83,64,7,1.848,0.034,-1.848,-0.164,4.730573,0,nan,0.0,0.0,0.0,0,4,1,1,1,31,0,0,0
830064783,0,37.4559359,126.9541715,173.485,191.942,1725542697299891,11141125,0.342,0.20621413,0.96700007,1.4200001,0.53,0.83,64,7,1.9010001,0.101,-1.899,-0.135,4.765651,0,nan,0.0,0.0,0.0,0,4,1,1,1,31,0,0,0
830165784,0,37.455936,126.9541694,173.483,191.94,1725542697399891,11141125,0.349,0.21295425,0.96700007,1.4210001,0.53,0.83,64,7,1.848,0.074,-1.8460001,-0.127,4.752315,0,nan,0.0,0.0,0.0,0,4,1,1,1,31,0,0,0
830265800,0,37.455936,126.95416739999999,173.50900000000001,191.966,1725542697499891,11141125,0.34500003,0.2236847,0.96700007,1.422,0.53,0.83,64,7,1.7390001,0.080000006,-1.7370001,-0.19900002,4.7583656,0,nan,0.0,0.0,0.0,0,4,1,1,1,31,0,0,0
830364783,0,37.455936099999995,126.9541654,173.52100000000002,191.978,1725542697599891,11141125,0.34600002,0.21507064,0.96800005,1.422,0.53,0.83,64,7,1.815,0.09900001,-1.8130001,-0.22000001,4.7671413,0,nan,0.0,0.0,0.0,0,4,1,1,1,31,0,0,0
830463782,0,37.4559362,126.95416329999999,173.53300000000002,191.99,1725542697699891,11141125,0.349,0.22313686,0.96800005,1.4230001,0.53,0.83,64,7,1.7520001,0.108,-1.7490001,-0.113000005,4.7738247,0,nan,0.0,0.0,0.0,0,4,1,1,1,31,0,0,0
830563783,0,37.4559363,126.95416139999999,173.548,192.004,1725542697799891,11141125,0.347,0.24401098,0.96900004,1.424,0.53,0.83,64,7,1.6550001,0.101,-1.6520001,-0.086,4.773424,0,nan,0.0,0.0,0.0,0,4,1,1,1,30,0,0,0
830666001,0,37.4559363,126.9541596,173.572,192.029,1725542697899891,11141125,0.34800002,0.25218996,0.96900004,1.424,0.53,0.83,64,7,1.5400001,0.128,-1.5350001,-0.14500001,4.7958093,0,nan,0.0,0.0,0.0,0,4,1,1,1,30,0,0,0
830773784,0,37.4559364,126.9541579,173.582,192.038,1725542697999892,11141125,0.34600002,0.27451235,0.97,1.4250001,0.53,0.83,64,15,1.4430001,0.09900001,-1.439,-0.059000004,4.78131,0,nan,0.0,0.0,0.0,0,4,1,1,1,30,0,0,0
830865785,0,37.4559365,126.9541563,173.573,192.03,1725542698099891,11141125,0.34100002,0.29103172,0.97,1.4250001,0.53,0.83,64,15,1.358,0.048,-1.3570001,0.053000003,4.747771,0,nan,0.0,0.0,0.0,0,4,1,1,1,31,0,0,0
830963783,0,37.4559365,126.95415489999999,173.572,192.028,1725542698199891,11141125,0.34300002,0.31956732,0.9710001,1.4260001,0.53,0.83,64,15,1.2270001,0.076000005,-1.2240001,0.069000006,4.774667,0,nan,0.0,0.0,0.0,0,4,1,1,1,31,0,0,0
831063782,0,37.4559366,126.95415349999999,173.578,192.035,1725542698299891,11141125,0.34100002,0.32353097,0.9710001,1.4260001,0.53,0.83,64,15,1.2140001,0.069000006,-1.212,0.075,4.768967,0,nan,0.0,0.0,0.0,0,4,1,1,1,31,0,0,0
831165783,0,37.4559366,126.95415209999999,173.579,192.036,1725542698399891,11141125,0.34300002,0.33259186,0.9710001,1.427,0.53,0.83,64,15,1.1550001,0.116000004,-1.149,0.045,4.813231,0,nan,0.0,0.0,0.0,0,4,1,1,1,32,0,0,0
831263881,0,37.455936699999995,126.9541508,173.596,192.053,1725542698499891,11141125,0.342,0.3608475,0.97200006,1.427,0.52,0.78999996,64,15,1.0780001,0.059000004,-1.0760001,-0.034,4.767265,0,nan,0.0,0.0,0.0,0,4,1,1,1,31,0,0,0
831364366,0,37.455936799999996,126.9541496,173.617,192.074,1725542698599891,11141125,0.342,0.37740615,0.97200006,1.427,0.52,0.78999996,64,15,0.998,0.11100001,-0.99200004,-0.126,4.823514,0,nan,0.0,0.0,0.0,0,4,1,1,1,32,0,0,0
831462784,0,37.4559369,126.95414849999999,173.62800000000001,192.084,1725542698699890,11141125,0.337,0.37400448,0.97200006,1.427,0.52,0.78999996,64,15,0.98800004,0.19900002,-0.96800005,-0.079,4.914869,0,nan,0.0,0.0,0.0,0,4,1,1,1,32,0,0,0
831564012,0,37.455937,126.9541474,173.632,192.089,1725542698799890,11141125,0.33400002,0.4035435,0.97200006,1.427,0.52,0.78999996,64,15,0.94400007,-0.002,-0.94400007,-0.019000001,4.7100472,0,nan,0.0,0.0,0.0,0,4,1,1,1,31,0,0,0
831662783,0,37.455937,126.95414629999999,173.654,192.11,1725542698899890,11141125,0.33600003,0.46069065,0.97200006,1.427,0.52,0.78999996,64,15,0.836,0.035,-0.83500004,0.020000001,4.753686,0,nan,0.0,0.0,0.0,0,4,1,1,1,32,0,0,0
831777836,0,37.455937,126.95414539999999,173.647,192.104,1725542698999891,11141125,0.33600003,0.5078643,0.97200006,1.427,0.52,0.78999996,60,4,0.76600003,-0.004,-0.76600003,0.15100001,4.706549,0,nan,0.0,0.0,0.0,0,4,1,1,1,32,0,0,0
831872783,0,37.455937,126.9541445,173.648,192.10500000000002,1725542699099890,11141125,0.33100003,0.51107794,0.97300005,1.4280001,0.52,0.78999996,60,4,0.75100005,-0.042000003,-0.75000006,0.028,4.6567855,0,nan,0.0,0.0,0.0,0,4,1,1,1,32,0,0,0
831965783,0,37.455937,126.9541436,173.672,192.129,1725542699199890,11141125,0.342,0.4865264,0.97300005,1.4280001,0.52,0.78999996,60,4,0.795,0.012,-0.795,-0.057000004,4.7270594,0,nan,0.0,0.0,0.0,0,4,1,1,1,32,0,0,0
832067103,0,37.455937,126.95414269999999,173.684,192.141,1725542699299890,11141125,0.34,0.47245714,0.97300005,1.4280001,0.52,0.78999996,60,4,0.79600006,0.05,-0.794,-0.065000005,4.7758036,0,nan,0.0,0.0,0.0,0,4,1,1,1,32,0,0,0
832163790,0,37.455937,126.95414179999999,173.703,192.159,1725542699399890,11141125,0.34,0.5072476,0.97300005,1.4280001,0.52,0.78999996,60,4,0.748,0.0050000004,-0.748,-0.116000004,4.718423,0,nan,0.0,0.0,0.0,0,4,1,1,1,32,0,0,0
832264845,0,37.455937,126.9541411,173.713,192.17000000000002,1725542699499890,11141125,0.337,0.72640496,0.97300005,1.4280001,0.52,0.78999996,60,4,0.518,-0.017,-0.518,-0.126,4.679811,0,nan,0.0,0.0,0.0,0,4,1,1,1,32,0,0,0
832363814,0,37.455937,126.9541405,173.741,192.198,1725542699599890,11141125,0.33100003,0.86712825,0.97300005,1.4280001,0.52,0.78999996,60,4,0.43800002,-0.006,-0.43800002,-0.038000003,4.7156963,0,nan,0.0,0.0,0.0,0,4,1,1,1,32,0,0,0
832465783,0,37.4559371,126.95414009999999,173.741,192.198,1725542699699890,11141125,0.33900002,1.1762074,0.97300005,1.4280001,0.52,0.78999996,60,4,0.316,0.1,-0.3,0.026,4.7156963,0,nan,0.0,0.0,0.0,0,4,1,1,1,32,0,0,0
832565783,0,37.4559371,126.9541399,173.734,192.191,1725542699799890,11141125,0.35700002,3.1415925,0.97300005,1.4280001,0.52,0.78999996,60,4,0.095000006,0.076000005,-0.057000004,0.052,4.7156963,0,nan,0.0,0.0,0.0,0,4,1,1,1,31,0,0,0
832665837,0,37.455937299999995,126.9541399,173.746,192.203,1725542699899890,11141125,0.36800003,1.1043277,0.97300005,1.4280001,0.52,0.78999996,60,4,0.319,0.27,0.16900001,0.006,4.7156963,0,nan,0.0,0.0,0.0,0,4,1,1,1,31,0,0,0
832771908,0,37.4559376,126.9541402,173.746,192.202,1725542699999891,11141125,0.35900003,0.70245606,0.97400004,1.4280001,0.52,0.78999996,60,7,0.518,0.38200003,0.349,-0.036000002,0.7401496,0,nan,0.0,0.0,0.0,0,4,1,1,1,31,0,0,0
832866784,0,37.455937999999996,126.9541407,173.763,192.22,1725542700099890,11141125,0.35900003,0.5085439,0.97400004,1.429,0.52,0.78999996,60,7,0.72900003,0.55,0.47800002,-0.020000001,0.71603054,0,nan,0.0,0.0,0.0,0,4,1,1,1,32,0,0,0
832965804,0,37.455938599999996,126.9541412,173.768,192.225,1725542700199890,11141125,0.36400002,0.397645,0.97400004,1.429,0.52,0.78999996,60,7,0.94500005,0.73700005,0.591,0.069000006,0.67591524,0,nan,0.0,0.0,0.0,0,4,1,1,1,32,0,0,0
833064784,0,37.4559395,126.95414199999999,173.764,192.221,1725542700299890,11141125,0.377,0.29159686,0.97400004,1.429,0.52,0.78999996,60,7,1.2930001,1.031,0.78200006,0.016,0.6487813,0,nan,0.0,0.0,0.0,0,4,1,1,1,30,0,0,0
833163784,0,37.4559405,126.9541429,173.775,192.232,1725542700399890,11141125,0.38700002,0.24868323,0.975,1.429,0.53,0.83,60,7,1.4760001,1.2540001,0.77900004,0.035,0.5556505,0,nan,0.0,0.0,0.0,0,4,1,1,1,30,0,0,0
833264783,0,37.4559418,126.95414389999999,173.768,192.225,1725542700499890,11141125,0.39800003,0.20465712,0.975,1.429,0.53,0.83,60,7,1.8130001,1.539,0.95800006,-0.016,0.5569155,0,nan,0.0,0.0,0.0,0,4,1,1,1,31,0,0,0
833365946,0,37.455943399999995,126.954145,173.75900000000001,192.216,1725542700599890,11141125,0.402,0.1756213,0.9760001,1.429,0.53,0.83,60,7,2.101,1.8310001,1.0320001,0.042000003,0.51310587,0,nan,0.0,0.0,0.0,0,4,1,1,1,31,0,0,0
833466784,0,37.455945199999995,126.95414609999999,173.745,192.201,1725542700699890,11141125,0.409,0.15879022,0.9760001,1.429,0.53,0.83,60,7,2.2770002,2.0370002,1.0170001,0.124000005,0.46302834,0,nan,0.0,0.0,0.0,0,4,1,1,1,32,0,0,0
833567815,0,37.4559472,126.9541472,173.745,192.201,1725542700799890,11141125,0.418,0.14475255,0.97700006,1.4300001,0.52,0.78999996,60,7,2.516,2.2840002,1.0550001,0.093,0.43253183,0,nan,0.0,0.0,0.0,0,4,1,1,1,32,0,0,0
833665784,0,37.4559494,126.9541483,173.742,192.199,1725542700899890,11141125,0.42400002,0.12759404,0.97800004,1.4300001,0.52,0.78999996,60,7,2.786,2.6200001,0.94600004,0.13000001,0.34656444,0,nan,0.0,0.0,0.0,0,4,1,1,1,32,0,0,0
833775785,0,37.455951999999996,126.95414919999999,173.746,192.203,1725542700999891,11141125,0.44300002,0.11690965,0.97900003,1.4300001,0.52,0.78999996,60,6,3.042,2.9440002,0.76900005,0.09,0.255383,0,nan,0.0,0.0,0.0,0,4,1,1,1,32,0,0,0
833874587,0,37.4559549,126.95415,173.744,192.201,1725542701099890,11141125,0.42600003,0.102360934,0.97900003,1.4300001,0.52,0.78999996,60,6,3.371,3.2940001,0.71800005,0.041,0.21476206,0,nan,0.0,0.0,0.0,0,4,1,1,1,32,0,0,0
833964886,0,37.455957999999995,126.9541507,173.741,192.198,1725542701199890,11141125,0.42600003,0.09417185,0.98,1.4300001,0.53,0.83,60,6,3.6280003,3.5700002,0.647,0.068,0.17936574,0,nan,0.0,0.0,0.0,0,4,1,1,1,32,0,0,0
834063784,0,37.4559614,126.9541514,173.742,192.198,1725542701299890,11141125,0.42400002,0.08925526,0.98100007,1.4300001,0.52,0.78999996,60,6,3.8860002,3.8200002,0.71300006,0.061000004,0.18460068,0,nan,0.0,0.0,0.0,0,4,1,1,1,32,0,0,0
834163783,0,37.455965,126.95415209999999,173.755,192.21200000000002,1725542701399889,11141125,0.43,0.084795415,0.98100007,1.4300001,0.52,0.78999996,60,6,4.1130004,4.0680003,0.60300004,0.089,0.14720613,0,nan,0.0,0.0,0.0,0,4,1,1,1,32,0,0,0
834262969,0,37.455968899999995,126.9541527,173.762,192.219,1725542701499889,11141125,0.42600003,0.08056021,0.98200005,1.4310001,0.52,0.78999996,60,6,4.3430004,4.313,0.50600004,0.068,0.116798475,0,nan,0.0,0.0,0.0,0,4,1,1,1,32,0,0,0
834366720,0,37.4559729,126.9541532,173.762,192.219,1725542701599889,11141125,0.42900002,0.076172106,0.98300004,1.4310001,0.52,0.78999996,60,6,4.5210004,4.484,0.57900006,0.127,0.12836844,0,nan,0.0,0.0,0.0,0,4,1,1,1,32,0,0,0
834466883,0,37.455977,126.9541538,173.76,192.217,1725542701699889,11141125,0.42600003,0.074199006,0.98300004,1.4310001,0.52,0.78999996,60,6,4.677,4.6480002,0.51900005,0.095000006,0.1111019,0,nan,0.0,0.0,0.0,0,4,1,1,1,32,0,0,0
834567135,0,37.4559813,126.9541543,173.768,192.22400000000002,1725542701799889,11141125,0.42700002,0.07229485,0.984,1.432,0.52,0.78999996,60,6,4.796,4.776,0.44400004,0.11100001,0.09268972,0,nan,0.0,0.0,0.0,0,4,1,1,1,32,0,0,0
834664790,0,37.4559857,126.95415469999999,173.773,192.23000000000002,1725542701899889,11141125,0.42800003,0.070716724,0.9850001,1.432,0.52,0.78999996,60,6,4.8960004,4.8830004,0.35900003,0.024,0.07336195,0,nan,0.0,0.0,0.0,0,4,1,1,1,32,0,0,0
834771785,0,37.455990199999995,126.9541551,173.785,192.241,1725542701999890,11141125,0.42800003,0.06861098,0.98600006,1.432,0.52,0.78999996,60,9,5.0600004,5.0420003,0.42200002,-0.059000004,0.08342813,0,nan,0.0,0.0,0.0,0,4,1,1,1,32,0,0,0
834863785,0,37.4559948,126.9541555,173.805,192.262,1725542702099889,11141125,0.40800002,0.06896686,0.98600006,1.4330001,0.52,0.78999996,60,9,5.043,5.0350003,0.291,-0.09200001,0.057656426,0,nan,0.0,0.0,0.0,0,4,1,1,1,32,0,0,0
834962784,0,37.455999299999995,126.95415589999999,173.82,192.27700000000002,1725542702199889,11141125,0.395,0.06826541,0.98600006,1.4330001,0.52,0.78999996,60,9,5.0220003,5.004,0.42700002,0.009000001,0.08505652,0,nan,0.0,0.0,0.0,0,4,1,1,1,32,0,0,0
835063991,0,37.4560039,126.95415639999999,173.826,192.28300000000002,1725542702299889,11141125,0.395,0.06948592,0.98600006,1.432,0.52,0.78999996,60,9,4.9500003,4.9290004,0.45800003,0.007,0.09273335,0,nan,0.0,0.0,0.0,0,4,1,1,1,32,0,0,0
835164785,0,37.4560083,126.9541569,173.83,192.287,1725542702399889,11141125,0.39800003,0.06999975,0.98600006,1.432,0.52,0.78999996,60,9,4.9570003,4.926,0.54800004,0.062000003,0.110687554,0,nan,0.0,0.0,0.0,0,4,1,1,1,32,0,0,0
835263783,0,37.456012799999996,126.9541575,173.834,192.291,1725542702499889,11141125,0.40300003,0.07069159,0.98600006,1.432,0.52,0.78999996,60,9,4.9150004,4.881,0.58100003,0.037,0.118533164,0,nan,0.0,0.0,0.0,0,4,1,1,1,32,0,0,0
835362790,0,37.4560172,126.9541582,173.823,192.28,1725542702599889,11141125,0.39900002,0.07031321,0.98600006,1.432,0.52,0.78999996,60,9,4.9610004,4.925,0.60200006,0.047000002,0.12153792,0,nan,0.0,0.0,0.0,0,4,1,1,1,32,0,0,0
835463094,0,37.4560217,126.9541589,173.83100000000002,192.288,1725542702699889,11141125,0.39000002,0.07051357,0.98700005,1.432,0.52,0.78999996,60,9,4.9170003,4.8760004,0.633,0.034,0.12907162,0,nan,0.0,0.0,0.0,0,4,1,1,1,32,0,0,0
835563783,0,37.456026099999995,126.9541596,173.833,192.29,1725542702799889,11141125,0.39600003,0.07033188,0.98700005,1.432,0.52,0.78999996,60,9,4.9560003,4.912,0.656,0.08400001,0.13270244,0,nan,0.0,0.0,0.0,0,4,1,1,1,32,0,0,0
835664785,0,37.4560305,126.95416019999999,173.847,192.303,1725542702899889,11141125,0.40800002,0.07157735,0.98700005,1.432,0.52,0.78999996,60,9,4.9100003,4.875,0.58100003,0.029000001,0.1185925,0,nan,0.0,0.0,0.0,0,4,1,1,1,32,0,0,0
835772042,0,37.456035,126.95416089999999,173.854,192.311,1725542702999890,11141125,0.41500002,0.07057186,0.98700005,1.432,0.52,0.78999996,60,7,4.9490004,4.9080005,0.638,-0.007,0.12932993,0,nan,0.0,0.0,0.0,0,4,1,1,1,32,0,0,0
835863783,0,37.4560394,126.95416159999999,173.864,192.32,1725542703099889,11141125,0.404,0.06931226,0.98800004,1.432,0.52,0.78999996,60,7,4.9690003,4.938,0.55,0.021000002,0.11088583,0,nan,0.0,0.0,0.0,0,4,1,1,1,32,0,0,0
835964996,0,37.4560439,126.95416209999999,173.867,192.323,1725542703199889,11141125,0.40300003,0.06917525,0.98800004,1.432,0.52,0.78999996,60,7,4.952,4.925,0.514,0.091000006,0.10399893,0,nan,0.0,0.0,0.0,0,4,1,1,1,32,0,0,0
836066781,0,37.4560484,126.9541627,173.868,192.32500000000002,1725542703299889,11141125,0.40500003,0.06950564,0.98800004,1.432,0.52,0.78999996,60,7,4.946,4.9090004,0.60300004,0.095000006,0.12229574,0,nan,0.0,0.0,0.0,0,4,1,1,1,32,0,0,0
836164784,0,37.456052799999995,126.9541634,173.856,192.31300000000002,1725542703399889,11141125,0.39900002,0.06958627,0.98800004,1.432,0.52,0.78999996,60,7,4.8970003,4.8620005,0.586,0.15300001,0.12000848,0,nan,0.0,0.0,0.0,0,4,1,1,1,32,0,0,0
836264148,0,37.4560572,126.95416399999999,173.846,192.303,1725542703499889,11141125,0.4,0.06971142,0.989,1.432,0.52,0.78999996,60,7,4.9020004,4.873,0.53800005,0.165,0.109906346,0,nan,0.0,0.0,0.0,0,4,1,1,1,31,0,0,0
836365102,0,37.4560616,126.9541646,173.845,192.302,1725542703599889,11141125,0.40100002,0.069941446,0.989,1.432,0.52,0.78999996,60,7,4.9230003,4.8960004,0.521,0.047000002,0.106020026,0,nan,0.0,0.0,0.0,0,4,1,1,1,31,0,0,0
836465782,0,37.4560661,126.95416519999999,173.866,192.323,1725542703699889,11141125,0.404,0.06993639,0.989,1.432,0.52,0.78999996,60,7,4.9560003,4.9240003,0.565,0.006,0.11432726,0,nan,0.0,0.0,0.0,0,4,1,1,1,31,0,0,0
836562628,0,37.456070499999996,126.95416569999999,173.88400000000001,192.341,1725542703799889,11141125,0.39800003,0.07073924,0.989,1.432,0.52,0.78999996,60,7,4.8830004,4.854,0.53300005,-0.022000002,0.10928274,0,nan,0.0,0.0,0.0,0,4,1,1,1,32,0,0,0
836664791,0,37.4560749,126.95416639999999,173.892,192.34900000000002,1725542703899889,11141125,0.40100002,0.071955904,0.99000007,1.432,0.52,0.78999996,60,7,4.9410005,4.8980002,0.65400004,-0.08400001,0.13270785,0,nan,0.0,0.0,0.0,0,4,1,1,1,32,0,0,0
836771784,0,37.4560794,126.95416709999999,173.905,192.362,1725542703999890,11141125,0.39600003,0.07005751,0.99000007,1.432,0.52,0.78999996,60,8,4.9830003,4.946,0.61200005,-0.049000002,0.123159334,0,nan,0.0,0.0,0.0,0,4,1,1,1,32,0,0,0
836863834,0,37.4560838,126.9541678,173.911,192.367,1725542704099889,11141125,0.39600003,0.07055877,0.99000007,1.432,0.52,0.78999996,60,8,4.927,4.8830004,0.65800005,-0.003,0.13393115,0,nan,0.0,0.0,0.0,0,4,1,1,1,32,0,0,0
836963785,0,37.456088199999996,126.95416859999999,173.92600000000002,192.382,1725542704199888,11141125,0.40100002,0.07162814,0.99100006,1.432,0.52,0.78999996,60,8,4.951,4.8950005,0.74500006,0.018000001,0.15113468,0,nan,0.0,0.0,0.0,0,4,1,1,1,31,0,0,0
837062785,0,37.4560926,126.95416949999999,173.928,192.38400000000001,1725542704299888,11141125,0.397,0.07090295,0.99100006,1.432,0.52,0.78999996,60,8,4.912,4.8490005,0.786,0.0050000004,0.16080171,0,nan,0.0,0.0,0.0,0,4,1,1,1,31,0,0,0
837161789,0,37.456097,126.9541704,173.929,192.386,1725542704399888,11141125,0.39800003,0.07155518,0.99100006,1.432,0.52,0.78999996,60,8,4.9410005,4.88,0.77400005,0.003,0.15738349,0,nan,0.0,0.0,0.0,0,4,1,1,1,32,0,0,0
837264786,0,37.4561014,126.95417119999999,173.93,192.386,1725542704499888,11141125,0.39200002,0.07043852,0.99100006,1.432,0.52,0.78999996,60,8,4.9410005,4.8780003,0.78800005,0.072000004,0.16007026,0,nan,0.0,0.0,0.0,0,4,1,1,1,31,0,0,0
837365835,0,37.456105799999996,126.9541721,173.922,192.379,1725542704599888,11141125,0.39200002,0.070949376,0.99100006,1.432,0.52,0.78999996,60,8,4.9080005,4.8500004,0.753,0.128,0.154089,0,nan,0.0,0.0,0.0,0,4,1,1,1,31,0,0,0
837465786,0,37.4561102,126.95417289999999,173.913,192.369,1725542704699888,11141125,0.395,0.070418976,0.99200004,1.432,0.52,0.78999996,60,8,4.912,4.8510003,0.772,0.134,0.15787114,0,nan,0.0,0.0,0.0,0,4,1,1,1,31,0,0,0
837565783,0,37.4561146,126.9541737,173.909,192.366,1725542704799888,11141125,0.39900002,0.07212922,0.99200004,1.432,0.52,0.78999996,60,8,4.887,4.841,0.66800004,0.142,0.13702823,0,nan,0.0,0.0,0.0,0,4,1,1,1,32,0,0,0
837662817,0,37.456119099999995,126.9541744,173.888,192.345,1725542704899888,11141125,0.38900003,0.06957039,0.99200004,1.432,0.52,0.78999996,60,8,4.9440002,4.9100003,0.57900006,0.097,0.11745315,0,nan,0.0,0.0,0.0,0,4,1,1,1,32,0,0,0
837770786,0,37.4561235,126.95417499999999,173.875,192.33100000000002,1725542704999889,11141125,0.39100003,0.06933216,0.99200004,1.432,0.52,0.78999996,61,15,4.959,4.9350004,0.48600003,0.12900001,0.0982184,0,nan,0.0,0.0,0.0,0,4,1,1,1,31,0,0,0
837862785,0,37.456128,126.95417549999999,173.861,192.317,1725542705099888,11141125,0.39200002,0.07103263,0.99300003,1.432,0.52,0.78999996,61,15,4.9220004,4.9020004,0.439,0.135,0.08927184,0,nan,0.0,0.0,0.0,0,4,1,1,1,32,0,0,0
837964782,0,37.456132499999995,126.95417599999999,173.84,192.297,1725542705199888,11141125,0.395,0.06977669,0.99300003,1.4330001,0.52,0.78999996,61,15,4.977,4.9560003,0.45000002,0.15900001,0.09058433,0,nan,0.0,0.0,0.0,0,4,1,1,1,32,0,0,0
838063782,0,37.456137,126.9541764,173.82500000000002,192.281,1725542705299888,11141125,0.40300003,0.0709602,0.99300003,1.4330001,0.52,0.78999996,61,15,4.985,4.9740005,0.342,0.13700001,0.0686321,0,nan,0.0,0.0,0.0,0,4,1,1,1,32,0,0,0
838162999,0,37.4561415,126.95417669999999,173.822,192.278,1725542705399888,11141125,0.407,0.07166653,0.994,1.434,0.52,0.78999996,61,15,4.971,4.9620004,0.29500002,0.104,0.05946267,0,nan,0.0,0.0,0.0,0,4,1,1,1,32,0,0,0
838263783,0,37.456146,126.9541771,173.812,192.269,1725542705499888,11141125,0.39900002,0.07120193,0.994,1.434,0.52,0.78999996,61,15,5.006,4.991,0.381,0.030000001,0.076201946,0,nan,0.0,0.0,0.0,0,4,1,1,1,32,0,0,0
838364787,0,37.4561505,126.9541776,173.814,192.27,1725542705599888,11141125,0.39800003,0.07231789,0.99500006,1.4350001,0.52,0.78999996,61,15,4.939,4.927,0.35500002,0.017,0.072020486,0,nan,0.0,0.0,0.0,0,4,1,1,1,32,0,0,0
838463161,0,37.456154999999995,126.95417789999999,173.806,192.263,1725542705699888,11141125,0.395,0.07211491,0.99500006,1.4350001,0.52,0.78999996,61,15,4.9230003,4.9110003,0.342,0.030000001,0.06944909,0,nan,0.0,0.0,0.0,0,4,1,1,1,32,0,0,0
838561785,0,37.456159299999996,126.95417839999999,173.80100000000002,192.257,1725542705799888,11141125,0.38900003,0.073998995,0.99500006,1.4360001,0.52,0.78999996,61,15,4.802,4.787,0.377,0.074,0.078591645,0,nan,0.0,0.0,0.0,0,4,1,1,1,32,0,0,0
838662783,0,37.4561636,126.9541788,173.79,192.246,1725542705899888,11141125,0.388,0.07491023,0.99600005,1.4360001,0.52,0.78999996,61,15,4.7190003,4.703,0.386,0.046000004,0.081891894,0,nan,0.0,0.0,0.0,0,4,1,1,1,32,0,0,0
838771786,0,37.456167799999996,126.9541792,173.79,192.247,1725542705999889,11141125,0.39200002,0.07921997,0.99600005,1.4360001,0.52,0.78999996,61,11,4.517,4.505,0.33,0.080000006,0.0730354,0,nan,0.0,0.0,0.0,0,4,1,1,1,32,0,0,0
838869790,0,37.4561718,126.9541795,173.779,192.236,1725542706099888,11141125,0.39200002,0.08175907,0.99600005,1.437,0.52,0.78999996,61,11,4.3840003,4.379,0.20700002,0.09900001,0.047221802,0,nan,0.0,0.0,0.0,0,4,1,1,1,31,0,0,0
838967783,0,37.4561756,126.9541797,173.78,192.237,1725542706199888,11141125,0.393,0.08856987,0.99700004,1.4380001,0.52,0.78999996,61,11,4.182,4.1790004,0.155,0.049000002,0.03704496,0,nan,0.0,0.0,0.0,0,4,1,1,1,31,0,0,0
839063785,0,37.456179299999995,126.95417979999999,173.775,192.232,1725542706299888,11141125,0.39200002,0.088791706,0.99700004,1.4380001,0.52,0.78999996,61,11,4.0680003,4.066,0.127,0.07300001,0.03119933,0,nan,0.0,0.0,0.0,0,4,1,1,1,32,0,0,0
839164783,0,37.456182999999996,126.95418,173.767,192.223,1725542706399888,11141125,0.38300002,0.08922507,0.99700004,1.4380001,0.52,0.78999996,61,11,3.9600003,3.959,0.09200001,0.059000004,0.023242375,0,nan,0.0,0.0,0.0,0,4,1,1,1,32,0,0,0
839264782,0,37.4561865,126.95418009999999,173.764,192.22,1725542706499888,11141125,0.397,0.09505377,0.998,1.439,0.52,0.78999996,61,11,3.831,3.831,0.080000006,0.060000002,0.02095861,0,nan,0.0,0.0,0.0,0,4,1,1,1,32,0,0,0
839362783,0,37.4561898,126.9541802,173.75,192.207,1725542706599888,11141125,0.39400002,0.09969879,0.998,1.439,0.52,0.78999996,61,11,3.6460001,3.6450002,0.055000003,0.05,0.015147886,0,nan,0.0,0.0,0.0,0,4,1,1,1,32,0,0,0
839462782,0,37.456193,126.9541802,173.755,192.21200000000002,1725542706699888,11141125,0.393,0.10257962,0.998,1.44,0.52,0.78999996,61,11,3.509,3.509,-0.023000002,0.055000003,6.276652,0,nan,0.0,0.0,0.0,0,4,1,1,1,32,0,0,0
839561783,0,37.4561961,126.9541802,173.756,192.213,1725542706799888,11141125,0.395,0.10467001,0.9990001,1.4410001,0.52,0.78999996,61,11,3.4540002,3.4540002,0.019000001,0.075,0.0054365257,0,nan,0.0,0.0,0.0,0,4,1,1,1,32,0,0,0
839662784,0,37.4561991,126.9541802,173.749,192.20600000000002,1725542706899887,11141125,0.39200002,0.11138709,0.9990001,1.4410001,0.52,0.78999996,61,11,3.262,3.262,0.009000001,0.09,0.002611187,0,nan,0.0,0.0,0.0,0,4,1,1,1,32,0,0,0
839769786,0,37.456201899999996,126.9541802,173.738,192.19400000000002,1725542706999888,11141125,0.38500002,0.118555844,1.0,1.442,0.52,0.78999996,65,15,3.0490003,3.0490003,-0.027,0.12900001,6.2744293,0,nan,0.0,0.0,0.0,0,4,1,1,1,32,0,0,0
839863783,0,37.4562046,126.9541802,173.733,192.19,1725542707099887,11141125,0.38500002,0.12466973,1.0,1.442,0.52,0.78999996,65,15,2.8980002,2.897,0.060000002,0.081,0.020535018,0,nan,0.0,0.0,0.0,0,4,1,1,1,32,0,0,0
839962782,0,37.4562071,126.95418029999999,173.723,192.18,1725542707199887,11141125,0.39000002,0.13214567,1.0,1.4430001,0.52,0.78999996,65,15,2.7440002,2.7440002,0.056,0.10300001,0.020398185,0,nan,0.0,0.0,0.0,0,4,1,1,1,32,0,0,0
840063784,0,37.4562095,126.9541804,173.697,192.154,1725542707299887,11141125,0.393,0.13955268,1.0,1.4440001,0.52,0.78999996,65,15,2.6060002,2.6060002,0.054,0.069000006,0.020569405,0,nan,0.0,0.0,0.0,0,4,1,1,1,32,0,0,0
840163789,0,37.4562117,126.9541804,173.686,192.143,1725542707399887,11141125,0.39100003,0.15447438,1.001,1.4440001,0.52,0.78999996,65,15,2.368,2.367,-0.047000002,0.102000006,6.2632613,0,nan,0.0,0.0,0.0,0,4,1,1,1,32,0,0,0
840262793,0,37.4562137,126.95418029999999,173.685,192.141,1725542707499887,11141125,0.386,0.1658321,1.001,1.445,0.52,0.78999996,65,15,2.186,2.181,-0.15,0.11400001,6.214473,0,nan,0.0,0.0,0.0,0,4,1,1,1,32,0,0,0
840364783,0,37.4562156,126.95418009999999,173.685,192.142,1725542707599887,11141125,0.388,0.18649209,1.0020001,1.4460001,0.52,0.78999996,65,15,1.9760001,1.9640001,-0.22200002,0.087000005,6.170735,0,nan,0.0,0.0,0.0,0,4,1,1,1,32,0,0,0
840459790,0,37.4562172,126.95417979999999,173.67600000000002,192.133,1725542707699887,11141125,0.393,0.20884785,1.0020001,1.447,0.52,0.78999996,65,15,1.7730001,1.7590001,-0.22500001,0.055000003,6.1561437,0,nan,0.0,0.0,0.0,0,4,1,1,1,32,0,0,0
840562782,0,37.4562187,126.95417959999999,173.675,192.131,1725542707799887,11141125,0.386,0.23774718,1.003,1.4480001,0.52,0.78999996,65,15,1.547,1.5350001,-0.186,0.025,6.162873,0,nan,0.0,0.0,0.0,0,4,1,1,1,32,0,0,0
840663783,0,37.45622,126.9541794,173.679,192.135,1725542707899887,11141125,0.39100003,0.24581549,1.003,1.4490001,0.52,0.78999996,65,15,1.5170001,1.508,-0.162,-0.036000002,6.1761384,0,nan,0.0,0.0,0.0,0,4,1,1,1,32,0,0,0
840770789,0,37.456221299999996,126.9541792,173.684,192.14000000000001,1725542707999888,11141125,0.38900003,0.27131963,1.0040001,1.45,0.52,0.78999996,65,10,1.36,1.345,-0.202,0.0050000004,6.1338553,0,nan,0.0,0.0,0.0,0,4,1,1,1,31,0,0,0
840864895,0,37.4562224,126.95417909999999,173.672,192.129,1725542708099887,11141125,0.39100003,0.2959696,1.0040001,1.4510001,0.52,0.78999996,65,10,1.2540001,1.248,-0.12200001,0.051000003,6.185721,0,nan,0.0,0.0,0.0,0,4,1,1,1,31,0,0,0
840963363,0,37.4562234,126.95417889999999,173.663,192.12,1725542708199887,11141125,0.386,0.35162517,1.005,1.452,0.52,0.78999996,65,10,1.049,1.033,-0.18100001,0.11000001,6.1098666,0,nan,0.0,0.0,0.0,0,4,1,1,1,32,0,0,0
841065784,0,37.456224299999995,126.95417859999999,173.65,192.107,1725542708299887,11141125,0.38200003,0.38935608,1.005,1.4530001,0.52,0.78999996,65,10,0.94100004,0.91300005,-0.22800002,0.116000004,6.038236,0,nan,0.0,0.0,0.0,0,4,1,1,1,32,0,0,0
841164271,0,37.456224999999996,126.95417839999999,173.639,192.096,1725542708399887,11141125,0.388,0.46457297,1.005,1.455,0.52,0.78999996,65,10,0.80700004,0.78800005,-0.17300001,0.042000003,6.0676613,0,nan,0.0,0.0,0.0,0,4,1,1,1,32,0,0,0
841262784,0,37.4562257,126.9541782,173.643,192.1,1725542708499887,11141125,0.38700002,0.52424556,1.006,1.4560001,0.52,0.78999996,65,10,0.712,0.67300004,-0.23400001,0.021000002,5.948585,0,nan,0.0,0.0,0.0,0,4,1,1,1,32,0,0,0
841362783,0,37.456226199999996,126.954178,173.654,192.111,1725542708599887,11141125,0.38700002,0.60414237,1.006,1.457,0.52,0.78999996,65,10,0.62200004,0.6,-0.16700001,0.036000002,6.011281,0,nan,0.0,0.0,0.0,0,4,1,1,1,31,0,0,0
841462791,0,37.4562266,126.95417789999999,173.66,192.117,1725542708699887,11141125,0.388,0.83232707,1.0070001,1.4580001,0.52,0.78999996,65,10,0.446,0.44300002,-0.052,-0.020000001,6.0191054,0,nan,0.0,0.0,0.0,0,4,1,1,1,31,0,0,0
841563784,0,37.456227,126.9541778,173.677,192.13400000000001,1725542708799887,11141125,0.38700002,0.95170444,1.0070001,1.4590001,0.52,0.78999996,65,10,0.384,0.38200003,-0.040000003,-0.013,6.0191054,0,nan,0.0,0.0,0.0,0,4,1,1,1,31,0,0,0
841666782,0,37.4562272,126.9541778,173.671,192.127,1725542708899887,11141125,0.38900003,1.3447474,1.008,1.46,0.52,0.78999996,65,10,0.273,0.273,0.011000001,0.012,6.0191054,0,nan,0.0,0.0,0.0,0,4,1,1,1,31,0,0,0
841770794,0,37.456227399999996,126.95417789999999,173.66400000000002,192.121,1725542708999888,11141125,0.386,1.4526684,1.008,1.4610001,0.52,0.78999996,65,7,0.257,0.22700001,0.120000005,0.052,6.0191054,0,nan,0.0,0.0,0.0,0,4,1,1,1,31,0,0,0
841869786,0,37.4562276,126.954178,173.666,192.123,1725542709099887,11141125,0.38200003,2.7841356,1.0090001,1.462,0.52,0.78999996,65,7,0.13900001,0.097,0.1,-0.006,6.0191054,0,nan,0.0,0.0,0.0,0,4,1,1,1,31,0,0,0
841967419,0,37.4562276,126.9541782,173.666,192.123,1725542709199887,11141125,0.37,2.9736307,1.0090001,1.463,0.52,0.78999996,65,7,0.134,0.016,0.133,-0.039,6.0191054,0,nan,0.0,0.0,0.0,0,4,1,1,1,32,0,0,0
842064789,0,37.4562275,126.9541783,173.669,192.125,1725542709299887,11141125,0.374,3.1415925,1.01,1.4640001,0.52,0.78999996,65,7,0.12200001,-0.049000002,0.112,-0.034,6.0191054,0,nan,0.0,0.0,0.0,0,4,1,1,1,32,0,0,0
842164782,0,37.4562275,126.95417839999999,173.684,192.14000000000001,1725542709399887,11141125,0.363,3.1415925,1.01,1.465,0.52,0.78999996,65,7,0.116000004,-0.007,0.115,-0.042000003,6.0191054,0,nan,0.0,0.0,0.0,0,4,1,1,1,31,0,0,0
842264783,0,37.4562275,126.9541785,173.699,192.156,1725542709499887,11141125,0.35900003,3.1415925,1.011,1.4660001,0.52,0.78999996,65,7,0.12200001,-0.033,0.11800001,-0.095000006,6.0191054,0,nan,0.0,0.0,0.0,0,4,1,1,1,31,0,0,0
842365790,0,37.456227299999995,126.95417859999999,173.701,192.157,1725542709599886,11141125,0.4,1.7918994,1.011,1.4670001,0.52,0.78999996,65,7,0.208,-0.186,0.091000006,0.010000001,6.0191054,0,nan,0.0,0.0,0.0,0,4,1,1,1,32,0,0,0
842465783,0,37.4562272,126.9541787,173.702,192.159,1725542709699886,11141125,0.40500003,3.1415925,1.0120001,1.468,0.52,0.78999996,65,7,0.11800001,-0.093,0.07300001,-0.014,6.0191054,0,nan,0.0,0.0,0.0,0,4,1,1,1,31,0,0,0
842564783,0,37.4562271,126.9541788,173.724,192.18,1725542709799886,11141125,0.397,1.838435,1.013,1.4690001,0.52,0.78999996,65,7,0.202,-0.18,0.091000006,-0.047000002,6.0191054,0,nan,0.0,0.0,0.0,0,4,1,1,1,31,0,0,0
842663781,0,37.4562269,126.95417889999999,173.731,192.187,1725542709899886,11141125,0.388,2.0186503,1.013,1.4690001,0.52,0.78999996,65,7,0.187,-0.12900001,0.136,-0.045,6.0191054,0,nan,0.0,0.0,0.0,0,4,1,1,1,31,0,0,0
842773784,0,37.456226799999996,126.95417909999999,173.734,192.19,1725542709999887,11141125,0.39200002,1.4861362,1.014,1.47,0.52,0.78999996,65,12,0.25,-0.18200001,0.172,-0.020000001,6.0191054,0,nan,0.0,0.0,0.0,0,4,1,1,1,32,0,0,0
842869783,0,37.4562266,126.95417929999999,173.729,192.185,1725542710099886,11141125,0.397,1.3850545,1.014,1.4710001,0.52,0.78999996,65,12,0.27100003,-0.23,0.14400001,0.004,6.0191054,0,nan,0.0,0.0,0.0,0,4,1,1,1,31,0,0,0
842966203,0,37.4562265,126.95417959999999,173.716,192.172,1725542710199886,11141125,0.386,1.3143299,1.014,1.4720001,0.52,0.78999996,65,12,0.29200003,-0.163,0.24200001,0.013,6.0191054,0,nan,0.0,0.0,0.0,0,4,1,1,1,31,0,0,0
843065793,0,37.4562263,126.9541799,173.716,192.173,1725542710299886,11141125,0.39000002,0.9568518,1.0150001,1.4720001,0.52,0.78999996,65,12,0.39200002,-0.23400001,0.31500003,0.007,6.0191054,0,nan,0.0,0.0,0.0,0,4,1,1,1,31,0,0,0
843162607,0,37.456226,126.9541802,173.733,192.19,1725542710399886,11141125,0.39100003,0.90514606,1.0150001,1.473,0.52,0.78999996,65,12,0.409,-0.291,0.28800002,-0.001,6.0191054,0,nan,0.0,0.0,0.0,0,4,1,1,1,31,0,0,0
843262786,0,37.4562258,126.95418049999999,173.751,192.208,1725542710499886,11141125,0.38000003,1.0359547,1.0150001,1.473,0.52,0.78999996,65,12,0.365,-0.18200001,0.316,-0.048,6.0191054,0,nan,0.0,0.0,0.0,0,4,1,1,1,31,0,0,0
843363362,0,37.4562257,126.9541809,173.734,192.19,1725542710599886,11141125,0.38000003,1.2114072,1.016,1.4740001,0.52,0.78999996,65,12,0.314,-0.165,0.26700002,0.025,6.0191054,0,nan,0.0,0.0,0.0,0,4,1,1,1,32,0,0,0
843463784,0,37.456225499999995,126.9541812,173.717,192.174,1725542710699886,11141125,0.37600002,1.144074,1.016,1.4740001,0.52,0.78999996,65,12,0.335,-0.16000001,0.294,0.08800001,6.0191054,0,nan,0.0,0.0,0.0,0,4,1,1,1,32,0,0,0
843563876,0,37.4562254,126.95418149999999,173.716,192.172,1725542710799886,11141125,0.37800002,1.3510513,1.016,1.475,0.52,0.78999996,65,12,0.291,-0.087000005,0.277,0.066,6.0191054,0,nan,0.0,0.0,0.0,0,4,1,1,1,32,0,0,0
843662841,0,37.4562254,126.9541818,173.72,192.177,1725542710899886,11141125,0.37500003,1.4780229,1.0170001,1.475,0.52,0.78999996,65,12,0.272,-0.023000002,0.27100003,-0.013,6.0191054,0,nan,0.0,0.0,0.0,0,4,1,1,1,32,0,0,0
843770860,0,37.4562254,126.9541821,173.733,192.189,1725542710999887,11141125,0.36200002,2.971298,1.018,1.4760001,0.52,0.78999996,65,9,0.136,0.006,0.136,-0.1,6.0191054,0,nan,0.0,0.0,0.0,0,4,1,1,1,32,0,0,0
843861790,0,37.456225499999995,126.95418219999999,173.739,192.195,1725542711099886,11141125,0.386,1.9308367,1.018,1.4770001,0.52,0.78999996,65,9,0.20400001,0.16900001,0.113000005,-0.08400001,6.0191054,0,nan,0.0,0.0,0.0,0,4,1,1,1,32,0,0,0
843961785,0,37.4562257,126.9541823,173.745,192.202,1725542711199886,11141125,0.407,1.8601512,1.019,1.478,0.52,0.78999996,65,9,0.209,0.192,0.082,-0.004,6.0191054,0,nan,0.0,0.0,0.0,0,4,1,1,1,32,0,0,0
844063783,0,37.4562259,126.9541824,173.757,192.213,1725542711299886,11141125,0.402,1.2998298,1.019,1.478,0.52,0.78999996,65,9,0.291,0.28100002,0.074,-0.021000002,6.0191054,0,nan,0.0,0.0,0.0,0,4,1,1,1,32,0,0,0
844166782,0,37.456226199999996,126.95418249999999,173.758,192.214,1725542711399886,11141125,0.39900002,1.0768338,1.0200001,1.478,0.52,0.78999996,65,9,0.349,0.33600003,0.095000006,-0.019000001,6.0191054,0,nan,0.0,0.0,0.0,0,4,1,1,1,32,0,0,0
844265783,0,37.4562265,126.9541826,173.75900000000001,192.216,1725542711499886,11141125,0.39800003,0.9057384,1.0200001,1.4790001,0.52,0.78999996,65,9,0.41000003,0.39600003,0.104,-0.023000002,6.0191054,0,nan,0.0,0.0,0.0,0,4,1,1,1,32,0,0,0
844365784,0,37.4562269,126.95418269999999,173.768,192.225,1725542711599886,11141125,0.4,0.82155925,1.021,1.4790001,0.52,0.78999996,65,9,0.45600003,0.44400004,0.10300001,0.001,6.0191054,0,nan,0.0,0.0,0.0,0,4,1,1,1,32,0,0,0
844463785,0,37.456227299999995,126.95418289999999,173.76,192.216,1725542711699886,11141125,0.407,0.7475186,1.021,1.4790001,0.52,0.78999996,65,9,0.50200003,0.48000002,0.147,0.007,0.29730093,0,nan,0.0,0.0,0.0,0,4,1,1,1,31,0,0,0
844561783,0,37.4562277,126.954183,173.769,192.226,1725542711799886,11141125,0.40800002,0.7898807,1.021,1.48,0.52,0.78999996,65,9,0.47400004,0.45700002,0.125,-0.009000001,6.241035,0,nan,0.0,0.0,0.0,0,4,1,1,1,31,0,0,0
844666783,0,37.4562282,126.9541831,173.767,192.22400000000002,1725542711899886,11141125,0.404,0.66432464,1.0220001,1.48,0.52,0.78999996,65,9,0.555,0.54200006,0.120000005,0.021000002,0.21804555,0,nan,0.0,0.0,0.0,0,4,1,1,1,32,0,0,0
844771998,0,37.4562287,126.9541833,173.75900000000001,192.216,1725542711999887,11141125,0.402,0.6437453,1.0220001,1.48,0.52,0.78999996,65,7,0.57600003,0.55,0.171,0.078,0.300642,0,nan,0.0,0.0,0.0,0,4,1,1,1,32,0,0,0
844870783,0,37.456229199999996,126.9541835,173.764,192.221,1725542712099886,11141125,0.40600002,0.6008376,1.0220001,1.48,0.52,0.78999996,65,7,0.61800003,0.59900004,0.149,0.071,0.24357449,0,nan,0.0,0.0,0.0,0,4,1,1,1,32,0,0,0
844962782,0,37.456229799999996,126.95418369999999,173.77,192.227,1725542712199886,11141125,0.40800002,0.5836405,1.0220001,1.48,0.52,0.78999996,65,7,0.64000005,0.61200005,0.186,-0.018000001,0.29474562,0,nan,0.0,0.0,0.0,0,4,1,1,1,32,0,0,0
845064783,0,37.456230399999995,126.95418389999999,173.774,192.23000000000002,1725542712299885,11141125,0.41500002,0.5272664,1.023,1.48,0.52,0.78999996,65,7,0.717,0.67200005,0.24800001,-0.038000003,0.35376218,0,nan,0.0,0.0,0.0,0,4,1,1,1,31,0,0,0
845160458,0,37.4562309,126.95418409999999,173.79500000000002,192.252,1725542712399885,11141125,0.41400003,0.6466445,1.023,1.48,0.52,0.78999996,65,7,0.586,0.56,0.17300001,-0.059000004,0.3000966,0,nan,0.0,0.0,0.0,0,4,1,1,1,31,0,0,0
845262836,0,37.4562314,126.9541843,173.805,192.262,1725542712499885,11141125,0.418,0.57823086,1.024,1.4810001,0.52,0.78999996,65,7,0.65500003,0.624,0.2,0.006,0.31089303,0,nan,0.0,0.0,0.0,0,4,1,1,1,32,0,0,0
845362784,0,37.4562321,126.95418459999999,173.79,192.246,1725542712599885,11141125,0.418,0.49807367,1.024,1.4810001,0.52,0.78999996,65,7,0.76100004,0.72400004,0.23600002,0.042000003,0.31479037,0,nan,0.0,0.0,0.0,0,4,1,1,1,32,0,0,0
845462320,0,37.4562327,126.9541849,173.792,192.249,1725542712699885,11141125,0.416,0.5132861,1.0250001,1.4810001,0.52,0.78999996,65,7,0.74500006,0.71500003,0.21000001,-0.016,0.28620064,0,nan,0.0,0.0,0.0,0,4,1,1,1,32,0,0,0
845560790,0,37.456233399999995,126.95418509999999,173.805,192.261,1725542712799885,11141125,0.41500002,0.49869865,1.0250001,1.4820001,0.52,0.78999996,65,7,0.771,0.73800004,0.22200002,0.033,0.29275176,0,nan,0.0,0.0,0.0,0,4,1,1,1,32,0,0,0
845659784,0,37.456233999999995,126.9541854,173.803,192.26,1725542712899885,11141125,0.407,0.5697135,1.026,1.4820001,0.52,0.78999996,65,7,0.675,0.61800003,0.27100003,0.061000004,0.41230732,0,nan,0.0,0.0,0.0,0,4,1,1,1,32,0,0,0
845768785,0,37.456234599999995,126.95418559999999,173.815,192.272,1725542712999886,11141125,0.41300002,0.5220833,1.026,1.4820001,0.52,0.78999996,65,13,0.72,0.683,0.22900002,0.010000001,0.32359502,0,nan,0.0,0.0,0.0,0,4,1,1,1,31,0,0,0
845859784,0,37.4562352,126.9541859,173.81900000000002,192.276,1725542713099885,11141125,0.41700003,0.529173,1.0270001,1.4820001,0.52,0.78999996,65,13,0.716,0.67200005,0.24800001,-0.006,0.35329354,0,nan,0.0,0.0,0.0,0,4,1,1,1,31,0,0,0
