timestamp,timestamp_sample,latitude_deg,longitude_deg,altitude_msl_m,altitude_ellipsoid_m,time_utc_usec,device_id,s_variance_m_s,c_variance_rad,eph,epv,hdop,vdop,noise_per_ms,jamming_indicator,vel_m_s,vel_n_m_s,vel_e_m_s,vel_d_m_s,cog_rad,timestamp_time_relative,heading,heading_offset,heading_accuracy,rtcm_injection_rate,automatic_gain_control,fix_type,jamming_state,spoofing_state,vel_ned_valid,satellites_used,selected_rtcm_instance,rtcm_crc_failed,rtcm_msg_used
691518784,0,37.4559259,126.954183,168.708,187.16400000000002,1725537817699793,11141125,0.347,3.1415925,1.023,1.521,0.56,0.87,71,7,0.033,-0.030000001,-0.014,0.009000001,5.03674,0,nan,0.0,0.0,0.0,0,4,1,1,1,30,0,0,0
691716783,0,37.4559259,126.9541831,168.677,187.133,1725537817899793,11141125,0.33400002,3.1415925,1.024,1.5230001,0.56,0.87,71,7,0.064,0.042000003,0.048,-0.021000002,5.03674,0,nan,0.0,0.0,0.0,0,4,1,1,1,30,0,0,0
691825784,0,37.4559259,126.9541831,168.68200000000002,187.139,1725537817999794,11141125,0.402,3.1415925,1.024,1.524,0.56,0.87,71,8,0.034,-0.023000002,0.025,-0.019000001,5.03674,0,nan,0.0,0.0,0.0,0,4,1,1,1,30,0,0,0
691915840,0,37.4559259,126.95418319999999,168.675,187.132,1725537818099793,11141125,0.33800003,3.1415925,1.024,1.5250001,0.56,0.87,71,8,0.094000004,0.042000003,0.08400001,-0.001,5.03674,0,nan,0.0,0.0,0.0,0,4,1,1,1,30,0,0,0
692016807,0,37.4559259,126.95418319999999,168.67000000000002,187.127,1725537818199793,11141125,0.321,3.1415925,1.0250001,1.526,0.56,0.87,71,8,0.034,0.023000002,-0.025,-0.049000002,5.03674,0,nan,0.0,0.0,0.0,0,4,1,1,1,29,0,0,0
692117806,0,37.4559259,126.9541833,168.649,187.106,1725537818299793,11141125,0.344,3.1415925,1.0250001,1.5270001,0.56,0.87,71,8,0.042000003,0.019000001,0.038000003,-0.001,5.03674,0,nan,0.0,0.0,0.0,0,4,1,1,1,29,0,0,0
692215783,0,37.455925799999996,126.9541833,168.636,187.09300000000002,1725537818399793,11141125,0.37,3.1415925,1.0250001,1.5280001,0.56,0.87,71,8,0.023000002,-0.014,0.019000001,0.0050000004,5.03674,0,nan,0.0,0.0,0.0,0,4,1,1,1,29,0,0,0
692315782,0,37.455925799999996,126.95418339999999,168.626,187.083,1725537818499792,11141125,0.411,3.1415925,1.0250001,1.529,0.56,0.87,71,8,0.053000003,-0.047000002,0.024,-0.035,5.03674,0,nan,0.0,0.0,0.0,0,4,1,1,1,29,0,0,0
692418190,0,37.455925799999996,126.95418339999999,168.604,187.061,1725537818599792,11141125,0.36200002,3.1415925,1.026,1.5300001,0.56,0.87,71,8,0.007,0.007,0.002,0.034,5.03674,0,nan,0.0,0.0,0.0,0,4,1,1,1,30,0,0,0
692516335,0,37.455925799999996,126.95418339999999,168.586,187.043,1725537818699792,11141125,0.32200003,3.1415925,1.026,1.5320001,0.56,0.87,71,8,0.002,0.002,0.001,-0.043,5.03674,0,nan,0.0,0.0,0.0,0,4,1,1,1,30,0,0,0
692616916,0,37.4559257,126.9541835,168.57,187.02700000000002,1725537818799792,11141125,0.38900003,3.1415925,1.026,1.5330001,0.56,0.87,71,8,0.07,-0.031000001,0.062000003,-0.028,5.03674,0,nan,0.0,0.0,0.0,0,4,1,1,1,30,0,0,0
692717153,0,37.4559257,126.9541835,168.558,187.01500000000001,1725537818899792,11141125,0.347,3.1415925,1.026,1.534,0.56,0.87,71,8,0.016,0.009000001,0.014,0.043,5.03674,0,nan,0.0,0.0,0.0,0,4,1,1,1,30,0,0,0
692816799,0,37.4559257,126.9541835,168.542,186.999,1725537818999793,11141125,0.41200003,3.1415925,1.0270001,1.5350001,0.56,0.87,71,13,0.061000004,0.053000003,-0.030000001,0.018000001,5.03674,0,nan,0.0,0.0,0.0,0,4,1,1,1,30,0,0,0
692916782,0,37.4559257,126.9541835,168.534,186.991,1725537819099792,11141125,0.37100002,3.1415925,1.0270001,1.5370001,0.56,0.87,71,13,0.035,-0.028,-0.022000002,-0.013,5.03674,0,nan,0.0,0.0,0.0,0,4,1,1,1,30,0,0,0
693016783,0,37.4559256,126.9541835,168.52,186.977,1725537819199792,11141125,0.333,3.1415925,1.0270001,1.5380001,0.56,0.87,71,13,0.049000002,-0.045,-0.021000002,0.029000001,5.03674,0,nan,0.0,0.0,0.0,0,4,1,1,1,30,0,0,0
693114782,0,37.4559256,126.9541836,168.497,186.954,1725537819299792,11141125,0.344,3.1415925,1.028,1.539,0.56,0.87,71,13,0.032,0.002,0.032,0.015000001,5.03674,0,nan,0.0,0.0,0.0,0,4,1,1,1,29,0,0,0
693215783,0,37.4559256,126.9541836,168.504,186.961,1725537819399792,11141125,0.33400002,3.1415925,1.028,1.5400001,0.56,0.87,71,13,0.011000001,-0.0050000004,-0.010000001,0.019000001,5.03674,0,nan,0.0,0.0,0.0,0,4,1,1,1,29,0,0,0
693314786,0,37.4559256,126.9541836,168.484,186.941,1725537819499792,11141125,0.40300003,3.1415925,1.028,1.5410001,0.56,0.87,71,13,0.037,0.024,-0.028,0.018000001,5.03674,0,nan,0.0,0.0,0.0,0,4,1,1,1,30,0,0,0
693414783,0,37.4559256,126.9541836,168.465,186.922,1725537819599792,11141125,0.40600002,3.1415925,1.028,1.542,0.56,0.87,71,13,0.043,0.040000003,-0.015000001,0.041,5.03674,0,nan,0.0,0.0,0.0,0,4,1,1,1,30,0,0,0
693515051,0,37.4559256,126.9541836,168.458,186.915,1725537819699792,11141125,0.40100002,3.1415925,1.029,1.5430001,0.56,0.87,71,13,0.029000001,0.029000001,0.002,0.013,5.03674,0,nan,0.0,0.0,0.0,0,4,1,1,1,30,0,0,0
693614783,0,37.4559256,126.9541836,168.445,186.90200000000002,1725537819799792,11141125,0.363,3.1415925,1.029,1.544,0.56,0.87,71,13,0.041,0.033,0.025,0.07300001,5.03674,0,nan,0.0,0.0,0.0,0,4,1,1,1,30,0,0,0
693708784,0,37.4559256,126.95418369999999,168.435,186.892,1725537819899792,11141125,0.344,3.1415925,1.029,1.5450001,0.56,0.87,71,13,0.031000001,0.009000001,0.030000001,0.020000001,5.03674,0,nan,0.0,0.0,0.0,0,4,1,1,1,30,0,0,0
693819791,0,37.4559256,126.9541838,168.41,186.867,1725537819999793,11141125,0.344,3.1415925,1.029,1.5460001,0.56,0.87,71,8,0.07300001,-0.0050000004,0.07300001,0.027,5.03674,0,nan,0.0,0.0,0.0,0,4,1,1,1,30,0,0,0
693922784,0,37.4559256,126.9541838,168.405,186.861,1725537820099792,11141125,0.337,3.1415925,1.029,1.547,0.56,0.87,71,8,0.040000003,-0.038000003,0.010000001,0.029000001,5.03674,0,nan,0.0,0.0,0.0,0,4,1,1,1,30,0,0,0
694013785,0,37.4559256,126.95418389999999,168.37800000000001,186.835,1725537820199792,11141125,0.347,3.1415925,1.0300001,1.5480001,0.56,0.87,71,8,0.076000005,0.001,0.076000005,0.014,5.03674,0,nan,0.0,0.0,0.0,0,4,1,1,1,30,0,0,0
694114827,0,37.4559256,126.954184,168.385,186.841,1725537820299792,11141125,0.395,3.1415925,1.0300001,1.549,0.56,0.87,71,8,0.031000001,0.031000001,0.006,0.012,5.03674,0,nan,0.0,0.0,0.0,0,4,1,1,1,30,0,0,0
694216782,0,37.4559256,126.954184,168.36,186.817,1725537820399792,11141125,0.35500002,3.1415925,1.0300001,1.5500001,0.56,0.87,71,8,0.029000001,-0.001,-0.029000001,0.022000002,5.03674,0,nan,0.0,0.0,0.0,0,4,1,1,1,30,0,0,0
694315850,0,37.4559256,126.95418389999999,168.356,186.81300000000002,1725537820499792,11141125,0.35500002,3.1415925,1.0300001,1.5510001,0.56,0.87,71,8,0.039,-0.022000002,-0.032,-0.007,5.03674,0,nan,0.0,0.0,0.0,0,4,1,1,1,30,0,0,0
694417783,0,37.4559256,126.954184,168.358,186.815,1725537820599792,11141125,0.34800002,3.1415925,1.031,1.552,0.56,0.87,71,8,0.052,0.010000001,0.051000003,-0.057000004,5.03674,0,nan,0.0,0.0,0.0,0,4,1,1,1,30,0,0,0
694519185,0,37.4559256,126.954184,168.361,186.818,1725537820699792,11141125,0.324,3.1415925,1.031,1.5530001,0.56,0.87,71,8,0.054,0.044000003,-0.032,-0.072000004,5.03674,0,nan,0.0,0.0,0.0,0,4,1,1,1,30,0,0,0
694607785,0,37.4559256,126.954184,168.361,186.818,1725537820799792,11141125,0.324,3.1415925,1.031,1.554,0.56,0.87,71,8,0.026,0.011000001,-0.024,-0.079,5.03674,0,nan,0.0,0.0,0.0,0,4,1,1,1,30,0,0,0
694715202,0,37.4559256,126.95418389999999,168.361,186.818,1725537820899792,11141125,0.33200002,3.1415925,1.031,1.554,0.56,0.87,71,8,0.083000004,0.053000003,-0.063,-0.081,5.03674,0,nan,0.0,0.0,0.0,0,4,1,1,1,30,0,0,0
694824786,0,37.4559257,126.95418389999999,168.362,186.81900000000002,1725537820999793,11141125,0.35700002,3.1415925,1.031,1.5550001,0.56,0.87,71,15,0.08800001,0.087000005,-0.012,-0.043,5.03674,0,nan,0.0,0.0,0.0,0,4,1,1,1,30,0,0,0
694924786,0,37.455925799999996,126.954184,168.34,186.797,1725537821099792,11141125,0.34300002,3.1415925,1.0320001,1.5560001,0.56,0.87,71,15,0.09,0.047000002,0.07700001,-0.031000001,5.03674,0,nan,0.0,0.0,0.0,0,4,1,1,1,30,0,0,0
695015795,0,37.455925799999996,126.954184,168.34,186.796,1725537821199792,11141125,0.335,3.1415925,1.0320001,1.557,0.56,0.87,71,15,0.044000003,-0.002,-0.044000003,-0.057000004,5.03674,0,nan,0.0,0.0,0.0,0,4,1,1,1,30,0,0,0
695117131,0,37.455925799999996,126.954184,168.327,186.784,1725537821299791,11141125,0.351,3.1415925,1.0320001,1.5580001,0.56,0.87,71,15,0.039,0.036000002,-0.015000001,-0.022000002,5.03674,0,nan,0.0,0.0,0.0,0,4,1,1,1,29,0,0,0
695214782,0,37.4559259,126.954184,168.314,186.77,1725537821399791,11141125,0.36,2.4941869,1.0320001,1.559,0.56,0.87,71,15,0.157,0.142,0.068,-0.024,5.03674,0,nan,0.0,0.0,0.0,0,4,1,1,1,29,0,0,0
695314820,0,37.4559261,126.95418409999999,168.29500000000002,186.752,1725537821499791,11141125,0.38200003,1.6455677,1.033,1.5600001,0.56,0.87,71,15,0.22700001,0.22700001,0.013,-0.009000001,5.03674,0,nan,0.0,0.0,0.0,0,4,1,1,1,29,0,0,0
695414783,0,37.4559263,126.95418409999999,168.28300000000002,186.74,1725537821599791,11141125,0.35300002,1.2143806,1.033,1.5610001,0.56,0.87,71,15,0.31300002,0.30100003,0.086,-0.091000006,5.03674,0,nan,0.0,0.0,0.0,0,4,1,1,1,29,0,0,0
695508784,0,37.4559266,126.9541843,168.314,186.77100000000002,1725537821699791,11141125,0.33200002,1.0000366,1.033,1.562,0.56,0.87,71,15,0.39000002,0.34100002,0.18800001,-0.23300001,5.03674,0,nan,0.0,0.0,0.0,0,4,1,1,1,30,0,0,0
695614784,0,37.4559269,126.9541845,168.333,186.79,1725537821799791,11141125,0.34100002,0.93825984,1.033,1.5630001,0.56,0.87,71,15,0.404,0.395,0.085,-0.261,5.03674,0,nan,0.0,0.0,0.0,0,4,1,1,1,29,0,0,0
695715783,0,37.4559273,126.95418459999999,168.329,186.786,1725537821899791,11141125,0.33800003,0.96726406,1.034,1.5640001,0.56,0.87,71,15,0.38700002,0.37100002,0.109000005,-0.30600002,5.03674,0,nan,0.0,0.0,0.0,0,4,1,1,1,30,0,0,0
695824784,0,37.455927599999995,126.9541848,168.363,186.81900000000002,1725537821999792,11141125,0.33100003,0.8879413,1.034,1.5640001,0.56,0.87,71,13,0.43300003,0.372,0.22200002,-0.32000002,5.03674,0,nan,0.0,0.0,0.0,0,4,1,1,1,30,0,0,0
695921785,0,37.455928,126.95418509999999,168.375,186.83100000000002,1725537822099791,11141125,0.33600003,0.66531616,1.034,1.565,0.56,0.87,71,13,0.57900006,0.499,0.29200003,-0.316,0.5295718,0,nan,0.0,0.0,0.0,0,4,1,1,1,30,0,0,0
696016808,0,37.4559284,126.95418529999999,168.403,186.859,1725537822199791,11141125,0.324,1.0092167,1.0350001,1.5660001,0.56,0.87,71,13,0.37600002,0.34100002,0.158,-0.38900003,6.029581,0,nan,0.0,0.0,0.0,0,4,1,1,1,29,0,0,0
696114783,0,37.4559287,126.95418559999999,168.468,186.925,1725537822299791,11141125,0.321,0.887961,1.0350001,1.567,0.56,0.87,71,13,0.439,0.354,0.259,-0.52900004,6.029581,0,nan,0.0,0.0,0.0,0,4,1,1,1,30,0,0,0
696216785,0,37.455929,126.9541859,168.507,186.964,1725537822399791,11141125,0.321,0.8551314,1.0350001,1.567,0.56,0.87,71,13,0.44200003,0.386,0.215,-0.56700003,6.029581,0,nan,0.0,0.0,0.0,0,4,1,1,1,30,0,0,0
696313786,0,37.4559293,126.9541861,168.565,187.02100000000002,1725537822499791,11141125,0.324,1.3400124,1.0350001,1.5680001,0.56,0.87,71,13,0.28800002,0.22500001,0.18,-0.62700003,6.029581,0,nan,0.0,0.0,0.0,0,4,1,1,1,30,0,0,0
696409782,0,37.455929499999996,126.95418629999999,168.623,187.08,1725537822599791,11141125,0.324,0.9407219,1.0350001,1.5680001,0.56,0.87,71,13,0.40800002,0.34500003,0.21700001,-0.66700006,6.029581,0,nan,0.0,0.0,0.0,0,4,1,1,1,30,0,0,0
696513785,0,37.4559298,126.95418649999999,168.692,187.148,1725537822699791,11141125,0.323,1.333124,1.0350001,1.5690001,0.56,0.87,71,13,0.28100002,0.26900002,0.082,-0.68200004,6.029581,0,nan,0.0,0.0,0.0,0,4,1,1,1,30,0,0,0
696614785,0,37.455929999999995,126.9541866,168.772,187.229,1725537822799791,11141125,0.326,1.7501338,1.0350001,1.57,0.56,0.87,71,13,0.215,0.202,0.074,-0.813,6.029581,0,nan,0.0,0.0,0.0,0,4,1,1,1,29,0,0,0
696713371,0,37.4559302,126.9541866,168.83700000000002,187.294,1725537822899791,11141125,0.321,1.2749537,1.0350001,1.5710001,0.56,0.87,71,13,0.27600002,0.27,-0.055000003,-0.9110001,6.029581,0,nan,0.0,0.0,0.0,0,4,1,1,1,29,0,0,0
696821786,0,37.4559303,126.9541866,168.955,187.412,1725537822999792,11141125,0.33100003,2.6722918,1.0350001,1.572,0.56,0.87,71,21,0.136,0.135,0.014,-0.99200004,6.029581,0,nan,0.0,0.0,0.0,0,4,1,1,1,30,0,0,0
696915783,0,37.4559305,126.95418649999999,169.061,187.517,1725537823099791,11141125,0.326,1.718271,1.0350001,1.572,0.56,0.87,71,21,0.19900002,0.185,-0.074,-1.049,6.029581,0,nan,0.0,0.0,0.0,0,4,1,1,1,30,0,0,0
697013799,0,37.455930599999995,126.9541864,169.185,187.642,1725537823199791,11141125,0.33200002,3.1415925,1.036,1.5730001,0.56,0.87,71,21,0.101,0.07,-0.07300001,-1.102,6.029581,0,nan,0.0,0.0,0.0,0,4,1,1,1,30,0,0,0
697113783,0,37.455930599999995,126.9541864,169.28300000000002,187.74,1725537823299791,11141125,0.33400002,3.1415925,1.036,1.5730001,0.56,0.87,71,21,0.046000004,0.046000004,0.002,-1.1090001,6.029581,0,nan,0.0,0.0,0.0,0,4,1,1,1,29,0,0,0
697214783,0,37.455930599999995,126.9541864,169.388,187.845,1725537823399791,11141125,0.33600003,3.1415925,1.036,1.5730001,0.56,0.87,71,21,0.080000006,0.0,0.080000006,-1.116,6.029581,0,nan,0.0,0.0,0.0,0,4,1,1,1,29,0,0,0
697307854,0,37.455930699999996,126.95418649999999,169.465,187.922,1725537823499791,11141125,0.32900003,3.1415925,1.0350001,1.5730001,0.56,0.87,71,21,0.047000002,0.039,0.025,-1.024,6.029581,0,nan,0.0,0.0,0.0,0,4,1,1,1,30,0,0,0
697414782,0,37.455930699999996,126.95418649999999,169.56,188.016,1725537823599791,11141125,0.32900003,3.1415925,1.0350001,1.5730001,0.56,0.87,71,21,0.030000001,0.025,0.016,-1.056,6.029581,0,nan,0.0,0.0,0.0,0,4,1,1,1,30,0,0,0
697514792,0,37.455930599999995,126.9541866,169.667,188.123,1725537823699791,11141125,0.33900002,2.7042315,1.0350001,1.5730001,0.53999996,0.82,71,21,0.12200001,-0.10700001,0.060000002,-1.0450001,6.029581,0,nan,0.0,0.0,0.0,0,4,1,1,1,30,0,0,0
697612783,0,37.455930599999995,126.9541866,169.768,188.225,1725537823799791,11141125,0.33400002,3.1415925,1.0350001,1.572,0.53999996,0.82,71,21,0.080000006,-0.080000006,0.0,-1.115,6.029581,0,nan,0.0,0.0,0.0,0,4,1,1,1,30,0,0,0
697713784,0,37.4559305,126.9541866,169.874,188.33,1725537823899791,11141125,0.333,3.1415925,1.0350001,1.572,0.53999996,0.82,71,21,0.11000001,-0.105000004,-0.032,-1.136,6.029581,0,nan,0.0,0.0,0.0,0,4,1,1,1,30,0,0,0
697822962,0,37.4559303,126.9541866,169.99,188.447,1725537823999791,11141125,0.34,1.590419,1.0350001,1.572,0.53999996,0.82,66,11,0.216,-0.216,-0.011000001,-1.116,6.029581,0,nan,0.0,0.0,0.0,0,4,1,1,1,30,0,0,0
697916784,0,37.4559302,126.95418649999999,170.09300000000002,188.55,1725537824099790,11141125,0.33100003,3.1415925,1.034,1.5710001,0.53999996,0.82,66,11,0.11100001,-0.108,-0.029000001,-1.1450001,6.029581,0,nan,0.0,0.0,0.0,0,4,1,1,1,30,0,0,0
698014790,0,37.455929999999995,126.95418649999999,170.233,188.69,1725537824199790,11141125,0.34,1.403547,1.034,1.5710001,0.53999996,0.82,66,11,0.245,-0.24400002,-0.028,-1.1520001,6.029581,0,nan,0.0,0.0,0.0,0,4,1,1,1,30,0,0,0
698115782,0,37.4559299,126.95418649999999,170.317,188.773,1725537824299790,11141125,0.33100003,2.889895,1.034,1.57,0.53999996,0.82,66,11,0.123,-0.11800001,-0.037,-1.1600001,6.029581,0,nan,0.0,0.0,0.0,0,4,1,1,1,30,0,0,0
698207785,0,37.4559298,126.9541864,170.41400000000002,188.871,1725537824399790,11141125,0.33,2.4636254,1.034,1.57,0.53999996,0.82,66,11,0.148,-0.136,-0.058000002,-1.1680001,6.029581,0,nan,0.0,0.0,0.0,0,4,1,1,1,30,0,0,0
698312784,0,37.4559296,126.9541864,170.525,188.982,1725537824499790,11141125,0.33400002,1.6277688,1.033,1.5690001,0.53999996,0.82,66,11,0.21800001,-0.209,-0.061000004,-1.2030001,6.029581,0,nan,0.0,0.0,0.0,0,4,1,1,1,30,0,0,0
698410450,0,37.455929399999995,126.9541862,170.645,189.102,1725537824599790,11141125,0.33100003,1.5304484,1.033,1.5690001,0.53999996,0.82,66,11,0.24800001,-0.194,-0.15400001,-1.215,6.029581,0,nan,0.0,0.0,0.0,0,4,1,1,1,30,0,0,0
698510832,0,37.4559293,126.95418599999999,170.76500000000001,189.222,1725537824699790,11141125,0.33,1.3323413,1.033,1.5680001,0.53999996,0.82,66,11,0.286,-0.202,-0.20300001,-1.19,6.029581,0,nan,0.0,0.0,0.0,0,4,1,1,1,30,0,0,0
698612783,0,37.4559291,126.95418579999999,170.889,189.346,1725537824799790,11141125,0.33400002,1.0783505,1.033,1.5680001,0.53999996,0.82,66,11,0.354,-0.264,-0.23600002,-1.2060001,6.029581,0,nan,0.0,0.0,0.0,0,4,1,1,1,30,0,0,0
698709790,0,37.455928899999996,126.9541855,171.00300000000001,189.46,1725537824899790,11141125,0.33,1.2403877,1.033,1.5680001,0.53999996,0.82,66,11,0.30900002,-0.21000001,-0.22700001,-1.2590001,6.029581,0,nan,0.0,0.0,0.0,0,4,1,1,1,30,0,0,0
698820783,0,37.4559287,126.9541852,171.11,189.567,1725537824999791,11141125,0.33,1.1123366,1.033,1.5680001,0.53999996,0.82,66,14,0.347,-0.22700001,-0.26200002,-1.271,6.029581,0,nan,0.0,0.0,0.0,0,4,1,1,1,30,0,0,0
698914785,0,37.4559285,126.954185,171.239,189.695,1725537825099790,11141125,0.328,1.3994749,1.033,1.567,0.53999996,0.82,66,14,0.27100003,-0.18900001,-0.19500001,-1.309,6.029581,0,nan,0.0,0.0,0.0,0,4,1,1,1,30,0,0,0
699015782,0,37.4559284,126.9541848,171.352,189.809,1725537825199790,11141125,0.323,1.6398914,1.0320001,1.5660001,0.53999996,0.82,66,14,0.23200001,-0.12900001,-0.192,-1.276,6.029581,0,nan,0.0,0.0,0.0,0,4,1,1,1,30,0,0,0
699109790,0,37.455928199999995,126.9541845,171.481,189.937,1725537825299790,11141125,0.32500002,1.6059734,1.0320001,1.565,0.53999996,0.82,66,14,0.23600002,-0.142,-0.18900001,-1.2750001,6.029581,0,nan,0.0,0.0,0.0,0,4,1,1,1,30,0,0,0
699213792,0,37.4559281,126.9541842,171.608,190.065,1725537825399790,11141125,0.32700002,1.0996826,1.0320001,1.565,0.53999996,0.82,66,14,0.34,-0.22100002,-0.259,-1.1780001,6.029581,0,nan,0.0,0.0,0.0,0,4,1,1,1,30,0,0,0
699314077,0,37.4559279,126.95418389999999,171.729,190.186,1725537825499790,11141125,0.321,1.225583,1.031,1.5640001,0.53999996,0.82,66,14,0.30900002,-0.155,-0.26700002,-1.2210001,6.029581,0,nan,0.0,0.0,0.0,0,4,1,1,1,30,0,0,0
699415133,0,37.4559278,126.95418369999999,171.86,190.317,1725537825599790,11141125,0.321,1.8728594,1.031,1.5630001,0.53999996,0.82,66,14,0.20600002,-0.113000005,-0.172,-1.169,6.029581,0,nan,0.0,0.0,0.0,0,4,1,1,1,30,0,0,0
699514918,0,37.455927599999995,126.95418339999999,171.965,190.421,1725537825699790,11141125,0.32500002,1.4459065,1.031,1.562,0.53999996,0.82,66,14,0.26700002,-0.16800001,-0.208,-1.1120001,6.029581,0,nan,0.0,0.0,0.0,0,4,1,1,1,30,0,0,0
699615313,0,37.4559275,126.9541833,172.07500000000002,190.532,1725537825799790,11141125,0.32900003,1.4672439,1.031,1.5610001,0.53999996,0.82,66,14,0.24800001,-0.21300001,-0.126,-1.13,6.029581,0,nan,0.0,0.0,0.0,0,4,1,1,1,30,0,0,0
699713785,0,37.4559273,126.9541831,172.186,190.643,1725537825899790,11141125,0.32200003,1.8445714,1.0300001,1.5600001,0.53999996,0.82,66,14,0.20400001,-0.12900001,-0.158,-1.103,6.029581,0,nan,0.0,0.0,0.0,0,4,1,1,1,30,0,0,0
699822783,0,37.4559272,126.954183,172.28,190.736,1725537825999791,11141125,0.319,2.689238,1.0300001,1.5600001,0.53999996,0.82,66,6,0.142,-0.07300001,-0.12200001,-1.103,6.029581,0,nan,0.0,0.0,0.0,0,4,1,1,1,30,0,0,0
699919784,0,37.4559271,126.9541828,172.393,190.85,1725537826099790,11141125,0.32700002,1.7945633,1.0300001,1.559,0.53999996,0.82,66,6,0.20300001,-0.17600001,-0.102000006,-1.074,6.029581,0,nan,0.0,0.0,0.0,0,4,1,1,1,30,0,0,0
700008900,0,37.455926999999996,126.95418269999999,172.493,190.95000000000002,1725537826199790,11141125,0.324,2.077912,1.0300001,1.5580001,0.53999996,0.82,66,6,0.179,-0.13700001,-0.116000004,-1.0250001,6.029581,0,nan,0.0,0.0,0.0,0,4,1,1,1,30,0,0,0
700113783,0,37.4559269,126.95418249999999,172.597,191.054,1725537826299790,11141125,0.317,2.4484239,1.029,1.5580001,0.53999996,0.82,66,6,0.156,-0.049000002,-0.148,-1.023,6.029581,0,nan,0.0,0.0,0.0,0,4,1,1,1,30,0,0,0
700213790,0,37.4559268,126.9541824,172.714,191.171,1725537826399790,11141125,0.32700002,2.413268,1.029,1.557,0.53999996,0.82,66,6,0.14600001,-0.13900001,-0.042000003,-1.0020001,6.029581,0,nan,0.0,0.0,0.0,0,4,1,1,1,30,0,0,0
700312824,0,37.4559268,126.9541823,172.79,191.247,1725537826499790,11141125,0.314,2.2376611,1.029,1.5560001,0.53999996,0.82,66,6,0.165,0.010000001,-0.165,-0.97400004,6.029581,0,nan,0.0,0.0,0.0,0,4,1,1,1,30,0,0,0
700415850,0,37.4559268,126.9541821,172.899,191.356,1725537826599790,11141125,0.32000002,2.6054778,1.029,1.5550001,0.53999996,0.82,66,6,0.147,-0.07700001,-0.125,-0.92,6.029581,0,nan,0.0,0.0,0.0,0,4,1,1,1,30,0,0,0
700514782,0,37.4559267,126.95418199999999,172.966,191.423,1725537826699789,11141125,0.319,3.1415925,1.028,1.554,0.53999996,0.82,66,6,0.108,-0.060000002,-0.09,-0.869,6.029581,0,nan,0.0,0.0,0.0,0,4,1,1,1,30,0,0,0
700614088,0,37.4559266,126.9541819,173.067,191.523,1725537826799789,11141125,0.32200003,3.1415925,1.028,1.5530001,0.53999996,0.82,66,6,0.106000006,-0.078,-0.071,-0.86,6.029581,0,nan,0.0,0.0,0.0,0,4,1,1,1,30,0,0,0
700713792,0,37.4559265,126.95418169999999,173.16400000000002,191.621,1725537826899789,11141125,0.316,2.8183424,1.028,1.552,0.53999996,0.82,66,6,0.134,-0.029000001,-0.13100001,-0.81900007,6.029581,0,nan,0.0,0.0,0.0,0,4,1,1,1,30,0,0,0
700821784,0,37.4559265,126.9541816,173.231,191.68800000000002,1725537826999790,11141125,0.32000002,3.1415925,1.0270001,1.5510001,0.53999996,0.82,66,8,0.091000006,-0.040000003,-0.082,-0.8,6.029581,0,nan,0.0,0.0,0.0,0,4,1,1,1,30,0,0,0
700910804,0,37.4559265,126.9541816,173.31300000000002,191.77,1725537827099789,11141125,0.32000002,3.1415925,1.0270001,1.5510001,0.53999996,0.82,66,8,0.049000002,0.006,0.049000002,-0.77900004,6.029581,0,nan,0.0,0.0,0.0,0,4,1,1,1,30,0,0,0
701014783,0,37.4559265,126.9541814,173.373,191.83,1725537827199789,11141125,0.312,1.7216468,1.0270001,1.5500001,0.53999996,0.82,66,8,0.215,0.004,-0.215,-0.55,6.029581,0,nan,0.0,0.0,0.0,0,4,1,1,1,30,0,0,0
701113784,0,37.455926399999996,126.95418129999999,173.433,191.89000000000001,1725537827299789,11141125,0.328,3.1415925,1.0270001,1.549,0.53999996,0.82,66,8,0.05,-0.048,0.015000001,-0.492,6.029581,0,nan,0.0,0.0,0.0,0,4,1,1,1,30,0,0,0
701214786,0,37.455926399999996,126.95418129999999,173.446,191.903,1725537827399789,11141125,0.32000002,3.1415925,1.026,1.5480001,0.53999996,0.82,66,8,0.066,-0.025,-0.061000004,-0.18400002,6.029581,0,nan,0.0,0.0,0.0,0,4,1,1,1,30,0,0,0
701314783,0,37.455926399999996,126.9541811,173.46,191.917,1725537827499789,11141125,0.35300002,2.293118,1.026,1.547,0.53999996,0.82,66,8,0.157,0.042000003,-0.15100001,0.025,6.029581,0,nan,0.0,0.0,0.0,0,4,1,1,1,30,0,0,0
701414785,0,37.455926399999996,126.95418079999999,173.474,191.93,1725537827599789,11141125,0.347,1.554125,1.026,1.547,0.53999996,0.82,66,8,0.23400001,0.063,-0.22600001,-0.0050000004,6.029581,0,nan,0.0,0.0,0.0,0,4,1,1,1,30,0,0,0
701511783,0,37.4559265,126.95418049999999,173.496,191.953,1725537827699789,11141125,0.33900002,1.0841626,1.026,1.5460001,0.53999996,0.82,66,8,0.33400002,0.089,-0.32200003,-0.080000006,6.029581,0,nan,0.0,0.0,0.0,0,4,1,1,1,30,0,0,0
701615896,0,37.4559266,126.95418009999999,173.501,191.958,1725537827799789,11141125,0.342,0.968284,1.0250001,1.5450001,0.53999996,0.82,66,8,0.36,0.17300001,-0.31500003,-0.123,6.029581,0,nan,0.0,0.0,0.0,0,4,1,1,1,30,0,0,0
701716786,0,37.4559268,126.95417959999999,173.507,191.963,1725537827899789,11141125,0.347,0.6609153,1.0250001,1.5450001,0.53999996,0.82,66,8,0.52000004,0.259,-0.45100003,-0.10700001,5.2338395,0,nan,0.0,0.0,0.0,0,4,1,1,1,30,0,0,0
701814379,0,37.455926999999996,126.95417909999999,173.531,191.988,1725537827999790,11141125,0.344,0.5985264,1.0250001,1.544,0.53999996,0.82,66,16,0.587,0.22200002,-0.54300004,-0.12100001,5.1007414,0,nan,0.0,0.0,0.0,0,4,1,1,1,30,0,0,0
701919783,0,37.4559272,126.95417839999999,173.561,192.017,1725537828099789,11141125,0.34500003,0.4874977,1.024,1.5430001,0.53999996,0.82,66,16,0.712,0.279,-0.656,-0.15900001,5.1149426,0,nan,0.0,0.0,0.0,0,4,1,1,1,30,0,0,0
702016823,0,37.4559274,126.9541775,173.58100000000002,192.038,1725537828199789,11141125,0.349,0.41418934,1.024,1.542,0.53999996,0.82,66,16,0.86200005,0.28,-0.81500006,-0.13900001,5.043247,0,nan,0.0,0.0,0.0,0,4,1,1,1,30,0,0,0
702114783,0,37.4559277,126.9541764,173.614,192.071,1725537828299789,11141125,0.351,0.3426224,1.024,1.542,0.53999996,0.82,66,16,1.046,0.36400002,-0.98100007,-0.16800001,5.0680065,0,nan,0.0,0.0,0.0,0,4,1,1,1,30,0,0,0
702216782,0,37.455928,126.9541752,173.648,192.10500000000002,1725537828399789,11141125,0.349,0.2931455,1.024,1.5410001,0.53999996,0.82,66,16,1.2090001,0.41200003,-1.1370001,-0.20700002,5.059934,0,nan,0.0,0.0,0.0,0,4,1,1,1,30,0,0,0
702318784,0,37.4559284,126.9541739,173.677,192.13400000000001,1725537828499789,11141125,0.349,0.2760521,1.024,1.5400001,0.53999996,0.82,66,16,1.2870001,0.437,-1.2110001,-0.17600001,5.0586267,0,nan,0.0,0.0,0.0,0,4,1,1,1,30,0,0,0
702416783,0,37.4559287,126.95417239999999,173.711,192.168,1725537828599789,11141125,0.34300002,0.25307342,1.023,1.5380001,0.53999996,0.82,66,16,1.389,0.45900002,-1.3110001,-0.23400001,5.04924,0,nan,0.0,0.0,0.0,0,4,1,1,1,30,0,0,0
702517782,0,37.4559291,126.95417099999999,173.766,192.223,1725537828699789,11141125,0.34,0.2691289,1.023,1.5380001,0.53999996,0.82,66,16,1.314,0.455,-1.233,-0.33,5.0661707,0,nan,0.0,0.0,0.0,0,4,1,1,1,30,0,0,0
702617782,0,37.455929499999996,126.95416949999999,173.794,192.25,1725537828799789,11141125,0.347,0.25681752,1.023,1.536,0.53999996,0.82,66,16,1.363,0.52900004,-1.256,-0.22500001,5.1108484,0,nan,0.0,0.0,0.0,0,4,1,1,1,30,0,0,0
702708129,0,37.455929999999995,126.9541682,173.822,192.279,1725537828899789,11141125,0.35300002,0.2637655,1.023,1.5350001,0.53999996,0.82,66,16,1.315,0.55600005,-1.192,-0.171,5.149026,0,nan,0.0,0.0,0.0,0,4,1,1,1,30,0,0,0
702824783,0,37.4559304,126.9541668,173.873,192.33,1725537828999790,11141125,0.34600002,0.28566188,1.0220001,1.534,0.53999996,0.82,66,8,1.23,0.44500002,-1.1470001,-0.17300001,5.0824437,0,nan,0.0,0.0,0.0,0,4,1,1,1,30,0,0,0
702926046,0,37.4559308,126.95416549999999,173.887,192.344,1725537829099789,11141125,0.349,0.2746712,1.0220001,1.534,0.53999996,0.82,66,8,1.2870001,0.518,-1.179,-0.179,5.126654,0,nan,0.0,0.0,0.0,0,4,1,1,1,30,0,0,0
703017782,0,37.455931199999995,126.9541641,173.921,192.377,1725537829199789,11141125,0.347,0.2654138,1.0220001,1.5330001,0.53999996,0.82,66,8,1.3230001,0.53400004,-1.2110001,-0.23400001,5.1274705,0,nan,0.0,0.0,0.0,0,4,1,1,1,30,0,0,0
703118783,0,37.4559317,126.9541627,173.937,192.393,1725537829299789,11141125,0.351,0.23576187,1.0220001,1.5320001,0.53999996,0.82,66,8,1.4840001,0.62,-1.348,-0.17500001,5.143447,0,nan,0.0,0.0,0.0,0,4,1,1,1,30,0,0,0
703220043,0,37.4559322,126.95416119999999,173.964,192.421,1725537829399789,11141125,0.34500003,0.24706636,1.021,1.531,0.53999996,0.82,66,8,1.4050001,0.535,-1.299,-0.22600001,5.1028495,0,nan,0.0,0.0,0.0,0,4,1,1,1,30,0,0,0
703316784,0,37.4559327,126.9541598,174.002,192.459,1725537829499788,11141125,0.351,0.26547626,1.021,1.531,0.53999996,0.82,66,8,1.322,0.611,-1.1730001,-0.264,5.192437,0,nan,0.0,0.0,0.0,0,4,1,1,1,30,0,0,0
703414800,0,37.4559332,126.9541584,174.02700000000002,192.484,1725537829599788,11141125,0.354,0.2656414,1.021,1.5300001,0.53999996,0.82,66,8,1.317,0.53000003,-1.205,-0.148,5.126583,0,nan,0.0,0.0,0.0,0,4,1,1,1,30,0,0,0
703516029,0,37.4559336,126.95415709999999,174.05700000000002,192.514,1725537829699788,11141125,0.35000002,0.27592623,1.021,1.529,0.53999996,0.82,66,8,1.2650001,0.49800003,-1.1630001,-0.172,5.11724,0,nan,0.0,0.0,0.0,0,4,1,1,1,30,0,0,0
703610034,0,37.455934,126.9541558,174.077,192.534,1725537829799788,11141125,0.34300002,0.30938998,1.021,1.5280001,0.53999996,0.82,66,8,1.1420001,0.446,-1.051,-0.162,5.113469,0,nan,0.0,0.0,0.0,0,4,1,1,1,30,0,0,0
703714786,0,37.4559344,126.95415469999999,174.08100000000002,192.538,1725537829899788,11141125,0.34800002,0.31879154,1.0200001,1.5280001,0.53999996,0.82,66,8,1.107,0.453,-1.01,-0.045,5.1342444,0,nan,0.0,0.0,0.0,0,4,1,1,1,30,0,0,0
703823782,0,37.4559347,126.9541536,174.091,192.547,1725537829999789,11141125,0.34600002,0.36382434,1.0200001,1.5270001,0.53999996,0.82,66,16,0.97900003,0.32700002,-0.92300004,-0.044000003,5.0529237,0,nan,0.0,0.0,0.0,0,4,1,1,1,30,0,0,0
703914910,0,37.455935,126.95415249999999,174.103,192.56,1725537830099788,11141125,0.35000002,0.3411169,1.0200001,1.5270001,0.53999996,0.82,66,16,1.013,0.43100002,-0.91700006,0.001,5.151493,0,nan,0.0,0.0,0.0,0,4,1,1,1,30,0,0,0
704014783,0,37.4559353,126.9541515,174.111,192.568,1725537830199788,11141125,0.34600002,0.40318292,1.0200001,1.5270001,0.53999996,0.82,66,16,0.89800006,0.321,-0.83900005,-0.030000001,5.0783033,0,nan,0.0,0.0,0.0,0,4,1,1,1,30,0,0,0
704115783,0,37.4559356,126.9541505,174.132,192.588,1725537830299788,11141125,0.34500003,0.3634147,1.019,1.526,0.53999996,0.82,66,16,0.9710001,0.35000002,-0.906,-0.05,5.080619,0,nan,0.0,0.0,0.0,0,4,1,1,1,30,0,0,0
704214307,0,37.4559359,126.9541495,174.149,192.60500000000002,1725537830399788,11141125,0.34800002,0.3915641,1.019,1.526,0.53999996,0.82,66,16,0.90400004,0.35700002,-0.83000004,-0.055000003,5.118728,0,nan,0.0,0.0,0.0,0,4,1,1,1,30,0,0,0
704315784,0,37.4559362,126.95414869999999,174.148,192.60500000000002,1725537830499788,11141125,0.36,0.46033388,1.019,1.5250001,0.53999996,0.82,66,16,0.77900004,0.37800002,-0.68200004,-0.017,5.218675,0,nan,0.0,0.0,0.0,0,4,1,1,1,30,0,0,0
704418782,0,37.4559365,126.9541479,174.139,192.595,1725537830599788,11141125,0.36200002,0.45336726,1.019,1.5250001,0.53999996,0.82,66,16,0.75000006,0.39800003,-0.63600004,0.032,5.2714076,0,nan,0.0,0.0,0.0,0,4,1,1,1,30,0,0,0
704511967,0,37.455936799999996,126.9541472,174.14600000000002,192.603,1725537830699788,11141125,0.35300002,0.5381504,1.018,1.524,0.53999996,0.82,66,16,0.642,0.29700002,-0.569,-0.012,5.1933913,0,nan,0.0,0.0,0.0,0,4,1,1,1,30,0,0,0
704618782,0,37.455937,126.95414659999999,174.162,192.619,1725537830799788,11141125,0.34500003,0.5643498,1.018,1.5230001,0.53999996,0.82,66,16,0.605,0.24000001,-0.555,-0.035,5.120257,0,nan,0.0,0.0,0.0,0,4,1,1,1,30,0,0,0
704717783,0,37.4559372,126.954146,174.155,192.611,1725537830899788,11141125,0.36400002,0.65374374,1.018,1.5230001,0.53999996,0.82,66,16,0.51600003,0.24900001,-0.45200002,0.049000002,5.2154503,0,nan,0.0,0.0,0.0,0,4,1,1,1,30,0,0,0
704828799,0,37.455937399999996,126.9541455,174.16,192.617,1725537830999789,11141125,0.365,0.647362,1.0170001,1.5220001,0.53999996,0.82,66,13,0.52500004,0.263,-0.455,0.056,5.236537,0,nan,0.0,0.0,0.0,0,4,1,1,1,30,0,0,0
704918784,0,37.4559376,126.954145,174.16400000000002,192.621,1725537831099788,11141125,0.35500002,0.8117599,1.0170001,1.521,0.53999996,0.82,66,13,0.42100003,0.192,-0.37500003,0.036000002,5.211643,0,nan,0.0,0.0,0.0,0,4,1,1,1,30,0,0,0
705019784,0,37.4559378,126.95414459999999,174.174,192.63,1725537831199788,11141125,0.35700002,0.8490918,1.0170001,1.521,0.53999996,0.82,66,13,0.4,0.185,-0.354,0.057000004,5.211643,0,nan,0.0,0.0,0.0,0,4,1,1,1,30,0,0,0
705115786,0,37.455937899999995,126.95414419999999,174.181,192.638,1725537831299788,11141125,0.36200002,0.97587323,1.016,1.5200001,0.53999996,0.82,66,13,0.33600003,0.21400002,-0.259,0.001,5.211643,0,nan,0.0,0.0,0.0,0,4,1,1,1,30,0,0,0
705214784,0,37.455937999999996,126.954144,174.175,192.632,1725537831399788,11141125,0.37600002,1.7996103,1.016,1.519,0.53999996,0.82,66,13,0.178,0.143,-0.105000004,0.053000003,5.211643,0,nan,0.0,0.0,0.0,0,4,1,1,1,30,0,0,0
705314786,0,37.4559382,126.95414389999999,174.186,192.643,1725537831499788,11141125,0.37600002,1.7531545,1.016,1.519,0.53999996,0.82,66,13,0.18400002,0.18,-0.039,0.041,5.211643,0,nan,0.0,0.0,0.0,0,4,1,1,1,30,0,0,0
705408977,0,37.4559384,126.954144,174.192,192.649,1725537831599788,11141125,0.354,0.9907096,1.0150001,1.5180001,0.53999996,0.82,66,13,0.34500003,0.32500002,0.117000006,0.079,5.211643,0,nan,0.0,0.0,0.0,0,4,1,1,1,30,0,0,0
705514871,0,37.4559387,126.95414419999999,174.186,192.643,1725537831699788,11141125,0.344,0.6722233,1.0150001,1.5180001,0.53999996,0.82,66,13,0.53000003,0.43600002,0.3,0.093,0.60290724,0,nan,0.0,0.0,0.0,0,4,1,1,1,30,0,0,0
705614783,0,37.455939199999996,126.95414459999999,174.171,192.627,1725537831799788,11141125,0.342,0.49680185,1.014,1.5170001,0.53999996,0.82,66,13,0.71400005,0.60200006,0.38300002,0.063,0.56668466,0,nan,0.0,0.0,0.0,0,4,1,1,1,30,0,0,0
705714915,0,37.4559399,126.95414509999999,174.166,192.623,1725537831899788,11141125,0.35300002,0.38207996,1.014,1.5170001,0.53999996,0.82,66,13,0.933,0.81700003,0.45200002,0.142,0.50536585,0,nan,0.0,0.0,0.0,0,4,1,1,1,30,0,0,0
705823784,0,37.4559407,126.9541457,174.159,192.615,1725537831999789,11141125,0.35000002,0.29054633,1.014,1.516,0.53999996,0.82,66,15,1.207,1.072,0.555,0.125,0.47789642,0,nan,0.0,0.0,0.0,0,4,1,1,1,30,0,0,0
705916785,0,37.4559418,126.95414629999999,174.151,192.608,1725537832099788,11141125,0.34500003,0.24120763,1.013,1.5150001,0.53999996,0.82,66,15,1.417,1.2900001,0.586,0.078,0.4265429,0,nan,0.0,0.0,0.0,0,4,1,1,1,30,0,0,0
706014782,0,37.4559431,126.9541469,174.149,192.606,1725537832199787,11141125,0.356,0.21300504,1.013,1.5120001,0.53999996,0.82,66,15,1.6110001,1.5150001,0.54700005,0.096,0.34625202,0,nan,0.0,0.0,0.0,0,4,1,1,1,30,0,0,0
706120783,0,37.455944699999996,126.95414749999999,174.161,192.618,1725537832299787,11141125,0.36600003,0.16911805,1.0120001,1.5090001,0.53999996,0.82,66,15,1.9800001,1.8960001,0.57100004,0.081,0.2926947,0,nan,0.0,0.0,0.0,0,4,1,1,1,30,0,0,0
706216990,0,37.4559466,126.9541481,174.148,192.60500000000002,1725537832399787,11141125,0.37500003,0.14987054,1.0120001,1.5070001,0.53999996,0.82,66,15,2.2310002,2.16,0.55700004,0.058000002,0.2523746,0,nan,0.0,0.0,0.0,0,4,1,1,1,30,0,0,0
706310783,0,37.4559487,126.9541486,174.162,192.619,1725537832499787,11141125,0.38000003,0.13286754,1.011,1.5040001,0.53999996,0.82,66,15,2.4640002,2.417,0.47800002,0.142,0.19512676,0,nan,0.0,0.0,0.0,0,4,1,1,1,30,0,0,0
706418782,0,37.455951,126.954149,174.141,192.598,1725537832599787,11141125,0.38900003,0.119971484,1.011,1.501,0.53999996,0.82,66,15,2.7480001,2.729,0.32200003,0.186,0.11731631,0,nan,0.0,0.0,0.0,0,4,1,1,1,30,0,0,0
706518782,0,37.455953699999995,126.95414939999999,174.147,192.604,1725537832699787,11141125,0.37600002,0.10725571,1.01,1.498,0.53999996,0.82,66,15,3.1090002,3.0800002,0.425,0.11800001,0.13698722,0,nan,0.0,0.0,0.0,0,4,1,1,1,30,0,0,0
706615939,0,37.4559566,126.9541498,174.133,192.59,1725537832799787,11141125,0.386,0.09725759,1.01,1.496,0.53999996,0.82,66,15,3.403,3.384,0.36200002,0.078,0.106688485,0,nan,0.0,0.0,0.0,0,4,1,1,1,30,0,0,0
706716797,0,37.455959799999995,126.9541502,174.122,192.578,1725537832899787,11141125,0.39000002,0.09264434,1.01,1.493,0.53999996,0.82,66,15,3.5930002,3.5720003,0.388,0.094000004,0.10828005,0,nan,0.0,0.0,0.0,0,4,1,1,1,30,0,0,0
706824824,0,37.4559632,126.95415059999999,174.123,192.58,1725537832999788,11141125,0.386,0.085998826,1.01,1.491,0.53999996,0.82,66,12,3.867,3.8490002,0.37500003,0.106000006,0.09720629,0,nan,0.0,0.0,0.0,0,4,1,1,1,30,0,0,0
706919977,0,37.4559668,126.95415109999999,174.11,192.567,1725537833099787,11141125,0.38500002,0.0782534,1.0090001,1.488,0.53999996,0.82,66,12,4.169,4.1470003,0.42800003,0.113000005,0.102839336,0,nan,0.0,0.0,0.0,0,4,1,1,1,30,0,0,0
707015786,0,37.4559707,126.95415159999999,174.114,192.57,1725537833199787,11141125,0.379,0.07370717,1.0090001,1.485,0.53999996,0.82,66,12,4.407,4.374,0.541,0.069000006,0.12301097,0,nan,0.0,0.0,0.0,0,4,1,1,1,30,0,0,0
707116284,0,37.4559748,126.9541522,174.092,192.548,1725537833299787,11141125,0.386,0.07122165,1.0090001,1.4840001,0.53999996,0.82,66,12,4.612,4.583,0.521,0.11800001,0.11321916,0,nan,0.0,0.0,0.0,0,4,1,1,1,30,0,0,0
707209790,0,37.455979,126.95415279999999,174.082,192.53900000000002,1725537833399787,11141125,0.386,0.06861866,1.0090001,1.4820001,0.53999996,0.82,66,12,4.7580004,4.7260003,0.55,0.119,0.11583052,0,nan,0.0,0.0,0.0,0,4,1,1,1,30,0,0,0
707315840,0,37.4559833,126.9541534,174.088,192.54500000000002,1725537833499787,11141125,0.386,0.06895918,1.0090001,1.4810001,0.53999996,0.82,66,12,4.807,4.7730002,0.57000005,0.047000002,0.118920445,0,nan,0.0,0.0,0.0,0,4,1,1,1,30,0,0,0
707417289,0,37.4559877,126.9541541,174.079,192.535,1725537833599787,11141125,0.38500002,0.06703408,1.0090001,1.48,0.53999996,0.82,66,12,4.965,4.932,0.573,0.093,0.1156504,0,nan,0.0,0.0,0.0,0,4,1,1,1,30,0,0,0
707514799,0,37.455992099999996,126.95415469999999,174.074,192.531,1725537833699787,11141125,0.38000003,0.06717894,1.0090001,1.4790001,0.53999996,0.82,66,12,4.967,4.9290004,0.611,0.048,0.123316236,0,nan,0.0,0.0,0.0,0,4,1,1,1,30,0,0,0
707615785,0,37.4559965,126.95415539999999,174.08100000000002,192.538,1725537833799787,11141125,0.38300002,0.067411944,1.0090001,1.478,0.53999996,0.82,66,12,4.918,4.8830004,0.587,0.063,0.11958001,0,nan,0.0,0.0,0.0,0,4,1,1,1,30,0,0,0
707718784,0,37.4560009,126.95415609999999,174.074,192.53,1725537833899787,11141125,0.37500003,0.066880494,1.0090001,1.478,0.53999996,0.82,66,12,4.912,4.8650002,0.679,0.033,0.13870707,0,nan,0.0,0.0,0.0,0,4,1,1,1,30,0,0,0
707824786,0,37.4560053,126.9541569,174.06300000000002,192.52,1725537833999788,11141125,0.36400002,0.065046325,1.008,1.4760001,0.53999996,0.82,66,7,4.9350004,4.888,0.67300004,0.080000006,0.13681373,0,nan,0.0,0.0,0.0,0,4,1,1,1,30,0,0,0
707919488,0,37.456009699999996,126.9541577,174.06,192.517,1725537834099787,11141125,0.37100002,0.065604135,1.008,1.4760001,0.53999996,0.82,66,7,4.921,4.8710003,0.70000005,0.081,0.1428229,0,nan,0.0,0.0,0.0,0,4,1,1,1,30,0,0,0
708016782,0,37.4560141,126.9541584,174.05700000000002,192.514,1725537834199787,11141125,0.363,0.06640785,1.008,1.475,0.53999996,0.82,66,7,4.868,4.8170004,0.70000005,0.086,0.14437328,0,nan,0.0,0.0,0.0,0,4,1,1,1,30,0,0,0
708110782,0,37.4560184,126.95415919999999,174.061,192.517,1725537834299787,11141125,0.36400002,0.066674545,1.008,1.4740001,0.53999996,0.82,66,7,4.873,4.8120003,0.76600003,0.07700001,0.15777497,0,nan,0.0,0.0,0.0,0,4,1,1,1,30,0,0,0
708213801,0,37.4560228,126.9541601,174.058,192.51500000000001,1725537834399787,11141125,0.37,0.06540202,1.0070001,1.473,0.53999996,0.82,66,7,4.9440002,4.892,0.716,0.07300001,0.1454121,0,nan,0.0,0.0,0.0,0,4,1,1,1,30,0,0,0
708316784,0,37.4560272,126.95416089999999,174.05,192.506,1725537834499787,11141125,0.374,0.06646179,1.0070001,1.473,0.53999996,0.82,66,7,4.8970003,4.846,0.70600003,0.094000004,0.14476633,0,nan,0.0,0.0,0.0,0,4,1,1,1,30,0,0,0
708414784,0,37.456031599999996,126.9541617,174.05,192.506,1725537834599787,11141125,0.37,0.06736971,1.0070001,1.4720001,0.53999996,0.82,66,7,4.926,4.8690004,0.74700004,0.038000003,0.1523229,0,nan,0.0,0.0,0.0,0,4,1,1,1,30,0,0,0
708515785,0,37.456036,126.9541624,174.053,192.51,1725537834699787,11141125,0.37,0.066479586,1.0070001,1.4720001,0.53999996,0.82,66,7,4.9150004,4.875,0.624,-0.008,0.12730396,0,nan,0.0,0.0,0.0,0,4,1,1,1,30,0,0,0
708615784,0,37.4560404,126.9541632,174.03900000000002,192.495,1725537834799787,11141125,0.36800003,0.0669339,1.006,1.4710001,0.53999996,0.82,66,7,4.8960004,4.848,0.68,0.035,0.13939036,0,nan,0.0,0.0,0.0,0,4,1,1,1,30,0,0,0
708712789,0,37.4560448,126.9541639,174.047,192.504,1725537834899786,11141125,0.374,0.06808459,1.006,1.4710001,0.53999996,0.82,66,7,4.853,4.8170004,0.591,0.048,0.12214843,0,nan,0.0,0.0,0.0,0,4,1,1,1,30,0,0,0
708820784,0,37.4560491,126.95416449999999,174.05700000000002,192.514,1725537834999787,11141125,0.37600002,0.0675479,1.006,1.4710001,0.53999996,0.82,66,8,4.9030004,4.8710003,0.56,-0.024,0.114420645,0,nan,0.0,0.0,0.0,0,4,1,1,1,30,0,0,0
708913783,0,37.456053499999996,126.95416519999999,174.06,192.517,1725537835099786,11141125,0.37500003,0.06776049,1.006,1.4710001,0.53999996,0.82,66,8,4.9020004,4.8650002,0.601,0.020000001,0.12281445,0,nan,0.0,0.0,0.0,0,4,1,1,1,30,0,0,0
709008635,0,37.456058,126.9541658,174.059,192.516,1725537835199786,11141125,0.37800002,0.06682935,1.006,1.4710001,0.53999996,0.82,66,8,4.939,4.914,0.503,0.033,0.10202165,0,nan,0.0,0.0,0.0,0,4,1,1,1,30,0,0,0
709112783,0,37.4560624,126.9541663,174.072,192.528,1725537835299786,11141125,0.37600002,0.06709464,1.006,1.47,0.53999996,0.82,66,8,4.907,4.8840003,0.47700003,-0.011000001,0.097274706,0,nan,0.0,0.0,0.0,0,4,1,1,1,30,0,0,0
709213784,0,37.456066799999995,126.9541668,174.084,192.541,1725537835399786,11141125,0.37600002,0.06770167,1.006,1.47,0.53999996,0.82,66,8,4.901,4.873,0.521,0.015000001,0.10644972,0,nan,0.0,0.0,0.0,0,4,1,1,1,30,0,0,0
709312784,0,37.4560712,126.95416739999999,174.084,192.541,1725537835499786,11141125,0.37500003,0.068212524,1.006,1.47,0.53999996,0.82,66,8,4.8820004,4.8560004,0.505,0.048,0.10357534,0,nan,0.0,0.0,0.0,0,4,1,1,1,30,0,0,0
709413785,0,37.4560757,126.954168,174.09,192.546,1725537835599786,11141125,0.365,0.06608898,1.006,1.4690001,0.53999996,0.82,66,8,4.9490004,4.9220004,0.522,-0.011000001,0.10567654,0,nan,0.0,0.0,0.0,0,4,1,1,1,30,0,0,0
709515889,0,37.4560801,126.9541685,174.09300000000002,192.55,1725537835699786,11141125,0.36600003,0.06593958,1.006,1.4690001,0.53999996,0.82,66,8,4.9220004,4.9040003,0.42900002,-0.015000001,0.087345526,0,nan,0.0,0.0,0.0,0,4,1,1,1,30,0,0,0
709616145,0,37.4560846,126.954169,174.099,192.556,1725537835799786,11141125,0.37100002,0.066485874,1.006,1.468,0.53999996,0.82,66,8,4.98,4.9500003,0.55,-0.028,0.11076034,0,nan,0.0,0.0,0.0,0,4,1,1,1,30,0,0,0
709715797,0,37.4560891,126.9541696,174.091,192.548,1725537835899786,11141125,0.37300003,0.06520008,1.005,1.468,0.53999996,0.82,66,8,5.039,5.0210004,0.42100003,0.031000001,0.08371664,0,nan,0.0,0.0,0.0,0,4,1,1,1,30,0,0,0
709823790,0,37.456093599999996,126.9541701,174.078,192.535,1725537835999787,11141125,0.37300003,0.06673912,1.005,1.468,0.53999996,0.82,66,18,4.933,4.9080005,0.49100003,0.060000002,0.09979775,0,nan,0.0,0.0,0.0,0,4,1,1,1,30,0,0,0
709912165,0,37.456098,126.95417069999999,174.074,192.531,1725537836099786,11141125,0.37500003,0.06769172,1.005,1.4670001,0.53999996,0.82,66,18,4.8560004,4.8360004,0.44500002,0.019000001,0.09170134,0,nan,0.0,0.0,0.0,0,4,1,1,1,30,0,0,0
710017967,0,37.4561024,126.95417099999999,174.076,192.532,1725537836199786,11141125,0.377,0.06529486,1.005,1.4670001,0.53999996,0.82,66,18,5.0140004,5.004,0.323,0.071,0.064445056,0,nan,0.0,0.0,0.0,0,4,1,1,1,30,0,0,0
710115785,0,37.456106999999996,126.9541715,174.072,192.529,1725537836299786,11141125,0.36900002,0.06509275,1.005,1.4670001,0.53999996,0.82,66,18,5.011,4.993,0.425,0.061000004,0.0849902,0,nan,0.0,0.0,0.0,0,4,1,1,1,30,0,0,0
710215783,0,37.4561115,126.95417189999999,174.085,192.541,1725537836399786,11141125,0.37100002,0.06498454,1.005,1.4660001,0.53999996,0.82,66,18,4.9870005,4.9740005,0.365,0.008,0.07320609,0,nan,0.0,0.0,0.0,0,4,1,1,1,30,0,0,0
710312820,0,37.456116,126.95417219999999,174.098,192.555,1725537836499786,11141125,0.36900002,0.0648676,1.005,1.4660001,0.53999996,0.82,66,18,4.9870005,4.978,0.305,-0.008,0.061117064,0,nan,0.0,0.0,0.0,0,4,1,1,1,30,0,0,0
710409597,0,37.4561205,126.95417259999999,174.104,192.561,1725537836599786,11141125,0.374,0.0654193,1.0040001,1.4660001,0.53999996,0.82,66,18,4.9500003,4.9370003,0.35500002,-0.002,0.07184246,0,nan,0.0,0.0,0.0,0,4,1,1,1,30,0,0,0
710511864,0,37.456125,126.954173,174.083,192.54,1725537836699786,11141125,0.372,0.06416371,1.0040001,1.465,0.53999996,0.82,66,18,5.057,5.0470004,0.31800002,0.043,0.0628397,0,nan,0.0,0.0,0.0,0,4,1,1,1,30,0,0,0
710611784,0,37.4561296,126.95417339999999,174.084,192.54,1725537836799786,11141125,0.36400002,0.063431546,1.0040001,1.465,0.53999996,0.82,66,18,5.0070004,4.9960003,0.33900002,-0.028,0.06783518,0,nan,0.0,0.0,0.0,0,4,1,1,1,30,0,0,0
710712789,0,37.4561341,126.95417379999999,174.068,192.525,1725537836899786,11141125,0.365,0.06377747,1.003,1.4640001,0.53999996,0.82,66,18,4.9890003,4.972,0.41300002,0.10700001,0.082799815,0,nan,0.0,0.0,0.0,0,4,1,1,1,30,0,0,0
710814786,0,37.456138599999996,126.95417429999999,174.062,192.519,1725537836999787,11141125,0.36800003,0.06387643,1.003,1.4640001,0.53999996,0.82,66,12,4.9960003,4.984,0.34500003,0.051000003,0.06918206,0,nan,0.0,0.0,0.0,0,4,1,1,1,30,0,0,0
710913786,0,37.4561431,126.9541747,174.077,192.534,1725537837099786,11141125,0.367,0.06373262,1.003,1.4640001,0.53999996,0.82,66,12,5.0160003,5.0030003,0.367,0.035,0.07322668,0,nan,0.0,0.0,0.0,0,4,1,1,1,30,0,0,0
711013913,0,37.4561476,126.9541751,174.072,192.528,1725537837199786,11141125,0.36400002,0.06430893,1.0020001,1.463,0.53999996,0.82,66,12,4.94,4.9240003,0.397,0.037,0.08040068,0,nan,0.0,0.0,0.0,0,4,1,1,1,30,0,0,0
711113785,0,37.456151999999996,126.95417549999999,174.072,192.529,1725537837299786,11141125,0.36800003,0.06550063,1.0020001,1.463,0.53999996,0.82,66,12,4.894,4.881,0.36100003,0.014,0.0737693,0,nan,0.0,0.0,0.0,0,4,1,1,1,30,0,0,0
711212784,0,37.4561564,126.95417599999999,174.07,192.52700000000002,1725537837399786,11141125,0.372,0.06755838,1.0020001,1.463,0.53999996,0.82,66,12,4.846,4.829,0.41300002,-0.022000002,0.08532443,0,nan,0.0,0.0,0.0,0,4,1,1,1,30,0,0,0
711313783,0,37.4561607,126.95417649999999,174.067,192.523,1725537837499786,11141125,0.372,0.068183206,1.0020001,1.463,0.53999996,0.82,66,12,4.7850003,4.7700005,0.37600002,0.034,0.07870091,0,nan,0.0,0.0,0.0,0,4,1,1,1,30,0,0,0
711412784,0,37.456165,126.9541769,174.064,192.52100000000002,1725537837599786,11141125,0.374,0.069834284,1.0020001,1.463,0.53999996,0.82,66,12,4.6600003,4.6470003,0.34600002,0.020000001,0.07424229,0,nan,0.0,0.0,0.0,0,4,1,1,1,30,0,0,0
711513963,0,37.4561691,126.9541773,174.062,192.519,1725537837699785,11141125,0.37100002,0.07346859,1.0020001,1.463,0.53999996,0.82,66,12,4.445,4.4350004,0.30600002,-0.012,0.06880035,0,nan,0.0,0.0,0.0,0,4,1,1,1,30,0,0,0
711614784,0,37.456173,126.9541776,174.054,192.51,1725537837799785,11141125,0.374,0.073943146,1.0020001,1.463,0.53999996,0.82,66,12,4.373,4.3630004,0.29500002,-0.012,0.06754267,0,nan,0.0,0.0,0.0,0,4,1,1,1,30,0,0,0
711706785,0,37.4561768,126.954178,174.048,192.504,1725537837899785,11141125,0.36100003,0.07871068,1.0020001,1.463,0.53999996,0.82,66,12,4.111,4.096,0.34300002,-0.042000003,0.083562694,0,nan,0.0,0.0,0.0,0,4,1,1,1,30,0,0,0
711822783,0,37.456180499999995,126.95417839999999,174.047,192.504,1725537837999786,11141125,0.367,0.080827594,1.0020001,1.4640001,0.53999996,0.82,66,12,4.026,4.0150003,0.298,-0.008,0.07413425,0,nan,0.0,0.0,0.0,0,4,1,1,1,30,0,0,0
711919803,0,37.4561841,126.9541788,174.047,192.504,1725537838099785,11141125,0.363,0.08356637,1.001,1.4640001,0.53999996,0.82,66,12,3.9070003,3.8910003,0.356,-0.004,0.09126064,0,nan,0.0,0.0,0.0,0,4,1,1,1,30,0,0,0
712013786,0,37.4561875,126.9541792,174.067,192.524,1725537838199785,11141125,0.36100003,0.08879362,1.001,1.4640001,0.53999996,0.82,66,12,3.676,3.6540003,0.407,-0.018000001,0.11096768,0,nan,0.0,0.0,0.0,0,4,1,1,1,30,0,0,0
712112786,0,37.4561907,126.95417959999999,174.06,192.517,1725537838299785,11141125,0.367,0.09208776,1.001,1.4640001,0.53999996,0.82,66,12,3.6050003,3.5850003,0.37600002,0.054,0.10452707,0,nan,0.0,0.0,0.0,0,4,1,1,1,30,0,0,0
712213874,0,37.456193899999995,126.95418009999999,174.052,192.508,1725537838399785,11141125,0.37,0.09734486,1.001,1.465,0.53999996,0.82,66,12,3.4250002,3.3930001,0.467,0.08400001,0.1368647,0,nan,0.0,0.0,0.0,0,4,1,1,1,30,0,0,0
712313783,0,37.456196899999995,126.9541806,174.046,192.502,1725537838499785,11141125,0.36400002,0.099758826,1.001,1.465,0.53999996,0.82,66,12,3.3470001,3.3260002,0.374,0.08400001,0.11194716,0,nan,0.0,0.0,0.0,0,4,1,1,1,30,0,0,0
712411785,0,37.4561998,126.95418099999999,174.024,192.48000000000002,1725537838599785,11141125,0.36400002,0.10690909,1.001,1.4660001,0.53999996,0.82,66,12,3.0990002,3.084,0.305,0.032,0.09852523,0,nan,0.0,0.0,0.0,0,4,1,1,1,30,0,0,0
712511783,0,37.456202499999996,126.9541814,174.011,192.467,1725537838699785,11141125,0.363,0.11266257,1.001,1.4670001,0.53999996,0.82,66,12,2.956,2.9390001,0.32000002,0.007,0.10840362,0,nan,0.0,0.0,0.0,0,4,1,1,1,30,0,0,0
712606783,0,37.4562051,126.9541818,174.006,192.463,1725537838799785,11141125,0.363,0.116862185,1.001,1.4670001,0.53999996,0.82,66,12,2.831,2.8130002,0.319,0.037,0.11290726,0,nan,0.0,0.0,0.0,0,4,1,1,1,30,0,0,0
712712783,0,37.4562075,126.95418219999999,173.999,192.45600000000002,1725537838899785,11141125,0.356,0.12459556,1.001,1.4670001,0.53999996,0.82,66,12,2.6450002,2.63,0.282,-0.018000001,0.106745034,0,nan,0.0,0.0,0.0,0,4,1,1,1,30,0,0,0
712821791,0,37.456209699999995,126.95418249999999,174.022,192.478,1725537838999786,11141125,0.354,0.14008257,1.0,1.468,0.53999996,0.82,66,29,2.3820002,2.3590002,0.333,-0.040000003,0.14018746,0,nan,0.0,0.0,0.0,0,4,1,1,1,30,0,0,0
712912784,0,37.4562118,126.9541828,174.032,192.489,1725537839099785,11141125,0.354,0.14856574,1.0,1.468,0.53999996,0.82,66,29,2.246,2.232,0.24800001,-0.101,0.11077814,0,nan,0.0,0.0,0.0,0,4,1,1,1,30,0,0,0
713013784,0,37.4562137,126.9541831,174.023,192.48000000000002,1725537839199785,11141125,0.363,0.16546349,1.0,1.4690001,0.53999996,0.82,66,29,2.0600002,2.045,0.245,0.016,0.11930145,0,nan,0.0,0.0,0.0,0,4,1,1,1,30,0,0,0
713113830,0,37.4562154,126.9541833,174.02700000000002,192.484,1725537839299785,11141125,0.35700002,0.18031624,1.0,1.47,0.53999996,0.82,66,29,1.8780001,1.8690001,0.18400002,0.021000002,0.09805364,0,nan,0.0,0.0,0.0,0,4,1,1,1,30,0,0,0
713212902,0,37.456216999999995,126.9541836,174.041,192.497,1725537839399785,11141125,0.354,0.20726238,1.0,1.4710001,0.53999996,0.82,66,29,1.6660001,1.6480001,0.24400002,-0.076000005,0.14681743,0,nan,0.0,0.0,0.0,0,4,1,1,1,30,0,0,0
713313782,0,37.4562184,126.95418389999999,174.02700000000002,192.484,1725537839499785,11141125,0.365,0.22387005,1.0,1.4720001,0.53999996,0.82,66,29,1.5510001,1.542,0.16700001,-0.051000003,0.10764737,0,nan,0.0,0.0,0.0,0,4,1,1,1,30,0,0,0
713411786,0,37.4562197,126.954184,174.048,192.504,1725537839599785,11141125,0.35900003,0.26171717,1.0,1.4720001,0.53999996,0.82,66,29,1.3310001,1.3160001,0.19800001,-0.041,0.14956301,0,nan,0.0,0.0,0.0,0,4,1,1,1,30,0,0,0
713505786,0,37.4562208,126.9541842,174.041,192.497,1725537839699785,11141125,0.36600003,0.29219866,1.0,1.473,0.53999996,0.82,66,29,1.1750001,1.174,0.065000005,0.0,0.05535102,0,nan,0.0,0.0,0.0,0,4,1,1,1,30,0,0,0
713614094,0,37.4562218,126.9541842,174.037,192.493,1725537839799785,11141125,0.36400002,0.31660044,1.0,1.4740001,0.53999996,0.82,66,29,1.0610001,1.0610001,-0.018000001,0.032,6.2661223,0,nan,0.0,0.0,0.0,0,4,1,1,1,30,0,0,0
713712898,0,37.4562227,126.9541842,174.048,192.505,1725537839899785,11141125,0.365,0.35835725,1.0,1.4740001,0.53999996,0.82,66,29,0.94200003,0.94100004,-0.046000004,-0.008,6.2343493,0,nan,0.0,0.0,0.0,0,4,1,1,1,30,0,0,0
713821782,0,37.4562235,126.95418409999999,174.043,192.499,1725537839999786,11141125,0.37,0.3778299,1.0,1.475,0.53999996,0.82,66,15,0.89500004,0.892,-0.074,0.010000001,6.200684,0,nan,0.0,0.0,0.0,0,4,1,1,1,30,0,0,0
713916784,0,37.4562242,126.954184,174.048,192.505,1725537840099785,11141125,0.37100002,0.41157585,1.0,1.4760001,0.53999996,0.82,66,15,0.813,0.80100006,-0.136,-0.05,6.1147046,0,nan,0.0,0.0,0.0,0,4,1,1,1,30,0,0,0
714014783,0,37.456224899999995,126.95418389999999,174.03900000000002,192.496,1725537840199785,11141125,0.36800003,0.4997862,1.0,1.4760001,0.53999996,0.82,66,15,0.67200005,0.66400003,-0.102000006,-0.0050000004,6.1308722,0,nan,0.0,0.0,0.0,0,4,1,1,1,30,0,0,0
714112784,0,37.4562254,126.9541838,174.047,192.504,1725537840299785,11141125,0.37300003,0.56200385,1.001,1.4770001,0.53999996,0.82,66,15,0.59400004,0.58900005,-0.079,0.024,6.150434,0,nan,0.0,0.0,0.0,0,4,1,1,1,30,0,0,0
714212783,0,37.456226,126.95418369999999,174.04500000000002,192.502,1725537840399784,11141125,0.37100002,0.56961,1.001,1.4770001,0.53999996,0.82,66,15,0.583,0.578,-0.078,-0.031000001,6.148824,0,nan,0.0,0.0,0.0,0,4,1,1,1,30,0,0,0
714313792,0,37.4562265,126.95418369999999,174.034,192.49,1725537840499784,11141125,0.36600003,0.5807806,1.001,1.478,0.53999996,0.82,66,15,0.56600004,0.56200004,-0.065000005,-0.057000004,6.168424,0,nan,0.0,0.0,0.0,0,4,1,1,1,30,0,0,0
714407785,0,37.4562269,126.95418369999999,174.04,192.497,1725537840599784,11141125,0.35200003,0.72228134,1.001,1.478,0.53999996,0.82,66,15,0.46500003,0.46500003,0.025,-0.09,0.054207306,0,nan,0.0,0.0,0.0,0,4,1,1,1,30,0,0,0
714513786,0,37.456227399999996,126.95418369999999,174.05100000000002,192.507,1725537840699784,11141125,0.36100003,0.6799338,1.001,1.478,0.53999996,0.82,66,15,0.49400002,0.49400002,0.022000002,-0.042000003,0.044931058,0,nan,0.0,0.0,0.0,0,4,1,1,1,30,0,0,0
714614783,0,37.4562278,126.95418369999999,174.064,192.52100000000002,1725537840799784,11141125,0.36900002,0.6802319,1.001,1.4790001,0.53999996,0.82,66,15,0.497,0.49600002,0.031000001,0.034,0.062986135,0,nan,0.0,0.0,0.0,0,4,1,1,1,30,0,0,0
714713783,0,37.4562283,126.9541838,174.058,192.51500000000001,1725537840899784,11141125,0.363,0.73188794,1.001,1.4790001,0.53999996,0.82,66,15,0.46500003,0.46,0.063,0.023000002,0.13675946,0,nan,0.0,0.0,0.0,0,4,1,1,1,30,0,0,0
714822785,0,37.4562287,126.95418389999999,174.055,192.512,1725537840999785,11141125,0.35700002,0.67119485,1.001,1.4790001,0.53999996,0.82,66,6,0.508,0.49500003,0.112,0.0,0.22278602,0,nan,0.0,0.0,0.0,0,4,1,1,1,30,0,0,0
714916785,0,37.4562291,126.954184,174.07,192.52700000000002,1725537841099784,11141125,0.354,0.63864857,1.001,1.4790001,0.53999996,0.82,66,6,0.53400004,0.521,0.11400001,-0.033,0.21607348,0,nan,0.0,0.0,0.0,0,4,1,1,1,30,0,0,0
715014783,0,37.4562296,126.95418409999999,174.067,192.524,1725537841199784,11141125,0.35700002,0.66879517,1.001,1.48,0.53999996,0.82,66,6,0.50600004,0.497,0.095000006,-0.035,0.18902805,0,nan,0.0,0.0,0.0,0,4,1,1,1,30,0,0,0
715112783,0,37.45623,126.9541842,174.096,192.553,1725537841299784,11141125,0.34800002,0.6092611,1.001,1.48,0.53999996,0.82,66,6,0.559,0.545,0.12200001,-0.108,0.21986662,0,nan,0.0,0.0,0.0,0,4,1,1,1,30,0,0,0
715212783,0,37.4562305,126.95418439999999,174.106,192.562,1725537841399784,11141125,0.354,0.64531976,1.001,1.48,0.53999996,0.82,66,6,0.532,0.52000004,0.113000005,-0.058000002,0.21370736,0,nan,0.0,0.0,0.0,0,4,1,1,1,30,0,0,0
715306846,0,37.456230999999995,126.9541845,174.117,192.573,1725537841499784,11141125,0.35500002,0.63542044,1.001,1.4810001,0.53999996,0.82,66,6,0.549,0.53400004,0.124000005,-0.047000002,0.22846726,0,nan,0.0,0.0,0.0,0,4,1,1,1,30,0,0,0
715412799,0,37.4562315,126.95418459999999,174.13,192.586,1725537841599784,11141125,0.35500002,0.5774256,1.001,1.4810001,0.53999996,0.82,66,6,0.595,0.58500004,0.112,-0.068,0.18842539,0,nan,0.0,0.0,0.0,0,4,1,1,1,30,0,0,0
715512786,0,37.456232,126.9541848,174.138,192.595,1725537841699784,11141125,0.34600002,0.604018,1.001,1.4810001,0.53999996,0.82,66,6,0.572,0.554,0.143,-0.08800001,0.25347415,0,nan,0.0,0.0,0.0,0,4,1,1,1,30,0,0,0
715612784,0,37.4562325,126.954185,174.143,192.6,1725537841799784,11141125,0.351,0.591568,1.001,1.4810001,0.53999996,0.82,66,6,0.6,0.583,0.141,-0.105000004,0.23668078,0,nan,0.0,0.0,0.0,0,4,1,1,1,30,0,0,0
715711078,0,37.456233,126.95418509999999,174.141,192.598,1725537841899784,11141125,0.347,0.60806763,1.001,1.4820001,0.53999996,0.82,66,6,0.583,0.56200004,0.155,-0.056,0.26899067,0,nan,0.0,0.0,0.0,0,4,1,1,1,30,0,0,0
715821898,0,37.456233499999996,126.95418529999999,174.15,192.606,1725537841999785,11141125,0.34100002,0.57206637,1.001,1.4820001,0.53999996,0.82,66,14,0.601,0.58400005,0.141,-0.087000005,0.23645598,0,nan,0.0,0.0,0.0,0,4,1,1,1,30,0,0,0
715912784,0,37.456233999999995,126.9541855,174.165,192.622,1725537842099784,11141125,0.33400002,0.62310153,1.001,1.4820001,0.53999996,0.82,66,14,0.56600004,0.52000004,0.22500001,-0.08800001,0.40834317,0,nan,0.0,0.0,0.0,0,4,1,1,1,30,0,0,0
716012783,0,37.4562345,126.95418579999999,174.162,192.619,1725537842199784,11141125,0.33400002,0.6124587,1.001,1.4820001,0.53999996,0.82,66,14,0.58900005,0.512,0.29000002,-0.018000001,0.5151751,0,nan,0.0,0.0,0.0,0,4,1,1,1,30,0,0,0
716114782,0,37.456235,126.9541861,174.177,192.63400000000001,1725537842299784,11141125,0.337,0.65384376,1.001,1.4820001,0.53999996,0.82,66,14,0.541,0.512,0.17600001,-0.056,0.3315778,0,nan,0.0,0.0,0.0,0,4,1,1,1,30,0,0,0
716206783,0,37.4562354,126.95418629999999,174.193,192.65,1725537842399784,11141125,0.321,0.68994606,1.001,1.4820001,0.53999996,0.82,66,14,0.527,0.46500003,0.24800001,-0.080000006,0.49091154,0,nan,0.0,0.0,0.0,0,4,1,1,1,30,0,0,0
716312782,0,37.456235899999996,126.9541867,174.195,192.651,1725537842499784,11141125,0.31300002,0.62725157,1.0,1.4810001,0.53999996,0.82,66,14,0.58900005,0.518,0.28,-0.065000005,0.49541306,0,nan,0.0,0.0,0.0,0,4,1,1,1,30,0,0,0
716412784,0,37.4562364,126.9541869,174.192,192.648,1725537842599784,11141125,0.33100003,0.63523597,1.0,1.48,0.53999996,0.82,66,14,0.55600005,0.528,0.17300001,-0.039,0.3166797,0,nan,0.0,0.0,0.0,0,4,1,1,1,30,0,0,0
716511784,0,37.4562368,126.95418719999999,174.18800000000002,192.645,1725537842699784,11141125,0.324,0.7850053,1.0,1.4790001,0.53999996,0.82,66,14,0.47900003,0.42600003,0.21900001,-0.080000006,0.4753772,0,nan,0.0,0.0,0.0,0,4,1,1,1,30,0,0,0
716613059,0,37.4562372,126.95418749999999,174.177,192.633,1725537842799784,11141125,0.32500002,0.75055176,1.0,1.478,0.53999996,0.82,66,14,0.499,0.44000003,0.23500001,-0.035,0.49037537,0,nan,0.0,0.0,0.0,0,4,1,1,1,30,0,0,0
716715807,0,37.4562376,126.95418769999999,174.184,192.641,1725537842899784,11141125,0.32900003,0.74367046,1.0,1.4770001,0.53999996,0.82,66,14,0.51100004,0.45000002,0.24200001,0.015000001,0.4945373,0,nan,0.0,0.0,0.0,0,4,1,1,1,30,0,0,0
716821785,0,37.4562381,126.9541879,174.184,192.641,1725537842999785,11141125,0.35200003,0.678764,1.0,1.4770001,0.53999996,0.82,66,9,0.521,0.50600004,0.123,0.006,0.23824407,0,nan,0.0,0.0,0.0,0,4,1,1,1,30,0,0,0
716916085,0,37.4562385,126.9541881,174.167,192.623,1725537843099783,11141125,0.342,0.7926376,1.0,1.4760001,0.53999996,0.82,66,9,0.45700002,0.439,0.12900001,-0.051000003,0.34678453,0,nan,0.0,0.0,0.0,0,4,1,1,1,30,0,0,0
717016482,0,37.456238899999995,126.9541883,174.177,192.633,1725537843199783,11141125,0.33600003,0.88567513,1.0,1.475,0.53999996,0.82,66,9,0.42800003,0.39400002,0.16800001,-0.040000003,0.34678453,0,nan,0.0,0.0,0.0,0,4,1,1,1,30,0,0,0
717106937,0,37.4562393,126.9541885,174.181,192.637,1725537843299783,11141125,0.36600003,0.79882616,1.0,1.4740001,0.53999996,0.82,66,9,0.45100003,0.44200003,0.09,-0.002,0.34678453,0,nan,0.0,0.0,0.0,0,4,1,1,1,30,0,0,0
717212785,0,37.4562397,126.9541885,174.185,192.641,1725537843399783,11141125,0.37300003,0.8081751,1.0,1.473,0.53999996,0.82,66,9,0.439,0.43500003,0.063,0.021000002,0.34678453,0,nan,0.0,0.0,0.0,0,4,1,1,1,30,0,0,0
717312794,0,37.45624,126.95418869999999,174.192,192.648,1725537843499783,11141125,0.33800003,1.1036091,1.0,1.4720001,0.53999996,0.82,66,9,0.36,0.317,0.17,0.0050000004,0.34678453,0,nan,0.0,0.0,0.0,0,4,1,1,1,30,0,0,0
717412800,0,37.4562403,126.9541888,174.196,192.653,1725537843599783,11141125,0.38300002,1.2081227,1.0,1.4720001,0.53999996,0.82,66,9,0.317,0.305,0.083000004,0.023000002,0.34678453,0,nan,0.0,0.0,0.0,0,4,1,1,1,30,0,0,0
717512797,0,37.4562406,126.954189,174.20000000000002,192.657,1725537843699783,11141125,0.381,1.1228608,1.0,1.4720001,0.53999996,0.82,66,9,0.32900003,0.32000002,0.074,0.021000002,0.34678453,0,nan,0.0,0.0,0.0,0,4,1,1,1,30,0,0,0
717613786,0,37.4562409,126.9541891,174.204,192.661,1725537843799783,11141125,0.37600002,1.1680087,1.0,1.4710001,0.53999996,0.82,66,9,0.31100002,0.30600002,0.060000002,-0.032,0.34678453,0,nan,0.0,0.0,0.0,0,4,1,1,1,30,0,0,0
717711785,0,37.4562411,126.95418919999999,174.193,192.649,1725537843899783,11141125,0.34600002,1.4981334,1.001,1.4710001,0.53999996,0.82,66,9,0.26200002,0.23500001,0.115,-0.031000001,0.34678453,0,nan,0.0,0.0,0.0,0,4,1,1,1,30,0,0,0
717821784,0,37.456241399999996,126.95418939999999,174.19,192.647,1725537843999784,11141125,0.365,1.2851156,1.0,1.47,0.53999996,0.82,66,9,0.284,0.27400002,0.078,-0.032,0.34678453,0,nan,0.0,0.0,0.0,0,4,1,1,1,30,0,0,0
717916790,0,37.4562416,126.9541895,174.192,192.648,1725537844099783,11141125,0.37300003,2.0176535,1.0,1.47,0.53999996,0.82,66,9,0.18400002,0.17400001,0.059000004,0.023000002,0.34678453,0,nan,0.0,0.0,0.0,0,4,1,1,1,30,0,0,0
718006783,0,37.4562418,126.95418959999999,174.199,192.655,1725537844199783,11141125,0.39000002,1.2971015,1.0,1.4690001,0.53999996,0.82,66,9,0.272,0.26700002,0.048,0.034,0.34678453,0,nan,0.0,0.0,0.0,0,4,1,1,1,30,0,0,0
718112980,0,37.456241999999996,126.9541897,174.18200000000002,192.638,1725537844299783,11141125,0.33100003,2.0293767,1.0,1.4690001,0.53999996,0.82,66,9,0.202,0.157,0.127,0.023000002,0.34678453,0,nan,0.0,0.0,0.0,0,4,1,1,1,30,0,0,0
718214782,0,37.4562422,126.95418989999999,174.172,192.629,1725537844399783,11141125,0.38200003,1.8203658,1.0,1.468,0.53999996,0.82,66,9,0.20600002,0.19500001,0.064,0.024,0.34678453,0,nan,0.0,0.0,0.0,0,4,1,1,1,30,0,0,0
718314786,0,37.4562424,126.95419,174.181,192.638,1725537844499783,11141125,0.40800002,1.94488,1.001,1.468,0.53999996,0.82,66,9,0.18800001,0.18400002,0.041,0.009000001,0.34678453,0,nan,0.0,0.0,0.0,0,4,1,1,1,30,0,0,0
