timestamp,timestamp_sample,latitude_deg,longitude_deg,altitude_msl_m,altitude_ellipsoid_m,time_utc_usec,device_id,s_variance_m_s,c_variance_rad,eph,epv,hdop,vdop,noise_per_ms,jamming_indicator,vel_m_s,vel_n_m_s,vel_e_m_s,vel_d_m_s,cog_rad,timestamp_time_relative,heading,heading_offset,heading_accuracy,rtcm_injection_rate,automatic_gain_control,fix_type,jamming_state,spoofing_state,vel_ned_valid,satellites_used,selected_rtcm_instance,rtcm_crc_failed,rtcm_msg_used
846910956,0,37.455919699999995,126.95421359999999,169.58,188.037,1725534485899874,11141125,0.39100003,3.1415925,1.0660001,1.7520001,0.53999996,0.82,61,6,0.056,-0.049000002,0.027,-0.067,0.7963391,0,nan,0.0,0.0,0.0,0,4,1,1,1,31,0,0,0
847021485,0,37.455919699999995,126.95421359999999,169.579,188.036,1725534485999875,11141125,0.37,3.1415925,1.0660001,1.7520001,0.53999996,0.82,61,6,0.07700001,-0.055000003,-0.054,-0.046000004,0.7963391,0,nan,0.0,0.0,0.0,0,4,1,1,1,31,0,0,0
847115098,0,37.455919699999995,126.95421359999999,169.565,188.02100000000002,1725534486099874,11141125,0.409,3.1415925,1.067,1.7520001,0.53999996,0.82,61,6,0.076000005,-0.028,0.071,-0.013,0.7963391,0,nan,0.0,0.0,0.0,0,4,1,1,1,31,0,0,0
847211714,0,37.455919699999995,126.9542137,169.554,188.011,1725534486199874,11141125,0.381,3.1415925,1.067,1.7520001,0.53999996,0.82,61,6,0.051000003,-0.047000002,0.018000001,0.021000002,0.7963391,0,nan,0.0,0.0,0.0,0,4,1,1,1,31,0,0,0
847314716,0,37.455919699999995,126.9542137,169.546,188.00300000000001,1725534486299874,11141125,0.40100002,3.1415925,1.067,1.7520001,0.53999996,0.82,61,6,0.006,0.003,-0.0050000004,0.0,0.7963391,0,nan,0.0,0.0,0.0,0,4,1,1,1,31,0,0,0
847413717,0,37.4559198,126.9542137,169.526,187.982,1725534486399874,11141125,0.40100002,3.1415925,1.067,1.7520001,0.53999996,0.82,61,6,0.045,0.031000001,-0.032,0.044000003,0.7963391,0,nan,0.0,0.0,0.0,0,4,1,1,1,31,0,0,0
847514715,0,37.4559198,126.9542137,169.525,187.981,1725534486499874,11141125,0.38200003,3.1415925,1.067,1.7520001,0.53999996,0.82,61,6,0.014,0.0,0.014,-0.021000002,0.7963391,0,nan,0.0,0.0,0.0,0,4,1,1,1,31,0,0,0
847608714,0,37.4559199,126.9542137,169.517,187.97400000000002,1725534486599873,11141125,0.39000002,3.1415925,1.067,1.7520001,0.53999996,0.82,61,6,0.033,0.013,0.030000001,-0.008,0.7963391,0,nan,0.0,0.0,0.0,0,4,1,1,1,31,0,0,0
847712716,0,37.4559199,126.95421379999999,169.504,187.961,1725534486699873,11141125,0.38000003,3.1415925,1.067,1.7520001,0.53999996,0.82,61,6,0.017,-0.012,0.012,0.006,0.7963391,0,nan,0.0,0.0,0.0,0,4,1,1,1,31,0,0,0
847812850,0,37.4559199,126.95421379999999,169.5,187.957,1725534486799873,11141125,0.349,3.1415925,1.067,1.7520001,0.53999996,0.82,61,5,0.021000002,0.006,0.020000001,0.034,0.7963391,0,nan,0.0,0.0,0.0,0,4,1,1,1,31,0,0,0
847910715,0,37.4559199,126.95421379999999,169.496,187.953,1725534486899873,11141125,0.34500003,3.1415925,1.067,1.7520001,0.53999996,0.82,61,5,0.008,-0.002,0.008,0.029000001,0.7963391,0,nan,0.0,0.0,0.0,0,4,1,1,1,31,0,0,0
848020716,0,37.45592,126.95421379999999,169.481,187.93800000000002,1725534486999874,11141125,0.41000003,3.1415925,1.067,1.7530001,0.53999996,0.82,61,5,0.055000003,0.034,-0.043,0.019000001,0.7963391,0,nan,0.0,0.0,0.0,0,4,1,1,1,31,0,0,0
848113756,0,37.45592,126.9542137,169.487,187.94400000000002,1725534487099873,11141125,0.39900002,3.1415925,1.067,1.7530001,0.53999996,0.82,61,5,0.047000002,0.002,-0.047000002,0.05,0.7963391,0,nan,0.0,0.0,0.0,0,4,1,1,1,31,0,0,0
848211717,0,37.4559201,126.95421359999999,169.48,187.937,1725534487199873,11141125,0.41300002,3.1415925,1.067,1.7530001,0.53999996,0.82,61,5,0.058000002,0.027,-0.051000003,0.026,0.7963391,0,nan,0.0,0.0,0.0,0,4,1,1,1,31,0,0,0
848313716,0,37.4559201,126.95421359999999,169.471,187.928,1725534487299873,11141125,0.37800002,3.1415925,1.067,1.7530001,0.53999996,0.82,61,5,0.062000003,-0.054,-0.031000001,-0.002,0.7963391,0,nan,0.0,0.0,0.0,0,4,1,1,1,31,0,0,0
848413718,0,37.4559201,126.95421359999999,169.483,187.94,1725534487399873,11141125,0.40300003,3.1415925,1.067,1.7530001,0.53999996,0.82,61,5,0.051000003,-0.0050000004,0.051000003,-0.039,0.7963391,0,nan,0.0,0.0,0.0,0,4,1,1,1,31,0,0,0
848507775,0,37.4559201,126.95421359999999,169.483,187.939,1725534487499873,11141125,0.367,3.1415925,1.067,1.7530001,0.53999996,0.82,61,5,0.025,-0.019000001,-0.017,-0.018000001,0.7963391,0,nan,0.0,0.0,0.0,0,4,1,1,1,31,0,0,0
848614372,0,37.4559202,126.95421359999999,169.484,187.941,1725534487599873,11141125,0.377,3.1415925,1.067,1.7530001,0.53999996,0.82,61,5,0.039,0.038000003,-0.006,-0.013,0.7963391,0,nan,0.0,0.0,0.0,0,4,1,1,1,31,0,0,0
848714717,0,37.455920299999995,126.95421359999999,169.459,187.916,1725534487699873,11141125,0.386,3.1415925,1.067,1.7530001,0.53999996,0.82,61,5,0.069000006,0.067,0.017,0.034,0.7963391,0,nan,0.0,0.0,0.0,0,4,1,1,1,31,0,0,0
848812714,0,37.455920299999995,126.95421359999999,169.43200000000002,187.889,1725534487799873,11141125,0.41300002,3.1415925,1.0680001,1.7530001,0.53999996,0.82,61,7,0.020000001,-0.012,0.017,-0.0050000004,0.7963391,0,nan,0.0,0.0,0.0,0,4,1,1,1,31,0,0,0
848913793,0,37.455920299999995,126.95421359999999,169.418,187.875,1725534487899873,11141125,0.384,3.1415925,1.0680001,1.7530001,0.53999996,0.82,61,7,0.010000001,-0.009000001,0.004,0.004,0.7963391,0,nan,0.0,0.0,0.0,0,4,1,1,1,31,0,0,0
849021713,0,37.4559204,126.95421359999999,169.43,187.887,1725534487999874,11141125,0.35500002,3.1415925,1.0680001,1.7530001,0.53999996,0.82,61,7,0.013,0.013,0.003,-0.024,0.7963391,0,nan,0.0,0.0,0.0,0,4,1,1,1,31,0,0,0
849114714,0,37.4559204,126.95421359999999,169.419,187.876,1725534488099873,11141125,0.38500002,3.1415925,1.0680001,1.7530001,0.53999996,0.82,61,7,0.047000002,0.034,0.032,-0.007,0.7963391,0,nan,0.0,0.0,0.0,0,4,1,1,1,31,0,0,0
849214713,0,37.4559205,126.9542137,169.409,187.865,1725534488199873,11141125,0.397,3.1415925,1.0680001,1.7530001,0.53999996,0.82,61,7,0.074,-0.052,0.052,0.013,0.7963391,0,nan,0.0,0.0,0.0,0,4,1,1,1,31,0,0,0
849315715,0,37.4559205,126.9542137,169.401,187.858,1725534488299873,11141125,0.377,3.1415925,1.0680001,1.7530001,0.53999996,0.82,61,7,0.035,-0.035,-0.0050000004,0.015000001,0.7963391,0,nan,0.0,0.0,0.0,0,4,1,1,1,31,0,0,0
849404714,0,37.4559205,126.9542137,169.40200000000002,187.859,1725534488399873,11141125,0.404,3.1415925,1.0680001,1.7530001,0.53999996,0.82,61,7,0.022000002,-0.018000001,0.013,0.0,0.7963391,0,nan,0.0,0.0,0.0,0,4,1,1,1,31,0,0,0
849509716,0,37.4559205,126.9542137,169.377,187.834,1725534488499873,11141125,0.36100003,3.1415925,1.069,1.7520001,0.53999996,0.82,61,7,0.0050000004,0.003,0.004,0.031000001,0.7963391,0,nan,0.0,0.0,0.0,0,4,1,1,1,31,0,0,0
849610817,0,37.4559205,126.9542137,169.364,187.821,1725534488599873,11141125,0.37500003,3.1415925,1.069,1.7520001,0.53999996,0.82,61,7,0.061000004,-0.059000004,0.015000001,0.028,0.7963391,0,nan,0.0,0.0,0.0,0,4,1,1,1,31,0,0,0
849710714,0,37.4559205,126.9542137,169.357,187.814,1725534488699873,11141125,0.404,3.1415925,1.069,1.7530001,0.53999996,0.82,61,7,0.058000002,0.054,-0.021000002,0.0050000004,0.7963391,0,nan,0.0,0.0,0.0,0,4,1,1,1,31,0,0,0
849809714,0,37.4559206,126.9542137,169.351,187.808,1725534488799873,11141125,0.39100003,3.1415925,1.069,1.7530001,0.53999996,0.82,61,3,0.054,0.053000003,0.004,0.024,0.7963391,0,nan,0.0,0.0,0.0,0,4,1,1,1,31,0,0,0
849913010,0,37.4559207,126.9542137,169.34300000000002,187.8,1725534488899873,11141125,0.37100002,3.1415925,1.069,1.7530001,0.53999996,0.82,61,3,0.053000003,0.046000004,0.026,0.043,0.7963391,0,nan,0.0,0.0,0.0,0,4,1,1,1,31,0,0,0
850018715,0,37.4559207,126.9542137,169.328,187.785,1725534488999874,11141125,0.36100003,3.1415925,1.069,1.7520001,0.53999996,0.82,61,3,0.016,-0.010000001,-0.012,0.045,0.7963391,0,nan,0.0,0.0,0.0,0,4,1,1,1,31,0,0,0
850112746,0,37.4559208,126.9542137,169.329,187.786,1725534489099873,11141125,0.351,3.1415925,1.069,1.7520001,0.53999996,0.82,61,3,0.038000003,0.019000001,0.033,0.040000003,0.7963391,0,nan,0.0,0.0,0.0,0,4,1,1,1,31,0,0,0
850211717,0,37.4559208,126.9542137,169.316,187.773,1725534489199873,11141125,0.35500002,3.1415925,1.069,1.7520001,0.53999996,0.82,61,3,0.014,0.013,0.004,0.045,0.7963391,0,nan,0.0,0.0,0.0,0,4,1,1,1,31,0,0,0
850306859,0,37.455920899999995,126.9542137,169.302,187.75900000000001,1725534489299872,11141125,0.33800003,3.1415925,1.069,1.7520001,0.53999996,0.82,61,3,0.021000002,-0.007,0.020000001,0.058000002,0.7963391,0,nan,0.0,0.0,0.0,0,4,1,1,1,31,0,0,0
850410715,0,37.455920899999995,126.9542137,169.292,187.749,1725534489399872,11141125,0.36900002,3.1415925,1.069,1.7520001,0.53999996,0.82,61,3,0.006,-0.006,0.002,-0.026,0.7963391,0,nan,0.0,0.0,0.0,0,4,1,1,1,31,0,0,0
850514220,0,37.455920899999995,126.95421379999999,169.281,187.738,1725534489499872,11141125,0.393,3.1415925,1.069,1.7520001,0.53999996,0.82,61,3,0.07300001,-0.025,0.068,0.002,0.7963391,0,nan,0.0,0.0,0.0,0,4,1,1,1,31,0,0,0
850613159,0,37.455920899999995,126.95421379999999,169.26500000000001,187.722,1725534489599872,11141125,0.404,3.1415925,1.069,1.7520001,0.53999996,0.82,61,3,0.029000001,0.026,-0.014,0.009000001,0.7963391,0,nan,0.0,0.0,0.0,0,4,1,1,1,31,0,0,0
850713718,0,37.455921,126.95421379999999,169.245,187.702,1725534489699872,11141125,0.34600002,3.1415925,1.069,1.7520001,0.53999996,0.82,61,3,0.049000002,-0.038000003,0.031000001,0.060000002,0.7963391,0,nan,0.0,0.0,0.0,0,4,1,1,1,31,0,0,0
850813716,0,37.455921,126.9542139,169.227,187.684,1725534489799872,11141125,0.37,3.1415925,1.069,1.751,0.53999996,0.82,61,6,0.042000003,-0.013,0.040000003,0.017,0.7963391,0,nan,0.0,0.0,0.0,0,4,1,1,1,31,0,0,0
850911810,0,37.455921,126.9542139,169.218,187.675,1725534489899872,11141125,0.379,3.1415925,1.069,1.751,0.53999996,0.82,61,6,0.052,-0.051000003,-0.009000001,0.006,0.7963391,0,nan,0.0,0.0,0.0,0,4,1,1,1,31,0,0,0
851021127,0,37.455921,126.9542139,169.204,187.66,1725534489999873,11141125,0.35700002,3.1415925,1.069,1.751,0.53999996,0.82,61,6,0.044000003,0.016,0.041,0.026,0.7963391,0,nan,0.0,0.0,0.0,0,4,1,1,1,31,0,0,0
851114910,0,37.455921,126.9542139,169.211,187.668,1725534490099872,11141125,0.34,3.1415925,1.069,1.751,0.53999996,0.82,61,6,0.036000002,-0.004,-0.036000002,-0.101,0.7963391,0,nan,0.0,0.0,0.0,0,4,1,1,1,31,0,0,0
851206834,0,37.4559211,126.9542139,169.218,187.675,1725534490199872,11141125,0.36100003,3.1415925,1.069,1.751,0.53999996,0.82,61,6,0.116000004,0.08400001,0.081,-0.21000001,0.7963391,0,nan,0.0,0.0,0.0,0,4,1,1,1,31,0,0,0
851313714,0,37.4559212,126.954214,169.235,187.692,1725534490299872,11141125,0.37,3.1415925,1.07,1.751,0.53999996,0.82,61,6,0.101,0.040000003,0.093,-0.24900001,0.7963391,0,nan,0.0,0.0,0.0,0,4,1,1,1,31,0,0,0
851413785,0,37.4559213,126.9542142,169.247,187.704,1725534490399872,11141125,0.386,1.8109306,1.07,1.7520001,0.53999996,0.82,61,6,0.22200002,0.16100001,0.15300001,-0.2,0.7963391,0,nan,0.0,0.0,0.0,0,4,1,1,1,31,0,0,0
851512714,0,37.4559214,126.9542144,169.256,187.713,1725534490499872,11141125,0.39800003,2.2188058,1.07,1.7520001,0.53999996,0.82,61,6,0.18300001,0.074,0.16800001,-0.172,0.7963391,0,nan,0.0,0.0,0.0,0,4,1,1,1,31,0,0,0
851610716,0,37.455921499999995,126.9542146,169.251,187.707,1725534490599872,11141125,0.4,1.907833,1.07,1.7520001,0.53999996,0.82,61,6,0.21200001,0.083000004,0.19500001,-0.15400001,0.7963391,0,nan,0.0,0.0,0.0,0,4,1,1,1,31,0,0,0
851711715,0,37.455921599999996,126.95421479999999,169.284,187.741,1725534490699872,11141125,0.384,1.9868182,1.0710001,1.7520001,0.53999996,0.82,61,6,0.201,0.058000002,0.192,-0.26500002,0.7963391,0,nan,0.0,0.0,0.0,0,4,1,1,1,31,0,0,0
851809715,0,37.4559217,126.9542151,169.321,187.778,1725534490799872,11141125,0.39000002,1.4679887,1.0710001,1.7530001,0.53999996,0.82,61,8,0.279,0.123,0.25,-0.365,0.7963391,0,nan,0.0,0.0,0.0,0,4,1,1,1,31,0,0,0
851910951,0,37.4559219,126.9542153,169.34300000000002,187.799,1725534490899872,11141125,0.38000003,2.0155137,1.072,1.7540001,0.53999996,0.82,61,8,0.20600002,0.11000001,0.17400001,-0.33100003,0.7963391,0,nan,0.0,0.0,0.0,0,4,1,1,1,31,0,0,0
852018716,0,37.455922,126.95421549999999,169.382,187.839,1725534490999873,11141125,0.37300003,2.6144707,1.072,1.7540001,0.53999996,0.82,61,8,0.155,0.031000001,0.15200001,-0.42600003,0.7963391,0,nan,0.0,0.0,0.0,0,4,1,1,1,31,0,0,0
852107351,0,37.455922,126.9542156,169.417,187.874,1725534491099872,11141125,0.36600003,3.1415925,1.072,1.7540001,0.53999996,0.82,61,8,0.115,-0.001,0.115,-0.47900003,0.7963391,0,nan,0.0,0.0,0.0,0,4,1,1,1,31,0,0,0
852210995,0,37.455922099999995,126.9542156,169.446,187.903,1725534491199872,11141125,0.34300002,2.786579,1.072,1.7540001,0.53999996,0.82,61,8,0.13800001,0.09200001,-0.10300001,-0.512,0.7963391,0,nan,0.0,0.0,0.0,0,4,1,1,1,31,0,0,0
852311713,0,37.455922099999995,126.95421549999999,169.504,187.961,1725534491299872,11141125,0.34500003,3.1415925,1.072,1.7540001,0.53999996,0.82,61,8,0.126,-0.007,-0.126,-0.68,0.7963391,0,nan,0.0,0.0,0.0,0,4,1,1,1,31,0,0,0
852410713,0,37.455922199999996,126.9542152,169.583,188.04,1725534491399872,11141125,0.34,1.4998114,1.072,1.7540001,0.53999996,0.82,61,8,0.277,0.038000003,-0.27400002,-0.74300003,0.7963391,0,nan,0.0,0.0,0.0,0,4,1,1,1,31,0,0,0
852510715,0,37.4559223,126.95421479999999,169.655,188.112,1725534491499872,11141125,0.34100002,0.982915,1.0730001,1.7540001,0.53999996,0.82,61,8,0.418,0.054,-0.41500002,-0.83800006,0.7963391,0,nan,0.0,0.0,0.0,0,4,1,1,1,31,0,0,0
852612714,0,37.4559224,126.95421429999999,169.739,188.196,1725534491599872,11141125,0.34100002,0.91240364,1.0730001,1.7540001,0.53999996,0.82,61,8,0.446,0.082,-0.43800002,-0.84900004,0.7963391,0,nan,0.0,0.0,0.0,0,4,1,1,1,31,0,0,0
852713715,0,37.4559224,126.95421379999999,169.839,188.296,1725534491699872,11141125,0.34500003,1.0104411,1.0730001,1.7540001,0.53999996,0.82,61,8,0.409,-0.120000005,-0.39100003,-0.91800004,0.7963391,0,nan,0.0,0.0,0.0,0,4,1,1,1,31,0,0,0
852813718,0,37.4559224,126.95421329999999,169.91400000000002,188.371,1725534491799872,11141125,0.349,0.9682811,1.0730001,1.7540001,0.53999996,0.82,61,7,0.423,0.039,-0.42100003,-0.92100006,0.7963391,0,nan,0.0,0.0,0.0,0,4,1,1,1,31,0,0,0
852914717,0,37.4559224,126.95421289999999,170.007,188.463,1725534491899872,11141125,0.34500003,1.1241137,1.0730001,1.7540001,0.53999996,0.82,61,7,0.36100003,-0.018000001,-0.36100003,-0.83100003,0.7963391,0,nan,0.0,0.0,0.0,0,4,1,1,1,31,0,0,0
853016715,0,37.4559224,126.95421259999999,170.091,188.548,1725534491999872,11141125,0.347,1.7979568,1.074,1.7540001,0.53999996,0.82,61,7,0.223,-0.08800001,-0.20500001,-0.85200006,0.7963391,0,nan,0.0,0.0,0.0,0,4,1,1,1,31,0,0,0
853115806,0,37.4559224,126.9542123,170.15800000000002,188.615,1725534492099871,11141125,0.347,2.4459667,1.074,1.7540001,0.53999996,0.82,61,7,0.163,-0.025,-0.16100001,-0.873,0.7963391,0,nan,0.0,0.0,0.0,0,4,1,1,1,31,0,0,0
853215715,0,37.4559223,126.9542122,170.234,188.691,1725534492199871,11141125,0.35500002,2.7678783,1.074,1.7540001,0.53999996,0.82,61,7,0.14400001,-0.14,-0.033,-0.83400005,0.7963391,0,nan,0.0,0.0,0.0,0,4,1,1,1,31,0,0,0
853313810,0,37.455922199999996,126.9542122,170.329,188.786,1725534492299871,11141125,0.35700002,3.1415925,1.074,1.7540001,0.53999996,0.82,61,7,0.123,-0.120000005,0.027,-0.97900003,0.7963391,0,nan,0.0,0.0,0.0,0,4,1,1,1,31,0,0,0
853416728,0,37.455922199999996,126.9542122,170.42600000000002,188.883,1725534492399871,11141125,0.354,3.1415925,1.074,1.7530001,0.53999996,0.82,61,7,0.09,-0.09,-0.003,-0.95400006,0.7963391,0,nan,0.0,0.0,0.0,0,4,1,1,1,31,0,0,0
853514734,0,37.455922099999995,126.9542123,170.524,188.981,1725534492499871,11141125,0.36100003,1.8938581,1.074,1.7530001,0.53999996,0.82,61,7,0.208,-0.09200001,0.187,-1.0150001,0.7963391,0,nan,0.0,0.0,0.0,0,4,1,1,1,31,0,0,0
853613716,0,37.455922,126.95421239999999,170.608,189.064,1725534492599871,11141125,0.36400002,1.6971968,1.074,1.7530001,0.53999996,0.82,61,7,0.23700002,-0.17600001,0.15900001,-1.0150001,0.7963391,0,nan,0.0,0.0,0.0,0,4,1,1,1,31,0,0,0
853715948,0,37.4559218,126.9542125,170.696,189.153,1725534492699871,11141125,0.36,2.571992,1.074,1.7530001,0.53999996,0.82,61,7,0.157,-0.134,0.081,-1.07,0.7963391,0,nan,0.0,0.0,0.0,0,4,1,1,1,31,0,0,0
853814016,0,37.4559217,126.95421259999999,170.808,189.264,1725534492799871,11141125,0.36,2.2495353,1.075,1.7530001,0.53999996,0.82,66,4,0.179,-0.148,0.09900001,-1.1340001,0.7963391,0,nan,0.0,0.0,0.0,0,4,1,1,1,31,0,0,0
853908378,0,37.455921599999996,126.9542128,170.927,189.383,1725534492899871,11141125,0.36400002,1.5447952,1.075,1.7530001,0.53999996,0.82,66,4,0.25800002,-0.201,0.16100001,-1.108,0.7963391,0,nan,0.0,0.0,0.0,0,4,1,1,1,31,0,0,0
854021804,0,37.455921499999995,126.95421289999999,171.03,189.486,1725534492999872,11141125,0.358,3.1415925,1.075,1.7530001,0.53999996,0.82,66,4,0.1,-0.068,0.074,-1.148,0.7963391,0,nan,0.0,0.0,0.0,0,4,1,1,1,31,0,0,0
854113715,0,37.4559214,126.95421289999999,171.157,189.614,1725534493099871,11141125,0.36100003,2.2230957,1.075,1.7530001,0.53999996,0.82,66,4,0.18100001,-0.18100001,-0.006,-1.2210001,0.7963391,0,nan,0.0,0.0,0.0,0,4,1,1,1,31,0,0,0
854212743,0,37.4559213,126.95421289999999,171.288,189.744,1725534493199871,11141125,0.36,2.4013157,1.0760001,1.7530001,0.53999996,0.82,66,4,0.16600001,-0.142,0.086,-1.261,0.7963391,0,nan,0.0,0.0,0.0,0,4,1,1,1,31,0,0,0
854313923,0,37.4559211,126.954213,171.418,189.875,1725534493299871,11141125,0.365,1.8827102,1.0760001,1.7530001,0.53999996,0.82,66,4,0.215,-0.16100001,0.143,-1.284,0.7963391,0,nan,0.0,0.0,0.0,0,4,1,1,1,31,0,0,0
854413715,0,37.455921,126.95421309999999,171.562,190.019,1725534493399871,11141125,0.35900003,2.279587,1.0760001,1.7530001,0.53999996,0.82,66,4,0.171,-0.149,0.08400001,-1.296,0.7963391,0,nan,0.0,0.0,0.0,0,4,1,1,1,31,0,0,0
854513947,0,37.455920899999995,126.95421309999999,171.692,190.149,1725534493499871,11141125,0.356,3.1415925,1.0760001,1.7530001,0.53999996,0.82,66,4,0.106000006,-0.085,0.063,-1.3050001,0.7963391,0,nan,0.0,0.0,0.0,0,4,1,1,1,31,0,0,0
854615714,0,37.4559208,126.9542132,171.84,190.297,1725534493599871,11141125,0.35700002,2.5975592,1.0760001,1.7530001,0.53999996,0.82,66,4,0.15300001,-0.123,0.091000006,-1.3100001,0.7963391,0,nan,0.0,0.0,0.0,0,4,1,1,1,31,0,0,0
854716794,0,37.4559208,126.95421329999999,171.98,190.437,1725534493699871,11141125,0.356,2.9839542,1.0760001,1.7520001,0.53999996,0.82,66,4,0.13100001,-0.074,0.108,-1.3330001,0.7963391,0,nan,0.0,0.0,0.0,0,4,1,1,1,31,0,0,0
854808717,0,37.4559207,126.95421329999999,172.113,190.57,1725534493799871,11141125,0.356,1.958215,1.0760001,1.7520001,0.53999996,0.82,66,6,0.19500001,-0.18800001,0.052,-1.314,0.7963391,0,nan,0.0,0.0,0.0,0,4,1,1,1,31,0,0,0
854914716,0,37.4559205,126.9542134,172.26,190.716,1725534493899871,11141125,0.356,2.1969075,1.0760001,1.7520001,0.53999996,0.82,66,6,0.177,-0.156,0.08400001,-1.294,0.7963391,0,nan,0.0,0.0,0.0,0,4,1,1,1,31,0,0,0
855022716,0,37.4559205,126.9542134,172.397,190.854,1725534493999872,11141125,0.35500002,3.1415925,1.0760001,1.751,0.53999996,0.82,66,6,0.120000005,-0.061000004,0.10300001,-1.222,0.7963391,0,nan,0.0,0.0,0.0,0,4,1,1,1,31,0,0,0
855117714,0,37.4559204,126.9542135,172.52100000000002,190.978,1725534494099871,11141125,0.35500002,3.1415925,1.0760001,1.7520001,0.53999996,0.82,66,6,0.091000006,-0.091000006,0.007,-1.2270001,0.7963391,0,nan,0.0,0.0,0.0,0,4,1,1,1,31,0,0,0
855212746,0,37.455920299999995,126.9542134,172.633,191.089,1725534494199871,11141125,0.358,3.1415925,1.0760001,1.7520001,0.53999996,0.82,66,6,0.120000005,-0.116000004,-0.031000001,-1.195,0.7963391,0,nan,0.0,0.0,0.0,0,4,1,1,1,31,0,0,0
855313718,0,37.4559202,126.95421329999999,172.746,191.203,1725534494299871,11141125,0.35500002,2.1623533,1.0760001,1.7520001,0.53999996,0.82,66,6,0.187,-0.17300001,-0.07,-1.167,0.7963391,0,nan,0.0,0.0,0.0,0,4,1,1,1,31,0,0,0
855413714,0,37.4559201,126.9542132,172.863,191.32,1725534494399871,11141125,0.354,3.0795074,1.077,1.7520001,0.53999996,0.82,66,6,0.13100001,-0.123,-0.045,-1.1140001,0.7963391,0,nan,0.0,0.0,0.0,0,4,1,1,1,31,0,0,0
855513715,0,37.4559201,126.954213,172.964,191.421,1725534494499871,11141125,0.349,2.0902238,1.077,1.751,0.53999996,0.82,66,6,0.19000001,-0.026,-0.18800001,-1.075,0.7963391,0,nan,0.0,0.0,0.0,0,4,1,1,1,31,0,0,0
855614904,0,37.4559201,126.9542128,173.058,191.514,1725534494599871,11141125,0.34500003,2.1698258,1.077,1.751,0.53999996,0.82,66,6,0.179,0.020000001,-0.178,-1.0840001,0.7963391,0,nan,0.0,0.0,0.0,0,4,1,1,1,31,0,0,0
855707713,0,37.4559201,126.9542127,173.145,191.602,1725534494699871,11141125,0.349,3.1415925,1.077,1.751,0.53999996,0.82,66,6,0.045,0.029000001,-0.035,-1.067,0.7963391,0,nan,0.0,0.0,0.0,0,4,1,1,1,31,0,0,0
855811717,0,37.45592,126.95421259999999,173.236,191.692,1725534494799870,11141125,0.35200003,2.325076,1.077,1.7520001,0.53999996,0.82,66,4,0.172,-0.148,-0.086,-0.98,0.7963391,0,nan,0.0,0.0,0.0,0,4,1,1,1,31,0,0,0
855914043,0,37.45592,126.95421239999999,173.351,191.808,1725534494899870,11141125,0.351,3.1415925,1.077,1.7520001,0.53999996,0.82,66,4,0.093,-0.046000004,-0.081,-0.90800005,0.7963391,0,nan,0.0,0.0,0.0,0,4,1,1,1,31,0,0,0
856020718,0,37.45592,126.9542123,173.442,191.899,1725534494999871,11141125,0.351,3.1415925,1.077,1.7520001,0.53999996,0.82,66,4,0.075,-0.022000002,-0.072000004,-0.91,0.7963391,0,nan,0.0,0.0,0.0,0,4,1,1,1,31,0,0,0
856115714,0,37.45592,126.95421209999999,173.525,191.981,1725534495099870,11141125,0.349,3.1415925,1.077,1.7520001,0.53999996,0.82,66,4,0.12200001,0.022000002,-0.120000005,-0.81700003,0.7963391,0,nan,0.0,0.0,0.0,0,4,1,1,1,31,0,0,0
856214040,0,37.45592,126.95421189999999,173.612,192.06900000000002,1725534495199870,11141125,0.35000002,2.5999,1.0780001,1.7530001,0.53999996,0.82,66,4,0.155,-0.010000001,-0.155,-0.83100003,0.7963391,0,nan,0.0,0.0,0.0,0,4,1,1,1,31,0,0,0
856312840,0,37.45592,126.95421169999999,173.683,192.14000000000001,1725534495299870,11141125,0.35300002,3.1415925,1.0780001,1.7530001,0.53999996,0.82,66,4,0.105000004,-0.035,-0.09900001,-0.77000004,0.7963391,0,nan,0.0,0.0,0.0,0,4,1,1,1,31,0,0,0
856413811,0,37.45592,126.9542116,173.752,192.208,1725534495399870,11141125,0.35500002,3.1415925,1.0780001,1.7540001,0.53999996,0.82,66,4,0.039,-0.031000001,-0.024,-0.78200006,0.7963391,0,nan,0.0,0.0,0.0,0,4,1,1,1,31,0,0,0
856514747,0,37.4559199,126.9542115,173.827,192.284,1725534495499870,11141125,0.35300002,2.4147701,1.079,1.7540001,0.53999996,0.82,66,4,0.164,-0.07300001,-0.14600001,-0.735,0.7963391,0,nan,0.0,0.0,0.0,0,4,1,1,1,31,0,0,0
856608715,0,37.4559199,126.9542113,173.906,192.363,1725534495599870,11141125,0.35200003,3.1415925,1.079,1.7540001,0.53999996,0.82,66,4,0.096,-0.008,-0.096,-0.721,0.7963391,0,nan,0.0,0.0,0.0,0,4,1,1,1,31,0,0,0
856714721,0,37.4559199,126.95421119999999,173.96200000000002,192.419,1725534495699870,11141125,0.35900003,3.1415925,1.079,1.7540001,0.53999996,0.82,66,4,0.076000005,-0.075,0.012,-0.606,0.7963391,0,nan,0.0,0.0,0.0,0,4,1,1,1,31,0,0,0
856812739,0,37.4559199,126.95421119999999,173.988,192.445,1725534495799870,11141125,0.35500002,3.1415925,1.079,1.7540001,0.53999996,0.82,66,4,0.060000002,-0.037,-0.047000002,-0.37500003,0.7963391,0,nan,0.0,0.0,0.0,0,4,1,1,1,31,0,0,0
856911386,0,37.4559199,126.9542111,174.019,192.476,1725534495899870,11141125,0.351,3.1415925,1.079,1.7550001,0.53999996,0.82,66,4,0.109000005,0.098000005,-0.048,-0.29700002,0.7963391,0,nan,0.0,0.0,0.0,0,4,1,1,1,31,0,0,0
857020714,0,37.45592,126.95421089999999,174.07,192.52700000000002,1725534495999871,11141125,0.34500003,3.1415925,1.08,1.7550001,0.53999996,0.82,66,4,0.126,0.045,-0.11800001,-0.344,0.7963391,0,nan,0.0,0.0,0.0,0,4,1,1,1,31,0,0,0
857114391,0,37.4559201,126.9542106,174.106,192.56300000000002,1725534496099870,11141125,0.35200003,1.1261029,1.08,1.7550001,0.53999996,0.82,66,4,0.358,0.082,-0.34800002,-0.35000002,0.7963391,0,nan,0.0,0.0,0.0,0,4,1,1,1,31,0,0,0
857208721,0,37.4559202,126.9542101,174.12800000000001,192.585,1725534496199870,11141125,0.36,0.8289361,1.08,1.7550001,0.53999996,0.82,66,4,0.48200002,0.128,-0.46500003,-0.32500002,0.7963391,0,nan,0.0,0.0,0.0,0,4,1,1,1,31,0,0,0
857309782,0,37.455920299999995,126.9542094,174.153,192.61,1725534496299870,11141125,0.37,0.62095374,1.08,1.7550001,0.53999996,0.82,66,4,0.64500004,0.11800001,-0.634,-0.314,4.896209,0,nan,0.0,0.0,0.0,0,4,1,1,1,31,0,0,0
857409715,0,37.4559206,126.9542085,174.178,192.63400000000001,1725534496399870,11141125,0.374,0.43601257,1.08,1.7550001,0.53999996,0.82,66,4,0.906,0.34,-0.83900005,-0.24300002,5.0967903,0,nan,0.0,0.0,0.0,0,4,1,1,1,31,0,0,0
857504895,0,37.455921,126.95420739999999,174.20600000000002,192.663,1725534496499870,11141125,0.38200003,0.3645701,1.08,1.7550001,0.53999996,0.82,66,4,1.065,0.37800002,-0.99600005,-0.17400001,5.0755243,0,nan,0.0,0.0,0.0,0,4,1,1,1,31,0,0,0
857610730,0,37.4559214,126.954206,174.214,192.671,1725534496599870,11141125,0.39400002,0.3089161,1.08,1.756,0.53999996,0.82,66,4,1.284,0.41900003,-1.2140001,-0.155,5.044956,0,nan,0.0,0.0,0.0,0,4,1,1,1,31,0,0,0
857710718,0,37.4559218,126.9542044,174.228,192.685,1725534496699870,11141125,0.39200002,0.2634962,1.08,1.756,0.53999996,0.82,66,4,1.5200001,0.44500002,-1.4530001,-0.18900001,5.0093346,0,nan,0.0,0.0,0.0,0,4,1,1,1,31,0,0,0
857808715,0,37.4559223,126.95420259999999,174.245,192.701,1725534496799870,11141125,0.39200002,0.23683088,1.08,1.756,0.53999996,0.82,66,8,1.7270001,0.546,-1.639,-0.23600002,5.033863,0,nan,0.0,0.0,0.0,0,4,1,1,1,31,0,0,0
857909716,0,37.455922799999996,126.9542007,174.26500000000001,192.722,1725534496899870,11141125,0.393,0.22388105,1.0810001,1.756,0.53999996,0.82,66,8,1.8110001,0.563,-1.7210001,-0.257,5.0285897,0,nan,0.0,0.0,0.0,0,4,1,1,1,31,0,0,0
858017715,0,37.455923299999995,126.95419869999999,174.276,192.732,1725534496999871,11141125,0.39400002,0.22369134,1.0810001,1.756,0.53999996,0.82,66,8,1.8140001,0.586,-1.7170001,-0.21200001,5.041248,0,nan,0.0,0.0,0.0,0,4,1,1,1,31,0,0,0
858112715,0,37.455923899999995,126.9541967,174.28300000000002,192.74,1725534497099870,11141125,0.395,0.21223184,1.0810001,1.756,0.53999996,0.82,66,8,1.914,0.67300004,-1.7910001,-0.21000001,5.071865,0,nan,0.0,0.0,0.0,0,4,1,1,1,31,0,0,0
858212751,0,37.455924599999996,126.9541945,174.294,192.75,1725534497199870,11141125,0.397,0.20161031,1.082,1.756,0.53999996,0.82,66,8,1.988,0.70100003,-1.8600001,-0.078,5.0729723,0,nan,0.0,0.0,0.0,0,4,1,1,1,31,0,0,0
858313731,0,37.455925199999996,126.9541922,174.31300000000002,192.769,1725534497299870,11141125,0.395,0.18388456,1.082,1.7550001,0.53999996,0.82,66,8,2.1590002,0.702,-2.0410001,-0.049000002,5.043685,0,nan,0.0,0.0,0.0,0,4,1,1,1,31,0,0,0
858408713,0,37.4559259,126.9541898,174.297,192.754,1725534497399870,11141125,0.397,0.18124877,1.082,1.756,0.53999996,0.82,66,8,2.1950002,0.68500006,-2.0860002,0.038000003,5.029856,0,nan,0.0,0.0,0.0,0,4,1,1,1,31,0,0,0
858514719,0,37.4559266,126.9541873,174.282,192.739,1725534497499869,11141125,0.4,0.16716222,1.082,1.756,0.53999996,0.82,66,8,2.384,0.808,-2.243,0.017,5.058134,0,nan,0.0,0.0,0.0,0,4,1,1,1,31,0,0,0
858613716,0,37.4559273,126.9541847,174.309,192.766,1725534497599869,11141125,0.393,0.16468892,1.082,1.756,0.53999996,0.82,66,8,2.4540002,0.772,-2.329,-0.11100001,5.032428,0,nan,0.0,0.0,0.0,0,4,1,1,1,31,0,0,0
858713748,0,37.455928,126.9541819,174.33,192.787,1725534497699869,11141125,0.393,0.16173704,1.082,1.756,0.53999996,0.82,66,8,2.4970002,0.76600003,-2.377,-0.16800001,5.024199,0,nan,0.0,0.0,0.0,0,4,1,1,1,31,0,0,0
858813714,0,37.455928799999995,126.9541792,174.34,192.796,1725534497799869,11141125,0.39400002,0.15865828,1.0830001,1.756,0.53999996,0.82,66,5,2.5440001,0.87100005,-2.39,-0.171,5.0617285,0,nan,0.0,0.0,0.0,0,4,1,1,1,31,0,0,0
858913735,0,37.4559296,126.9541764,174.37,192.827,1725534497899869,11141125,0.397,0.15907156,1.0830001,1.756,0.53999996,0.82,66,5,2.5500002,0.83000004,-2.411,-0.209,5.0438476,0,nan,0.0,0.0,0.0,0,4,1,1,1,31,0,0,0
859021717,0,37.4559304,126.95417379999999,174.372,192.829,1725534497999870,11141125,0.39800003,0.16949397,1.0830001,1.756,0.53999996,0.82,66,5,2.3960001,0.897,-2.2220001,-0.14400001,5.0962224,0,nan,0.0,0.0,0.0,0,4,1,1,1,31,0,0,0
859115764,0,37.455931199999995,126.9541713,174.375,192.832,1725534498099869,11141125,0.39400002,0.17601296,1.0830001,1.756,0.53999996,0.82,66,5,2.3000002,0.86300004,-2.1320002,-0.087000005,5.09687,0,nan,0.0,0.0,0.0,0,4,1,1,1,31,0,0,0
859215715,0,37.455931899999996,126.9541689,174.376,192.833,1725534498199869,11141125,0.395,0.18196121,1.0840001,1.756,0.53999996,0.82,66,5,2.193,0.711,-2.075,-0.019000001,5.04276,0,nan,0.0,0.0,0.0,0,4,1,1,1,31,0,0,0
859308715,0,37.455932499999996,126.9541666,174.364,192.821,1725534498299869,11141125,0.395,0.19074424,1.0840001,1.756,0.53999996,0.82,66,5,2.082,0.786,-1.9280001,0.022000002,5.099262,0,nan,0.0,0.0,0.0,0,4,1,1,1,31,0,0,0
859415714,0,37.4559332,126.95416449999999,174.368,192.824,1725534498399869,11141125,0.393,0.20120104,1.0840001,1.7550001,0.53999996,0.82,66,5,1.9640001,0.71400005,-1.83,0.020000001,5.0842237,0,nan,0.0,0.0,0.0,0,4,1,1,1,31,0,0,0
859513715,0,37.4559338,126.9541624,174.37800000000001,192.835,1725534498499869,11141125,0.39600003,0.2145006,1.0840001,1.7550001,0.53999996,0.82,66,5,1.8280001,0.642,-1.7120001,0.057000004,5.071135,0,nan,0.0,0.0,0.0,0,4,1,1,1,31,0,0,0
859614814,0,37.4559344,126.9541605,174.394,192.851,1725534498599869,11141125,0.39600003,0.236978,1.0840001,1.7550001,0.53999996,0.82,66,5,1.6840001,0.633,-1.5600001,0.014,5.0979567,0,nan,0.0,0.0,0.0,0,4,1,1,1,31,0,0,0
859715745,0,37.455935,126.95415879999999,174.394,192.851,1725534498699869,11141125,0.397,0.26021272,1.0840001,1.7550001,0.53999996,0.82,66,5,1.5640001,0.563,-1.4590001,-0.062000003,5.0805798,0,nan,0.0,0.0,0.0,0,4,1,1,1,31,0,0,0
859814713,0,37.455935499999995,126.9541572,174.403,192.859,1725534498799869,11141125,0.39900002,0.28170258,1.0840001,1.756,0.53999996,0.82,66,7,1.427,0.59000003,-1.299,-0.134,5.1383634,0,nan,0.0,0.0,0.0,0,4,1,1,1,31,0,0,0
859913747,0,37.455936,126.9541558,174.41,192.867,1725534498899869,11141125,0.39200002,0.3120935,1.085,1.756,0.53999996,0.82,66,7,1.297,0.53300005,-1.1830001,-0.193,5.1357713,0,nan,0.0,0.0,0.0,0,4,1,1,1,31,0,0,0
860021762,0,37.4559365,126.9541545,174.43,192.886,1725534498999870,11141125,0.39000002,0.32985604,1.085,1.756,0.53999996,0.82,66,7,1.2270001,0.507,-1.1170001,-0.19800001,5.13861,0,nan,0.0,0.0,0.0,0,4,1,1,1,31,0,0,0
860115714,0,37.4559369,126.9541532,174.43800000000002,192.894,1725534499099869,11141125,0.38700002,0.3749892,1.085,1.756,0.53999996,0.82,66,7,1.0610001,0.35900003,-0.998,-0.164,5.0573745,0,nan,0.0,0.0,0.0,0,4,1,1,1,31,0,0,0
860207760,0,37.4559372,126.9541522,174.437,192.893,1725534499199869,11141125,0.38500002,0.42811984,1.085,1.756,0.53999996,0.82,66,7,0.93100005,0.37100002,-0.85300004,-0.096,5.122889,0,nan,0.0,0.0,0.0,0,4,1,1,1,31,0,0,0
860315076,0,37.4559375,126.95415109999999,174.447,192.903,1725534499299869,11141125,0.39000002,0.44892347,1.085,1.756,0.53999996,0.82,66,7,0.896,0.32700002,-0.83400005,-0.069000006,5.0865116,0,nan,0.0,0.0,0.0,0,4,1,1,1,31,0,0,0
860415718,0,37.4559378,126.95415009999999,174.439,192.89600000000002,1725534499399869,11141125,0.388,0.43491843,1.085,1.756,0.53999996,0.82,66,7,0.91400003,0.328,-0.85300004,-0.018000001,5.079556,0,nan,0.0,0.0,0.0,0,4,1,1,1,31,0,0,0
860513738,0,37.4559381,126.9541491,174.447,192.903,1725534499499869,11141125,0.393,0.4346875,1.085,1.756,0.53999996,0.82,66,7,0.94400007,0.33400002,-0.883,-0.071,5.0741386,0,nan,0.0,0.0,0.0,0,4,1,1,1,31,0,0,0
860613715,0,37.4559384,126.95414799999999,174.434,192.89000000000001,1725534499599869,11141125,0.38700002,0.4382288,1.085,1.756,0.53999996,0.82,66,7,0.90000004,0.24300002,-0.86700004,-0.07,4.985881,0,nan,0.0,0.0,0.0,0,4,1,1,1,31,0,0,0
860714714,0,37.455938599999996,126.95414699999999,174.443,192.899,1725534499699869,11141125,0.388,0.4329956,1.085,1.756,0.53999996,0.82,66,7,0.9110001,0.30600002,-0.85800004,-0.010000001,5.0555115,0,nan,0.0,0.0,0.0,0,4,1,1,1,31,0,0,0
860812715,0,37.4559389,126.954146,174.443,192.899,1725534499799869,11141125,0.39000002,0.46937537,1.085,1.756,0.53999996,0.82,66,5,0.84700006,0.26200002,-0.80600005,0.006,5.0267863,0,nan,0.0,0.0,0.0,0,4,1,1,1,31,0,0,0
860912715,0,37.455939199999996,126.954145,174.423,192.88,1725534499899869,11141125,0.39100003,0.44617245,1.085,1.756,0.53999996,0.82,66,5,0.89500004,0.38900003,-0.80600005,0.023000002,5.1621923,0,nan,0.0,0.0,0.0,0,4,1,1,1,31,0,0,0
861021716,0,37.4559396,126.9541441,174.427,192.88400000000001,1725534499999870,11141125,0.38900003,0.46005428,1.085,1.756,0.53999996,0.82,66,5,0.873,0.462,-0.74,-0.030000001,5.2701535,0,nan,0.0,0.0,0.0,0,4,1,1,1,31,0,0,0
861108716,0,37.4559401,126.9541433,174.41400000000002,192.87,1725534500099869,11141125,0.38700002,0.4577358,1.085,1.7550001,0.53999996,0.82,66,5,0.89000005,0.63900006,-0.62,-0.049000002,5.5130873,0,nan,0.0,0.0,0.0,0,4,1,1,1,31,0,0,0
861214714,0,37.4559408,126.9541426,174.429,192.886,1725534500199868,11141125,0.388,0.43761545,1.085,1.7550001,0.53999996,0.82,66,5,0.933,0.753,-0.551,-0.086,5.6513085,0,nan,0.0,0.0,0.0,0,4,1,1,1,31,0,0,0
861314715,0,37.455941599999996,126.9541421,174.433,192.89000000000001,1725534500299868,11141125,0.39800003,0.3875104,1.085,1.7550001,0.53999996,0.82,66,5,1.044,0.96400005,-0.39900002,-0.039,5.8910556,0,nan,0.0,0.0,0.0,0,4,1,1,1,31,0,0,0
861412714,0,37.4559425,126.9541417,174.437,192.894,1725534500399868,11141125,0.42800003,0.36481485,1.0860001,1.7550001,0.53999996,0.82,66,5,1.1240001,1.088,-0.28300002,-0.038000003,6.028279,0,nan,0.0,0.0,0.0,0,4,1,1,1,31,0,0,0
861512715,0,37.4559437,126.9541414,174.442,192.898,1725534500499868,11141125,0.43300003,0.30688158,1.0860001,1.7550001,0.53999996,0.82,66,5,1.3280001,1.3240001,-0.106000006,-0.019000001,6.202919,0,nan,0.0,0.0,0.0,0,4,1,1,1,31,0,0,0
861612717,0,37.455945,126.9541414,174.449,192.906,1725534500599868,11141125,0.43,0.25945836,1.087,1.7540001,0.53999996,0.82,66,5,1.549,1.5480001,0.064,0.011000001,0.041342307,0,nan,0.0,0.0,0.0,0,4,1,1,1,31,0,0,0
861713716,0,37.455946499999996,126.95414149999999,174.451,192.90800000000002,1725534500699868,11141125,0.42900002,0.23517475,1.087,1.7540001,0.53999996,0.82,66,5,1.702,1.695,0.15400001,0.036000002,0.09065972,0,nan,0.0,0.0,0.0,0,4,1,1,1,31,0,0,0
861812716,0,37.4559482,126.9541417,174.466,192.922,1725534500799868,11141125,0.42600003,0.20331113,1.087,1.7530001,0.53999996,0.82,66,5,1.9690001,1.9490001,0.28,-0.025,0.1425173,0,nan,0.0,0.0,0.0,0,4,1,1,1,31,0,0,0
861913714,0,37.455950099999995,126.95414199999999,174.481,192.93800000000002,1725534500899868,11141125,0.42800003,0.18282986,1.088,1.7530001,0.53999996,0.82,66,5,2.2210002,2.1920002,0.36100003,-0.149,0.16322424,0,nan,0.0,0.0,0.0,0,4,1,1,1,31,0,0,0
862013716,0,37.4559523,126.95414249999999,174.486,192.943,1725534500999869,11141125,0.42700002,0.15505888,1.088,1.7530001,0.53999996,0.82,66,5,2.5900002,2.549,0.45900002,-0.15400001,0.17800404,0,nan,0.0,0.0,0.0,0,4,1,1,1,31,0,0,0
862112716,0,37.4559547,126.9541431,174.483,192.939,1725534501099868,11141125,0.42600003,0.14007908,1.0890001,1.7520001,0.53999996,0.82,66,5,2.821,2.753,0.614,-0.09200001,0.21934931,0,nan,0.0,0.0,0.0,0,4,1,1,1,31,0,0,0
862211715,0,37.455957399999996,126.95414369999999,174.476,192.93200000000002,1725534501199868,11141125,0.432,0.124442145,1.0890001,1.751,0.53999996,0.82,66,5,3.1690001,3.1050003,0.633,-0.018000001,0.20118584,0,nan,0.0,0.0,0.0,0,4,1,1,1,31,0,0,0
862310715,0,37.455960399999995,126.9541445,174.472,192.929,1725534501299868,11141125,0.432,0.11435449,1.09,1.7500001,0.53999996,0.82,66,5,3.4670002,3.3920002,0.716,0.047000002,0.20808774,0,nan,0.0,0.0,0.0,0,4,1,1,1,31,0,0,0
862410715,0,37.4559637,126.95414509999999,174.465,192.921,1725534501399868,11141125,0.42800003,0.10479986,1.09,1.7490001,0.53999996,0.82,66,5,3.7100003,3.657,0.62600005,0.081,0.16945209,0,nan,0.0,0.0,0.0,0,4,1,1,1,31,0,0,0
862511804,0,37.455967099999995,126.95414579999999,174.45000000000002,192.907,1725534501499868,11141125,0.42200002,0.098568335,1.09,1.748,0.53999996,0.82,66,5,3.946,3.8920002,0.64900005,0.021000002,0.1652146,0,nan,0.0,0.0,0.0,0,4,1,1,1,31,0,0,0
862612730,0,37.455970799999996,126.9541465,174.44,192.897,1725534501599868,11141125,0.42400002,0.09157236,1.09,1.746,0.53999996,0.82,66,5,4.249,4.1980004,0.65500003,0.019000001,0.15469429,0,nan,0.0,0.0,0.0,0,4,1,1,1,31,0,0,0
862713714,0,37.4559748,126.9541471,174.441,192.897,1725534501699868,11141125,0.42000002,0.08405453,1.0910001,1.7450001,0.53999996,0.82,66,5,4.565,4.525,0.59800005,0.035,0.13140653,0,nan,0.0,0.0,0.0,0,4,1,1,1,31,0,0,0
862812722,0,37.4559789,126.9541478,174.43,192.886,1725534501799868,11141125,0.41700003,0.08069372,1.0910001,1.7440001,0.53999996,0.82,66,5,4.701,4.651,0.68600005,0.066,0.14648199,0,nan,0.0,0.0,0.0,0,4,1,1,1,31,0,0,0
862906714,0,37.4559831,126.95414849999999,174.413,192.87,1725534501899868,11141125,0.41400003,0.08075551,1.0910001,1.743,0.53999996,0.82,66,5,4.697,4.657,0.61700004,0.086,0.13181633,0,nan,0.0,0.0,0.0,0,4,1,1,1,31,0,0,0
863021715,0,37.4559875,126.95414919999999,174.398,192.854,1725534501999869,11141125,0.41200003,0.077024,1.0910001,1.7420001,0.53999996,0.82,66,5,4.958,4.9170003,0.638,0.128,0.12894544,0,nan,0.0,0.0,0.0,0,4,1,1,1,31,0,0,0
863118714,0,37.455991999999995,126.9541498,174.389,192.846,1725534502099868,11141125,0.41400003,0.078186385,1.092,1.741,0.53999996,0.82,66,5,4.9740005,4.945,0.537,0.094000004,0.10814653,0,nan,0.0,0.0,0.0,0,4,1,1,1,31,0,0,0
863213715,0,37.4559964,126.9541503,174.389,192.846,1725534502199868,11141125,0.40600002,0.07989157,1.092,1.741,0.53999996,0.82,66,5,4.9880004,4.9630003,0.507,0.062000003,0.10182058,0,nan,0.0,0.0,0.0,0,4,1,1,1,31,0,0,0
863317713,0,37.4560009,126.95415089999999,174.381,192.838,1725534502299868,11141125,0.40300003,0.079461,1.092,1.7400001,0.53999996,0.82,66,5,4.9940004,4.9610004,0.573,0.041,0.114940576,0,nan,0.0,0.0,0.0,0,4,1,1,1,31,0,0,0
863415714,0,37.4560053,126.9541515,174.373,192.829,1725534502399868,11141125,0.40500003,0.08043681,1.092,1.7400001,0.53999996,0.82,66,5,4.918,4.8780003,0.619,0.049000002,0.12626567,0,nan,0.0,0.0,0.0,0,4,1,1,1,31,0,0,0
863513906,0,37.456009699999996,126.95415209999999,174.374,192.83100000000002,1725534502499868,11141125,0.402,0.08072322,1.092,1.7400001,0.53999996,0.82,66,5,4.938,4.9040003,0.582,0.074,0.118181996,0,nan,0.0,0.0,0.0,0,4,1,1,1,31,0,0,0
863613854,0,37.4560142,126.95415279999999,174.347,192.804,1725534502599868,11141125,0.39900002,0.079239346,1.092,1.7390001,0.53999996,0.82,66,5,4.98,4.939,0.63500005,0.080000006,0.12795706,0,nan,0.0,0.0,0.0,0,4,1,1,1,31,0,0,0
863716718,0,37.4560186,126.9541536,174.33700000000002,192.794,1725534502699868,11141125,0.39900002,0.07885711,1.092,1.7390001,0.53999996,0.82,66,5,4.953,4.899,0.731,0.016,0.14812033,0,nan,0.0,0.0,0.0,0,4,1,1,1,31,0,0,0
863808828,0,37.456023,126.9541544,174.326,192.782,1725534502799868,11141125,0.402,0.08146428,1.092,1.7390001,0.53999996,0.82,66,7,4.914,4.86,0.73,-0.007,0.1490279,0,nan,0.0,0.0,0.0,0,4,1,1,1,31,0,0,0
863914717,0,37.456027299999995,126.95415519999999,174.328,192.784,1725534502899867,11141125,0.39600003,0.080839634,1.093,1.738,0.53999996,0.82,66,7,4.887,4.813,0.84800005,0.002,0.17443973,0,nan,0.0,0.0,0.0,0,4,1,1,1,31,0,0,0
864023714,0,37.4560317,126.95415609999999,174.328,192.784,1725534502999868,11141125,0.40500003,0.080638394,1.093,1.738,0.53999996,0.82,66,7,4.947,4.8770003,0.83300006,0.010000001,0.16918732,0,nan,0.0,0.0,0.0,0,4,1,1,1,31,0,0,0
864113714,0,37.4560361,126.954157,174.31,192.767,1725534503099867,11141125,0.40500003,0.07961197,1.093,1.7370001,0.53999996,0.82,66,7,4.993,4.9230003,0.832,0.043,0.16750711,0,nan,0.0,0.0,0.0,0,4,1,1,1,31,0,0,0
864216715,0,37.4560406,126.9541579,174.309,192.766,1725534503199867,11141125,0.404,0.080676794,1.093,1.7370001,0.53999996,0.82,66,7,4.958,4.8840003,0.85300004,0.033,0.17294328,0,nan,0.0,0.0,0.0,0,4,1,1,1,31,0,0,0
864314716,0,37.456044899999995,126.95415879999999,174.31,192.766,1725534503299867,11141125,0.41200003,0.08213938,1.0940001,1.7370001,0.53999996,0.82,66,7,4.886,4.827,0.758,0.052,0.15567324,0,nan,0.0,0.0,0.0,0,4,1,1,1,31,0,0,0
864413716,0,37.4560493,126.95415949999999,174.322,192.778,1725534503399867,11141125,0.416,0.082424395,1.0940001,1.7370001,0.53999996,0.82,66,7,4.901,4.842,0.757,-0.038000003,0.15519379,0,nan,0.0,0.0,0.0,0,4,1,1,1,31,0,0,0
864515876,0,37.4560536,126.9541603,174.339,192.796,1725534503499867,11141125,0.411,0.08362257,1.0940001,1.7370001,0.53999996,0.82,66,7,4.8630004,4.806,0.73700005,-0.053000003,0.15205832,0,nan,0.0,0.0,0.0,0,4,1,1,1,31,0,0,0
864617801,0,37.456058,126.954161,174.32,192.77700000000002,1725534503599867,11141125,0.409,0.081467606,1.095,1.7370001,0.53999996,0.82,66,7,4.932,4.892,0.63100004,-0.019000001,0.12824348,0,nan,0.0,0.0,0.0,0,4,1,1,1,31,0,0,0
864709714,0,37.4560624,126.95416159999999,174.334,192.791,1725534503699867,11141125,0.41000003,0.08113983,1.095,1.7370001,0.53999996,0.82,66,7,4.926,4.894,0.56100005,-0.089,0.11417124,0,nan,0.0,0.0,0.0,0,4,1,1,1,31,0,0,0
864814732,0,37.456066799999995,126.9541622,174.351,192.80700000000002,1725534503799867,11141125,0.41200003,0.08075481,1.095,1.7370001,0.53999996,0.82,66,10,4.951,4.9230003,0.52900004,-0.082,0.107058495,0,nan,0.0,0.0,0.0,0,4,1,1,1,31,0,0,0
864916715,0,37.4560713,126.9541627,174.363,192.82,1725534503899867,11141125,0.41400003,0.080145165,1.095,1.7370001,0.53999996,0.82,66,10,5.0480003,5.019,0.54300004,-0.095000006,0.10786449,0,nan,0.0,0.0,0.0,0,4,1,1,1,31,0,0,0
865022715,0,37.4560758,126.95416329999999,174.372,192.829,1725534503999868,11141125,0.41300002,0.07995912,1.0960001,1.738,0.53999996,0.82,66,10,5.012,4.984,0.52900004,-0.074,0.105717205,0,nan,0.0,0.0,0.0,0,4,1,1,1,31,0,0,0
865119633,0,37.456080199999995,126.9541639,174.368,192.82500000000002,1725534504099867,11141125,0.41200003,0.08094156,1.0960001,1.738,0.53999996,0.82,66,10,4.964,4.934,0.54200006,-0.072000004,0.10938519,0,nan,0.0,0.0,0.0,0,4,1,1,1,31,0,0,0
865215714,0,37.4560847,126.95416449999999,174.376,192.833,1725534504199867,11141125,0.41000003,0.08049825,1.0960001,1.738,0.53999996,0.82,66,10,4.958,4.9230003,0.588,-0.10700001,0.11896059,0,nan,0.0,0.0,0.0,0,4,1,1,1,31,0,0,0
865314839,0,37.4560891,126.9541649,174.40800000000002,192.865,1725534504299867,11141125,0.41500002,0.08148767,1.097,1.738,0.53999996,0.82,66,10,4.912,4.894,0.42800003,-0.075,0.087226495,0,nan,0.0,0.0,0.0,0,4,1,1,1,31,0,0,0
865416742,0,37.4560935,126.9541654,174.423,192.879,1725534504399867,11141125,0.41700003,0.0805438,1.097,1.738,0.53999996,0.82,66,10,4.9350004,4.9160004,0.42800003,-0.053000003,0.08684741,0,nan,0.0,0.0,0.0,0,4,1,1,1,31,0,0,0
865515718,0,37.456098,126.9541658,174.428,192.885,1725534504499867,11141125,0.411,0.07884716,1.097,1.738,0.53999996,0.82,66,10,4.985,4.966,0.439,-0.019000001,0.08815448,0,nan,0.0,0.0,0.0,0,4,1,1,1,31,0,0,0
865609059,0,37.4561024,126.95416619999999,174.428,192.88400000000001,1725534504599867,11141125,0.41500002,0.08266053,1.098,1.738,0.53999996,0.82,66,10,4.8630004,4.84,0.47300002,0.034,0.097360045,0,nan,0.0,0.0,0.0,0,4,1,1,1,31,0,0,0
865715716,0,37.4561068,126.9541668,174.429,192.886,1725534504699867,11141125,0.418,0.08129604,1.098,1.738,0.53999996,0.82,66,10,4.966,4.9350004,0.56,-0.027,0.11296451,0,nan,0.0,0.0,0.0,0,4,1,1,1,31,0,0,0
865817091,0,37.456111199999995,126.9541673,174.434,192.891,1725534504799867,11141125,0.41400003,0.08192994,1.098,1.738,0.53999996,0.82,66,10,4.907,4.886,0.44900003,-0.07,0.09172472,0,nan,0.0,0.0,0.0,0,4,1,1,1,31,0,0,0
865914715,0,37.4561156,126.9541677,174.448,192.905,1725534504899867,11141125,0.41200003,0.08071973,1.0990001,1.738,0.53999996,0.82,66,10,4.907,4.885,0.46500003,-0.097,0.094833516,0,nan,0.0,0.0,0.0,0,4,1,1,1,31,0,0,0
866023713,0,37.4561201,126.9541682,174.449,192.906,1725534504999868,11141125,0.41000003,0.079682656,1.0990001,1.738,0.53999996,0.82,66,10,4.9550004,4.9350004,0.453,-0.09200001,0.09150447,0,nan,0.0,0.0,0.0,0,4,1,1,1,31,0,0,0
866116718,0,37.4561245,126.9541687,174.44,192.897,1725534505099867,11141125,0.407,0.07874192,1.0990001,1.738,0.53999996,0.82,66,10,4.9820004,4.9540005,0.528,-0.093,0.10609402,0,nan,0.0,0.0,0.0,0,4,1,1,1,31,0,0,0
866212715,0,37.456128899999996,126.9541692,174.455,192.911,1725534505199867,11141125,0.41000003,0.08083946,1.0990001,1.7370001,0.53999996,0.82,66,10,4.8640003,4.8320003,0.558,-0.074,0.114945635,0,nan,0.0,0.0,0.0,0,4,1,1,1,31,0,0,0
866313840,0,37.4561333,126.95416979999999,174.455,192.912,1725534505299867,11141125,0.411,0.080270134,1.1,1.7370001,0.53999996,0.82,66,10,4.9420004,4.9090004,0.57000005,-0.033,0.115539744,0,nan,0.0,0.0,0.0,0,4,1,1,1,31,0,0,0
866413714,0,37.4561378,126.95417049999999,174.458,192.915,1725534505399867,11141125,0.40500003,0.07850298,1.1,1.7370001,0.53999996,0.82,66,10,5.025,4.98,0.67300004,-0.040000003,0.13441844,0,nan,0.0,0.0,0.0,0,4,1,1,1,31,0,0,0
866507715,0,37.456142199999995,126.95417119999999,174.465,192.922,1725534505499867,11141125,0.41200003,0.079575315,1.1,1.7370001,0.53999996,0.82,66,10,4.9680004,4.907,0.77500004,-0.007,0.15658309,0,nan,0.0,0.0,0.0,0,4,1,1,1,31,0,0,0
866613860,0,37.4561466,126.9541721,174.464,192.92000000000002,1725534505599866,11141125,0.41500002,0.08144579,1.1,1.7370001,0.53999996,0.82,66,10,4.977,4.9150004,0.78700006,0.003,0.1587314,0,nan,0.0,0.0,0.0,0,4,1,1,1,31,0,0,0
866714714,0,37.456151,126.95417289999999,174.461,192.918,1725534505699866,11141125,0.40800002,0.083438426,1.1010001,1.7370001,0.53999996,0.82,66,10,4.8690004,4.8100004,0.758,-0.034,0.15634014,0,nan,0.0,0.0,0.0,0,4,1,1,1,31,0,0,0
866812714,0,37.4561553,126.9541737,174.473,192.93,1725534505799866,11141125,0.40800002,0.08286526,1.1010001,1.7370001,0.53999996,0.82,66,6,4.901,4.8450003,0.744,-0.040000003,0.15242779,0,nan,0.0,0.0,0.0,0,4,1,1,1,31,0,0,0
866913722,0,37.4561596,126.9541745,174.486,192.943,1725534505899866,11141125,0.40500003,0.08412539,1.1010001,1.7370001,0.53999996,0.82,66,6,4.7970004,4.742,0.72300005,-0.081,0.15132965,0,nan,0.0,0.0,0.0,0,4,1,1,1,31,0,0,0
867021715,0,37.4561638,126.95417529999999,174.49,192.947,1725534505999867,11141125,0.404,0.088485226,1.1010001,1.738,0.53999996,0.82,66,6,4.6280003,4.57,0.72800004,-0.14500001,0.15788214,0,nan,0.0,0.0,0.0,0,4,1,1,1,31,0,0,0
867113717,0,37.456167799999996,126.95417599999999,174.497,192.954,1725534506099866,11141125,0.40500003,0.09108402,1.1010001,1.738,0.53999996,0.82,66,6,4.4880004,4.4440002,0.63100004,-0.142,0.14114302,0,nan,0.0,0.0,0.0,0,4,1,1,1,31,0,0,0
867214737,0,37.4561717,126.95417669999999,174.513,192.969,1725534506199866,11141125,0.40500003,0.09427186,1.1010001,1.7390001,0.53999996,0.82,66,6,4.3250003,4.2780004,0.634,-0.143,0.14718325,0,nan,0.0,0.0,0.0,0,4,1,1,1,31,0,0,0
867318715,0,37.4561755,126.9541773,174.522,192.978,1725534506299866,11141125,0.39800003,0.09991783,1.1010001,1.7390001,0.53999996,0.82,66,6,4.1000004,4.065,0.535,-0.117000006,0.13075395,0,nan,0.0,0.0,0.0,0,4,1,1,1,31,0,0,0
867410388,0,37.4561791,126.95417789999999,174.537,192.993,1725534506399866,11141125,0.39400002,0.101298906,1.1010001,1.7400001,0.53999996,0.82,66,6,3.9670002,3.9240003,0.583,-0.18200001,0.14755729,0,nan,0.0,0.0,0.0,0,4,1,1,1,31,0,0,0
867514715,0,37.4561825,126.95417859999999,174.522,192.979,1725534506499866,11141125,0.388,0.10474698,1.1,1.7400001,0.53999996,0.82,66,6,3.798,3.736,0.684,-0.127,0.18102641,0,nan,0.0,0.0,0.0,0,4,1,1,1,31,0,0,0
867615714,0,37.4561858,126.95417929999999,174.52700000000002,192.984,1725534506599866,11141125,0.4,0.108090326,1.1,1.741,0.53999996,0.82,66,6,3.716,3.653,0.684,-0.106000006,0.1850707,0,nan,0.0,0.0,0.0,0,4,1,1,1,31,0,0,0
867713716,0,37.456189099999996,126.95418,174.53300000000002,192.99,1725534506699866,11141125,0.4,0.110565215,1.1,1.741,0.53999996,0.82,66,6,3.663,3.6100001,0.62,-0.15200001,0.17008564,0,nan,0.0,0.0,0.0,0,4,1,1,1,31,0,0,0
867814895,0,37.4561922,126.9541807,174.534,192.991,1725534506799866,11141125,0.404,0.11854206,1.1,1.741,0.53999996,0.82,66,7,3.44,3.381,0.63900006,-0.042000003,0.18673207,0,nan,0.0,0.0,0.0,0,4,1,1,1,31,0,0,0
867914717,0,37.456195199999996,126.95418129999999,174.535,192.992,1725534506899866,11141125,0.407,0.12513435,1.1,1.7420001,0.53999996,0.82,66,7,3.262,3.209,0.58900005,-0.008,0.181431,0,nan,0.0,0.0,0.0,0,4,1,1,1,31,0,0,0
868020752,0,37.456198,126.9541819,174.538,192.995,1725534506999867,11141125,0.41000003,0.12988496,1.1010001,1.743,0.53999996,0.82,66,7,3.1550002,3.1050003,0.56200004,0.032,0.17910185,0,nan,0.0,0.0,0.0,0,4,1,1,1,31,0,0,0
868112715,0,37.4562008,126.95418249999999,174.54,192.996,1725534507099866,11141125,0.40800002,0.13364823,1.1010001,1.7440001,0.53999996,0.82,66,7,3.0790002,3.0210001,0.59300005,0.011000001,0.19385633,0,nan,0.0,0.0,0.0,0,4,1,1,1,31,0,0,0
868210714,0,37.4562034,126.9541831,174.53,192.987,1725534507199866,11141125,0.39600003,0.14398825,1.1010001,1.7440001,0.53999996,0.82,66,7,2.8590002,2.8130002,0.512,0.017,0.18014939,0,nan,0.0,0.0,0.0,0,4,1,1,1,31,0,0,0
868310714,0,37.4562059,126.9541836,174.531,192.988,1725534507299866,11141125,0.40100002,0.15368444,1.1,1.746,0.53999996,0.82,66,7,2.713,2.673,0.462,-0.004,0.17100526,0,nan,0.0,0.0,0.0,0,4,1,1,1,31,0,0,0
868417716,0,37.4562082,126.954184,174.54,192.997,1725534507399866,11141125,0.4,0.16301933,1.1,1.7470001,0.53999996,0.82,66,7,2.5300002,2.493,0.42900002,-0.076000005,0.17035513,0,nan,0.0,0.0,0.0,0,4,1,1,1,31,0,0,0
868518718,0,37.456210399999996,126.95418439999999,174.543,193.0,1725534507499866,11141125,0.41000003,0.17924216,1.1010001,1.748,0.53999996,0.82,66,7,2.3030002,2.276,0.35500002,-0.109000005,0.15454838,0,nan,0.0,0.0,0.0,0,4,1,1,1,31,0,0,0
868617847,0,37.4562123,126.9541847,174.522,192.978,1725534507599866,11141125,0.409,0.19606802,1.1010001,1.7490001,0.53999996,0.82,66,7,2.094,2.075,0.282,0.009000001,0.13521361,0,nan,0.0,0.0,0.0,0,4,1,1,1,31,0,0,0
868719714,0,37.4562141,126.954185,174.517,192.97400000000002,1725534507699866,11141125,0.39900002,0.2128101,1.1010001,1.7500001,0.53999996,0.82,66,7,1.9260001,1.9130001,0.224,-0.003,0.11655082,0,nan,0.0,0.0,0.0,0,4,1,1,1,31,0,0,0
868817747,0,37.456215799999995,126.95418509999999,174.513,192.97,1725534507799866,11141125,0.39900002,0.2403992,1.1010001,1.751,0.53999996,0.82,66,6,1.7060001,1.6990001,0.16100001,-0.059000004,0.09458201,0,nan,0.0,0.0,0.0,0,4,1,1,1,31,0,0,0
868916774,0,37.4562172,126.9541852,174.512,192.969,1725534507899866,11141125,0.39600003,0.2594704,1.1010001,1.7520001,0.53999996,0.82,66,6,1.5890001,1.5840001,0.13100001,-0.089,0.082645,0,nan,0.0,0.0,0.0,0,4,1,1,1,31,0,0,0
869025726,0,37.4562186,126.9541854,174.502,192.959,1725534507999867,11141125,0.395,0.2884769,1.1,1.7530001,0.53999996,0.82,66,6,1.4180001,1.4080001,0.16800001,-0.09,0.118763715,0,nan,0.0,0.0,0.0,0,4,1,1,1,31,0,0,0
869124717,0,37.4562198,126.9541855,174.498,192.954,1725534508099866,11141125,0.393,0.32254627,1.1,1.7540001,0.53999996,0.82,66,6,1.261,1.2540001,0.135,-0.039,0.10687663,0,nan,0.0,0.0,0.0,0,4,1,1,1,31,0,0,0
869210906,0,37.4562209,126.95418559999999,174.488,192.94400000000002,1725534508199866,11141125,0.39400002,0.3474434,1.1,1.7550001,0.53999996,0.82,66,6,1.169,1.1630001,0.11400001,0.020000001,0.097585544,0,nan,0.0,0.0,0.0,0,4,1,1,1,31,0,0,0
869318715,0,37.456221899999996,126.9541855,174.488,192.945,1725534508299865,11141125,0.39600003,0.41392717,1.1,1.7570001,0.53999996,0.82,66,6,0.97700006,0.97700006,0.021000002,0.072000004,0.021035232,0,nan,0.0,0.0,0.0,0,4,1,1,1,31,0,0,0
869417715,0,37.4562226,126.9541855,174.50300000000001,192.959,1725534508399865,11141125,0.39400002,0.51558,1.1,1.7570001,0.53999996,0.82,66,6,0.77500004,0.767,0.115,0.024,0.148601,0,nan,0.0,0.0,0.0,0,4,1,1,1,31,0,0,0
869515717,0,37.4562233,126.95418559999999,174.493,192.95000000000002,1725534508499865,11141125,0.39400002,0.55228394,1.0990001,1.7590001,0.53999996,0.82,66,6,0.72900003,0.72700006,0.054,-0.039,0.07370909,0,nan,0.0,0.0,0.0,0,4,1,1,1,31,0,0,0
869613871,0,37.456224,126.9541855,174.51,192.967,1725534508599865,11141125,0.393,0.6379817,1.0990001,1.7600001,0.53999996,0.82,66,6,0.637,0.63600004,-0.036000002,-0.063,6.227175,0,nan,0.0,0.0,0.0,0,4,1,1,1,31,0,0,0
869713715,0,37.4562245,126.95418529999999,174.513,192.969,1725534508699865,11141125,0.39600003,0.74837536,1.0990001,1.761,0.53999996,0.82,66,6,0.545,0.536,-0.1,-0.019000001,6.099223,0,nan,0.0,0.0,0.0,0,4,1,1,1,31,0,0,0
869815716,0,37.456224999999996,126.95418509999999,174.52100000000002,192.978,1725534508799865,11141125,0.39800003,0.7471517,1.0990001,1.7620001,0.53999996,0.82,66,6,0.55300003,0.54200006,-0.112,-0.043,6.07967,0,nan,0.0,0.0,0.0,0,4,1,1,1,31,0,0,0
869917717,0,37.456225499999995,126.9541849,174.529,192.986,1725534508899865,11141125,0.39600003,0.8449763,1.0990001,1.7630001,0.53999996,0.82,66,6,0.48800004,0.483,-0.065000005,-0.093,6.1502075,0,nan,0.0,0.0,0.0,0,4,1,1,1,31,0,0,0
870025730,0,37.4562259,126.9541848,174.53,192.986,1725534508999866,11141125,0.40500003,0.84033537,1.0990001,1.7630001,0.53999996,0.82,66,6,0.48600003,0.48100004,-0.065000005,-0.082,6.1502075,0,nan,0.0,0.0,0.0,0,4,1,1,1,31,0,0,0
870109770,0,37.4562263,126.95418459999999,174.55700000000002,193.014,1725534509099865,11141125,0.4,0.9288141,1.1,1.764,0.53999996,0.82,66,6,0.43800002,0.42600003,-0.101,-0.126,6.1502075,0,nan,0.0,0.0,0.0,0,4,1,1,1,31,0,0,0
870215574,0,37.456226799999996,126.95418439999999,174.585,193.041,1725534509199865,11141125,0.40600002,0.78970563,1.1,1.7650001,0.53999996,0.82,66,6,0.514,0.509,-0.067,-0.128,6.1502075,0,nan,0.0,0.0,0.0,0,4,1,1,1,31,0,0,0
870314948,0,37.4562272,126.9541843,174.579,193.036,1725534509299865,11141125,0.411,0.88668084,1.1,1.7650001,0.53999996,0.82,66,6,0.45400003,0.45400003,-0.004,-0.053000003,6.1502075,0,nan,0.0,0.0,0.0,0,4,1,1,1,31,0,0,0
870415714,0,37.4562277,126.9541842,174.585,193.042,1725534509399865,11141125,0.41500002,0.7996972,1.1,1.766,0.53999996,0.82,66,6,0.51100004,0.51100004,0.003,-0.026,6.1502075,0,nan,0.0,0.0,0.0,0,4,1,1,1,31,0,0,0
870513713,0,37.4562281,126.9541842,174.584,193.041,1725534509499865,11141125,0.41300002,0.8871166,1.1010001,1.766,0.53999996,0.82,66,6,0.46,0.455,0.066,0.008,6.1502075,0,nan,0.0,0.0,0.0,0,4,1,1,1,31,0,0,0
870612715,0,37.4562285,126.9541843,174.592,193.049,1725534509599865,11141125,0.40300003,0.77194047,1.1010001,1.7670001,0.53999996,0.82,66,6,0.52900004,0.507,0.15100001,-0.074,0.28954244,0,nan,0.0,0.0,0.0,0,4,1,1,1,31,0,0,0
870715715,0,37.456229,126.95418439999999,174.589,193.046,1725534509699865,11141125,0.404,0.7552484,1.1010001,1.7670001,0.53999996,0.82,66,6,0.54,0.532,0.09200001,-0.07700001,0.17190236,0,nan,0.0,0.0,0.0,0,4,1,1,1,31,0,0,0
870815713,0,37.4562295,126.95418439999999,174.584,193.041,1725534509799865,11141125,0.40300003,0.8145314,1.1010001,1.7670001,0.53999996,0.82,66,5,0.499,0.49300003,0.07700001,-0.071,0.12275512,0,nan,0.0,0.0,0.0,0,4,1,1,1,31,0,0,0
870915714,0,37.45623,126.9541845,174.583,193.03900000000002,1725534509899865,11141125,0.40500003,0.68202734,1.1010001,1.7670001,0.53999996,0.82,66,5,0.59400004,0.57900006,0.133,-0.007,0.22596323,0,nan,0.0,0.0,0.0,0,4,1,1,1,31,0,0,0
871014737,0,37.4562305,126.9541845,174.597,193.053,1725534509999866,11141125,0.40300003,0.68962824,1.1010001,1.7670001,0.53999996,0.82,66,5,0.57900006,0.569,0.11000001,-0.016,0.19049151,0,nan,0.0,0.0,0.0,0,4,1,1,1,31,0,0,0
871116717,0,37.456230999999995,126.9541845,174.613,193.07,1725534510099865,11141125,0.411,0.69731593,1.1010001,1.7670001,0.53999996,0.82,66,5,0.572,0.564,0.101,-0.05,0.17687148,0,nan,0.0,0.0,0.0,0,4,1,1,1,31,0,0,0
871216886,0,37.4562315,126.95418459999999,174.605,193.062,1725534510199865,11141125,0.404,0.68456715,1.1010001,1.7670001,0.53999996,0.82,66,5,0.586,0.578,0.094000004,-0.042000003,0.16164698,0,nan,0.0,0.0,0.0,0,4,1,1,1,31,0,0,0
871315852,0,37.4562321,126.95418459999999,174.601,193.058,1725534510299865,11141125,0.404,0.6562611,1.1010001,1.7670001,0.53999996,0.82,66,5,0.609,0.605,0.063,-0.07300001,0.1034207,0,nan,0.0,0.0,0.0,0,4,1,1,1,31,0,0,0
871417714,0,37.4562327,126.95418459999999,174.598,193.055,1725534510399865,11141125,0.40600002,0.61418396,1.1010001,1.7670001,0.53999996,0.82,66,5,0.64400005,0.63900006,0.075,0.008,0.11751581,0,nan,0.0,0.0,0.0,0,4,1,1,1,31,0,0,0
871517714,0,37.4562333,126.9541845,174.585,193.042,1725534510499865,11141125,0.41500002,0.63826966,1.1010001,1.7670001,0.53999996,0.82,66,5,0.61800003,0.614,-0.068,0.033,6.1723423,0,nan,0.0,0.0,0.0,0,4,1,1,1,31,0,0,0
871615716,0,37.4562339,126.95418439999999,174.584,193.04,1725534510599865,11141125,0.409,0.6155331,1.1010001,1.7670001,0.53999996,0.82,66,5,0.64500004,0.64500004,0.001,0.034,0.001330639,0,nan,0.0,0.0,0.0,0,4,1,1,1,31,0,0,0
871715766,0,37.4562344,126.95418439999999,174.597,193.053,1725534510699865,11141125,0.39900002,0.6911664,1.1010001,1.7670001,0.53999996,0.82,66,5,0.57500005,0.56100005,0.126,-0.045,0.22000712,0,nan,0.0,0.0,0.0,0,4,1,1,1,31,0,0,0
871813715,0,37.456235,126.9541845,174.584,193.041,1725534510799865,11141125,0.395,0.58707637,1.1010001,1.7670001,0.53999996,0.82,66,7,0.67700005,0.65500003,0.16900001,-0.069000006,0.25241196,0,nan,0.0,0.0,0.0,0,4,1,1,1,31,0,0,0
871906714,0,37.4562356,126.9541847,174.58,193.036,1725534510899865,11141125,0.39600003,0.6331386,1.1010001,1.766,0.53999996,0.82,66,7,0.62,0.58100003,0.21700001,-0.014,0.3581562,0,nan,0.0,0.0,0.0,0,4,1,1,1,30,0,0,0
872018812,0,37.456236,126.9541849,174.586,193.043,1725534510999865,11141125,0.39000002,0.7834933,1.1010001,1.766,0.56,0.88,66,7,0.512,0.42900002,0.28100002,0.018000001,0.57953256,0,nan,0.0,0.0,0.0,0,4,1,1,1,30,0,0,0
872112716,0,37.456236499999996,126.95418509999999,174.59,193.047,1725534511099864,11141125,0.393,0.7184707,1.1,1.766,0.56,0.88,66,7,0.549,0.507,0.21200001,0.078,0.39642203,0,nan,0.0,0.0,0.0,0,4,1,1,1,30,0,0,0
872211718,0,37.4562369,126.9541852,174.58700000000002,193.044,1725534511199864,11141125,0.38500002,0.92769706,1.1,1.7650001,0.56,0.88,66,7,0.42100003,0.40300003,0.12200001,0.095000006,0.3937501,0,nan,0.0,0.0,0.0,0,4,1,1,1,30,0,0,0
872313717,0,37.4562373,126.95418529999999,174.586,193.043,1725534511299864,11141125,0.38200003,0.80427575,1.0990001,1.7650001,0.56,0.88,66,7,0.483,0.45900002,0.149,0.052,0.3937501,0,nan,0.0,0.0,0.0,0,4,1,1,1,30,0,0,0
872412716,0,37.456237699999996,126.9541854,174.58700000000002,193.043,1725534511399864,11141125,0.38000003,0.8007256,1.0990001,1.764,0.56,0.88,66,7,0.48400003,0.45600003,0.163,-0.020000001,0.3937501,0,nan,0.0,0.0,0.0,0,4,1,1,1,30,0,0,0
872511716,0,37.4562381,126.9541855,174.614,193.071,1725534511499864,11141125,0.37500003,0.8902711,1.098,1.7630001,0.56,0.88,66,7,0.43500003,0.40600002,0.155,-0.07,0.3937501,0,nan,0.0,0.0,0.0,0,4,1,1,1,30,0,0,0
872613854,0,37.4562385,126.9541857,174.623,193.08,1725534511599864,11141125,0.36900002,0.8108653,1.098,1.7630001,0.56,0.88,66,7,0.47500002,0.41900003,0.224,-0.080000006,0.3937501,0,nan,0.0,0.0,0.0,0,4,1,1,1,30,0,0,0
872713762,0,37.456238899999995,126.95418579999999,174.616,193.073,1725534511699864,11141125,0.37100002,0.94706905,1.097,1.7620001,0.56,0.88,66,7,0.40300003,0.36600003,0.17,0.019000001,0.3937501,0,nan,0.0,0.0,0.0,0,4,1,1,1,30,0,0,0
872806714,0,37.4562392,126.9541859,174.619,193.07500000000002,1725534511799864,11141125,0.374,1.0894907,1.0960001,1.761,0.56,0.88,66,4,0.35300002,0.32700002,0.134,-0.022000002,0.3937501,0,nan,0.0,0.0,0.0,0,4,1,1,1,30,0,0,0
872912714,0,37.456239499999995,126.95418599999999,174.615,193.072,1725534511899864,11141125,0.36200002,1.1429627,1.0960001,1.7600001,0.56,0.88,66,4,0.33900002,0.282,0.18800001,0.065000005,0.3937501,0,nan,0.0,0.0,0.0,0,4,1,1,1,30,0,0,0
873022791,0,37.4562398,126.9541861,174.607,193.064,1725534511999865,11141125,0.372,1.3907807,1.095,1.7590001,0.56,0.88,66,4,0.275,0.25300002,0.108,0.058000002,0.3937501,0,nan,0.0,0.0,0.0,0,4,1,1,1,30,0,0,0
873119748,0,37.45624,126.9541862,174.615,193.072,1725534512099864,11141125,0.374,1.4759341,1.095,1.7580001,0.56,0.88,66,4,0.257,0.23900001,0.094000004,-0.028,0.3937501,0,nan,0.0,0.0,0.0,0,4,1,1,1,30,0,0,0
873216749,0,37.4562403,126.9541862,174.629,193.086,1725534512199864,11141125,0.377,1.4648322,1.0940001,1.7570001,0.56,0.88,66,4,0.25300002,0.24700001,0.053000003,-0.040000003,0.3937501,0,nan,0.0,0.0,0.0,0,4,1,1,1,30,0,0,0
873318714,0,37.4562405,126.95418629999999,174.632,193.088,1725534512299864,11141125,0.37100002,1.2639074,1.093,1.756,0.56,0.88,66,4,0.303,0.23900001,0.186,-0.046000004,0.3937501,0,nan,0.0,0.0,0.0,0,4,1,1,1,30,0,0,0
873415717,0,37.456240699999995,126.95418649999999,174.63,193.08700000000002,1725534512399864,11141125,0.374,1.465414,1.093,1.7550001,0.56,0.88,66,4,0.259,0.231,0.117000006,-0.004,0.3937501,0,nan,0.0,0.0,0.0,0,4,1,1,1,30,0,0,0
