timestamp,timestamp_sample,latitude_deg,longitude_deg,altitude_msl_m,altitude_ellipsoid_m,time_utc_usec,device_id,s_variance_m_s,c_variance_rad,eph,epv,hdop,vdop,noise_per_ms,jamming_indicator,vel_m_s,vel_n_m_s,vel_e_m_s,vel_d_m_s,cog_rad,timestamp_time_relative,heading,heading_offset,heading_accuracy,rtcm_injection_rate,automatic_gain_control,fix_type,jamming_state,spoofing_state,vel_ned_valid,satellites_used,selected_rtcm_instance,rtcm_crc_failed,rtcm_msg_used
28313727,0,37.455917299999996,126.95418679999999,170.929,189.385,1725533227700488,11141125,0.136,2.4977903,0.45900002,0.822,0.63,0.98999995,79,4,0.049000002,0.010000001,0.048,-0.016,0.0,0,nan,0.0,0.0,0.0,0,3,1,1,1,28,0,0,0
28415721,0,37.455917299999996,126.95418679999999,170.929,189.386,1725533227800488,11141125,0.17500001,3.1415925,0.45900002,0.82100004,0.63,0.98999995,79,4,0.014,0.008,0.011000001,0.044000003,0.0,0,nan,0.0,0.0,0.0,0,3,1,1,1,28,0,0,0
28515801,0,37.455917299999996,126.95418679999999,170.92000000000002,189.377,1725533227900488,11141125,0.157,3.1415925,0.45800003,0.82000005,0.63,0.98999995,79,4,0.028,0.025,0.013,0.008,0.0,0,nan,0.0,0.0,0.0,0,3,1,1,1,28,0,0,0
28617861,0,37.455917299999996,126.95418679999999,170.924,189.38,1725533228000488,11141125,0.15,3.1415925,0.45800003,0.81900007,0.63,0.98999995,79,4,0.031000001,0.018000001,0.026,-0.003,0.0,0,nan,0.0,0.0,0.0,0,3,1,1,1,28,0,0,0
28720712,0,37.455917299999996,126.95418679999999,170.919,189.376,1725533228100488,11141125,0.15200001,3.1415925,0.45700002,0.818,0.63,0.98999995,79,4,0.032,-0.021000002,-0.023000002,0.002,0.0,0,nan,0.0,0.0,0.0,0,3,1,1,1,28,0,0,0
28819713,0,37.455917299999996,126.95418679999999,170.928,189.38400000000001,1725533228200488,11141125,0.133,3.1415925,0.45700002,0.81700003,0.63,0.98999995,79,5,0.040000003,0.0050000004,0.040000003,-0.008,0.0,0,nan,0.0,0.0,0.0,0,3,1,1,1,28,0,0,0
28919721,0,37.455917299999996,126.95418679999999,170.928,189.385,1725533228300488,11141125,0.12200001,3.1415925,0.45600003,0.81600004,0.63,0.98999995,79,5,0.034,0.031000001,-0.013,0.011000001,0.0,0,nan,0.0,0.0,0.0,0,3,1,1,1,28,0,0,0
29021719,0,37.4559172,126.95418679999999,170.923,189.38,1725533228400488,11141125,0.133,3.1415925,0.45600003,0.81600004,0.63,0.98999995,79,5,0.031000001,-0.031000001,0.001,0.014,0.0,0,nan,0.0,0.0,0.0,0,3,1,1,1,28,0,0,0
29115715,0,37.4559172,126.95418679999999,170.921,189.37800000000001,1725533228500488,11141125,0.164,1.9671128,0.455,0.81500006,0.63,0.98999995,79,5,0.053000003,0.043,0.032,0.025,0.0,0,nan,0.0,0.0,0.0,0,3,1,1,1,28,0,0,0
29217712,0,37.4559172,126.95418679999999,170.92000000000002,189.377,1725533228600488,11141125,0.132,3.1415925,0.455,0.814,0.63,0.98999995,79,5,0.021000002,-0.001,-0.021000002,0.013,0.0,0,nan,0.0,0.0,0.0,0,3,1,1,1,28,0,0,0
29318713,0,37.4559172,126.9541867,170.915,189.372,1725533228700488,11141125,0.16600001,3.1415925,0.45400003,0.813,0.63,0.98999995,79,5,0.018000001,0.010000001,0.015000001,0.010000001,0.0,0,nan,0.0,0.0,0.0,0,3,1,1,1,28,0,0,0
29415714,0,37.4559172,126.9541867,170.92000000000002,189.377,1725533228800488,11141125,0.162,3.1415925,0.45400003,0.81200004,0.63,0.98999995,79,5,0.010000001,0.003,-0.010000001,-0.017,0.0,0,nan,0.0,0.0,0.0,0,3,1,1,1,28,0,0,0
29510715,0,37.4559172,126.9541867,170.915,189.371,1725533228900488,11141125,0.163,3.1415925,0.453,0.81000006,0.63,0.98999995,79,5,0.020000001,0.0050000004,0.019000001,0.019000001,0.0,0,nan,0.0,0.0,0.0,0,3,1,1,1,28,0,0,0
29624713,0,37.4559172,126.9541867,170.922,189.379,1725533229000488,11141125,0.165,3.1415925,0.45200002,0.809,0.63,0.98999995,79,5,0.016,-0.016,-0.001,-0.027,0.0,0,nan,0.0,0.0,0.0,0,3,1,1,1,28,0,0,0
29720720,0,37.4559172,126.9541867,170.916,189.373,1725533229100488,11141125,0.14600001,3.1415925,0.45200002,0.808,0.63,0.98999995,79,5,0.027,0.006,-0.026,-0.020000001,0.0,0,nan,0.0,0.0,0.0,0,3,1,1,1,28,0,0,0
29815712,0,37.4559171,126.9541867,170.91400000000002,189.371,1725533229200488,11141125,0.10300001,3.1415925,0.45100003,0.80700004,0.63,0.98999995,79,4,0.047000002,-0.031000001,0.036000002,0.001,0.0,0,nan,0.0,0.0,0.0,0,3,1,1,1,28,0,0,0
29915742,0,37.4559171,126.9541867,170.912,189.369,1725533229300488,11141125,0.15,3.1415925,0.45100003,0.80600005,0.63,0.98999995,79,4,0.014,-0.013,0.003,0.018000001,0.0,0,nan,0.0,0.0,0.0,0,3,1,1,1,28,0,0,0
30014715,0,37.4559171,126.9541867,170.909,189.366,1725533229400488,11141125,0.15400001,3.1415925,0.45000002,0.80500007,0.63,0.98999995,79,4,0.033,-0.010000001,-0.032,0.060000002,0.0,0,nan,0.0,0.0,0.0,0,3,1,1,1,28,0,0,0
30114712,0,37.4559171,126.9541867,170.9,189.357,1725533229500488,11141125,0.15,3.1415925,0.45000002,0.804,0.63,0.98999995,79,4,0.007,0.007,-0.002,0.010000001,0.0,0,nan,0.0,0.0,0.0,0,3,1,1,1,28,0,0,0
30215722,0,37.4559171,126.9541867,170.905,189.362,1725533229600488,11141125,0.15900001,2.595773,0.44900003,0.80300003,0.63,0.98999995,79,4,0.046000004,0.012,0.044000003,0.032,0.0,0,nan,0.0,0.0,0.0,0,3,1,1,1,28,0,0,0
30316715,0,37.4559171,126.9541866,170.909,189.366,1725533229700488,11141125,0.15,3.1415925,0.44900003,0.80200005,0.63,0.98999995,79,4,0.033,0.028,-0.016,0.042000003,0.0,0,nan,0.0,0.0,0.0,0,3,1,1,1,28,0,0,0
30413004,0,37.4559171,126.9541866,170.90200000000002,189.359,1725533229800488,11141125,0.141,3.1415925,0.448,0.80100006,0.63,0.98999995,79,4,0.024,-0.021000002,0.013,0.024,0.0,0,nan,0.0,0.0,0.0,0,3,1,1,1,28,0,0,0
30517316,0,37.455917,126.9541866,170.903,189.359,1725533229900488,11141125,0.148,3.1415925,0.44700003,0.8,0.63,0.98999995,79,4,0.027,-0.020000001,-0.017,0.020000001,0.0,0,nan,0.0,0.0,0.0,0,3,1,1,1,28,0,0,0
30624726,0,37.455917,126.9541866,170.897,189.354,1725533230000488,11141125,0.15300001,3.1415925,0.44700003,0.799,0.63,0.98999995,79,4,0.034,0.031000001,0.013,-0.044000003,0.0,0,nan,0.0,0.0,0.0,0,3,1,1,1,28,0,0,0
30725712,0,37.455917,126.9541866,170.897,189.353,1725533230100488,11141125,0.117000006,3.1415925,0.446,0.799,0.63,0.98999995,79,4,0.003,0.0,-0.003,0.0,0.0,0,nan,0.0,0.0,0.0,0,3,1,1,1,28,0,0,0
30818711,0,37.455917,126.9541866,170.897,189.354,1725533230200487,11141125,0.172,3.1415925,0.446,0.79800004,0.63,0.98999995,79,5,0.007,0.006,0.004,0.025,0.0,0,nan,0.0,0.0,0.0,0,3,1,1,1,28,0,0,0
30915715,0,37.455917,126.9541866,170.893,189.35,1725533230300487,11141125,0.109000005,3.1415925,0.44500002,0.79700005,0.63,0.98999995,79,5,0.029000001,-0.023000002,0.017,0.0050000004,0.0,0,nan,0.0,0.0,0.0,0,3,1,1,1,28,0,0,0
31013964,0,37.455917,126.9541866,170.893,189.35,1725533230400487,11141125,0.16700001,3.1415925,0.44500002,0.79600006,0.63,0.98999995,79,5,0.018000001,0.016,0.008,0.016,0.0,0,nan,0.0,0.0,0.0,0,3,1,1,1,28,0,0,0
31113713,0,37.455917,126.9541866,170.89600000000002,189.353,1725533230500487,11141125,0.123,3.1415925,0.44400004,0.795,0.63,0.98999995,79,5,0.024,0.0050000004,-0.024,0.011000001,0.0,0,nan,0.0,0.0,0.0,0,3,1,1,1,28,0,0,0
31214742,0,37.4559169,126.95418649999999,170.889,189.346,1725533230600487,11141125,0.163,3.1415925,0.44400004,0.794,0.63,0.98999995,79,5,0.015000001,-0.015000001,-0.002,-0.016,0.0,0,nan,0.0,0.0,0.0,0,3,1,1,1,28,0,0,0
31308712,0,37.4559169,126.95418649999999,170.883,189.34,1725533230700487,11141125,0.115,3.1415925,0.44300002,0.79300004,0.63,0.98999995,79,5,0.032,-0.030000001,0.012,-0.004,0.0,0,nan,0.0,0.0,0.0,0,3,1,1,1,28,0,0,0
31414712,0,37.4559169,126.95418649999999,170.876,189.332,1725533230800487,11141125,0.16600001,3.1415925,0.44300002,0.79200006,0.63,0.98999995,79,5,0.024,0.024,-0.003,0.049000002,0.0,0,nan,0.0,0.0,0.0,0,3,1,1,1,28,0,0,0
31513712,0,37.4559169,126.95418649999999,170.869,189.326,1725533230900487,11141125,0.158,3.1415925,0.44200003,0.79200006,0.63,0.98999995,79,5,0.026,0.001,0.026,0.023000002,0.0,0,nan,0.0,0.0,0.0,0,3,1,1,1,28,0,0,0
31620712,0,37.4559169,126.95418649999999,170.87,189.327,1725533231000487,11141125,0.147,3.1415925,0.44200003,0.791,0.63,0.98999995,79,5,0.018000001,-0.009000001,-0.016,0.001,0.0,0,nan,0.0,0.0,0.0,0,3,1,1,1,28,0,0,0
31714713,0,37.4559169,126.95418649999999,170.863,189.32,1725533231100487,11141125,0.162,3.1415925,0.44200003,0.79,0.63,0.98999995,79,5,0.018000001,0.012,0.014,0.008,0.0,0,nan,0.0,0.0,0.0,0,3,1,1,1,28,0,0,0
31814714,0,37.4559169,126.95418649999999,170.861,189.318,1725533231200487,11141125,0.14,3.1415925,0.441,0.78900003,0.63,0.98999995,79,4,0.013,-0.002,0.012,-0.014,0.0,0,nan,0.0,0.0,0.0,0,3,1,1,1,28,0,0,0
31913710,0,37.4559169,126.95418649999999,170.866,189.323,1725533231300487,11141125,0.158,3.1395009,0.441,0.78800005,0.63,0.98999995,79,4,0.038000003,0.038000003,0.007,0.029000001,0.0,0,nan,0.0,0.0,0.0,0,3,1,1,1,28,0,0,0
32014738,0,37.4559169,126.95418649999999,170.863,189.32,1725533231400487,11141125,0.108,3.1415925,0.44000003,0.78700006,0.63,0.98999995,79,4,0.012,-0.008,0.009000001,-0.003,0.0,0,nan,0.0,0.0,0.0,0,3,1,1,1,28,0,0,0
32113715,0,37.4559168,126.95418649999999,170.858,189.314,1725533231500487,11141125,0.133,3.1415925,0.44000003,0.78700006,0.63,0.98999995,79,4,0.017,-0.004,0.016,-0.014,0.0,0,nan,0.0,0.0,0.0,0,3,1,1,1,28,0,0,0
32208940,0,37.4559168,126.95418649999999,170.863,189.32,1725533231600487,11141125,0.17400001,3.1415925,0.439,0.786,0.63,0.98999995,79,4,0.015000001,0.011000001,0.010000001,0.023000002,0.0,0,nan,0.0,0.0,0.0,0,3,1,1,1,28,0,0,0
32313729,0,37.4559168,126.95418649999999,170.86,189.317,1725533231700487,11141125,0.14,3.1415925,0.439,0.785,0.63,0.98999995,79,4,0.024,0.020000001,-0.013,0.023000002,0.0,0,nan,0.0,0.0,0.0,0,3,1,1,1,28,0,0,0
32412712,0,37.4559168,126.9541864,170.86,189.317,1725533231800487,11141125,0.149,2.4507406,0.439,0.785,0.63,0.98999995,79,4,0.044000003,-0.038000003,-0.021000002,0.003,0.0,0,nan,0.0,0.0,0.0,0,3,1,1,1,28,0,0,0
32512769,0,37.4559168,126.9541864,170.857,189.314,1725533231900487,11141125,0.163,3.1415925,0.43800002,0.78400004,0.63,0.98999995,79,4,0.012,0.012,0.0,-0.037,0.0,0,nan,0.0,0.0,0.0,0,3,1,1,1,28,0,0,0
32623713,0,37.4559168,126.9541864,170.852,189.309,1725533232000487,11141125,0.13700001,3.1415925,0.43800002,0.78300005,0.63,0.98999995,79,4,0.027,0.007,0.026,-0.009000001,0.0,0,nan,0.0,0.0,0.0,0,3,1,1,1,28,0,0,0
32719712,0,37.455916699999996,126.9541864,170.848,189.305,1725533232100487,11141125,0.14,3.1415925,0.437,0.78300005,0.63,0.98999995,79,4,0.014,-0.0050000004,-0.013,0.004,0.0,0,nan,0.0,0.0,0.0,0,3,1,1,1,28,0,0,0
32814719,0,37.455916699999996,126.9541864,170.85,189.30700000000002,1725533232200487,11141125,0.163,3.1415925,0.437,0.78200006,0.63,0.98999995,79,4,0.019000001,-0.015000001,-0.012,-0.008,0.0,0,nan,0.0,0.0,0.0,0,3,1,1,1,28,0,0,0
32913825,0,37.455916699999996,126.9541864,170.847,189.304,1725533232300487,11141125,0.15,3.1415925,0.437,0.781,0.63,0.98999995,79,4,0.020000001,-0.017,-0.011000001,0.001,0.0,0,nan,0.0,0.0,0.0,0,3,1,1,1,28,0,0,0
33012712,0,37.455916699999996,126.9541864,170.84300000000002,189.299,1725533232400487,11141125,0.172,2.6390443,0.43600002,0.781,0.63,0.98999995,79,4,0.039,0.027,0.028,0.039,0.0,0,nan,0.0,0.0,0.0,0,3,1,1,1,28,0,0,0
33109224,0,37.455916699999996,126.95418629999999,170.844,189.30100000000002,1725533232500487,11141125,0.15200001,3.1415925,0.43600002,0.78000003,0.63,0.98999995,79,4,0.016,-0.013,-0.010000001,0.022000002,0.0,0,nan,0.0,0.0,0.0,0,3,1,1,1,28,0,0,0
33213715,0,37.455916599999995,126.95418629999999,170.83700000000002,189.294,1725533232600487,11141125,0.14,3.1415925,0.43600002,0.77900004,0.63,0.98999995,79,4,0.030000001,-0.029000001,-0.0050000004,0.018000001,0.0,0,nan,0.0,0.0,0.0,0,3,1,1,1,28,0,0,0
33312715,0,37.455916599999995,126.95418629999999,170.83700000000002,189.294,1725533232700487,11141125,0.15300001,3.1415925,0.43500003,0.77800006,0.63,0.98999995,79,4,0.014,0.009000001,-0.011000001,0.025,0.0,0,nan,0.0,0.0,0.0,0,3,1,1,1,28,0,0,0
33412715,0,37.455916599999995,126.95418629999999,170.836,189.293,1725533232800487,11141125,0.16900001,3.1415925,0.43500003,0.77800006,0.63,0.98999995,79,4,0.027,0.009000001,0.026,0.030000001,0.0,0,nan,0.0,0.0,0.0,0,3,1,1,1,28,0,0,0
33513714,0,37.455916599999995,126.95418629999999,170.83,189.287,1725533232900487,11141125,0.142,3.1415925,0.43500003,0.777,0.63,0.98999995,79,4,0.036000002,-0.013,-0.034,0.025,0.0,0,nan,0.0,0.0,0.0,0,3,1,1,1,28,0,0,0
33622712,0,37.455916599999995,126.9541862,170.835,189.292,1725533233000486,11141125,0.156,2.5881305,0.43400002,0.777,0.63,0.98999995,79,4,0.041,0.026,0.031000001,0.0050000004,0.0,0,nan,0.0,0.0,0.0,0,3,1,1,1,28,0,0,0
33717713,0,37.4559165,126.95418629999999,170.829,189.286,1725533233100486,11141125,0.158,3.1415925,0.43400002,0.776,0.63,0.98999995,79,4,0.028,-0.013,0.025,0.039,0.0,0,nan,0.0,0.0,0.0,0,3,1,1,1,28,0,0,0
33815712,0,37.4559165,126.95418629999999,170.827,189.284,1725533233200486,11141125,0.12900001,3.1415925,0.43400002,0.77500004,0.63,0.98999995,79,6,0.009000001,-0.004,0.008,0.008,0.0,0,nan,0.0,0.0,0.0,0,3,1,1,1,28,0,0,0
33912758,0,37.4559165,126.9541862,170.834,189.291,1725533233300486,11141125,0.15200001,2.573305,0.43300003,0.77500004,0.63,0.98999995,79,6,0.041,-0.031000001,-0.026,0.003,0.0,0,nan,0.0,0.0,0.0,0,3,1,1,1,28,0,0,0
34008712,0,37.4559165,126.9541862,170.833,189.29,1725533233400486,11141125,0.15900001,3.1415925,0.43300003,0.77400005,0.63,0.98999995,79,6,0.024,0.021000002,-0.010000001,0.039,0.0,0,nan,0.0,0.0,0.0,0,3,1,1,1,28,0,0,0
34114711,0,37.4559165,126.9541862,170.828,189.284,1725533233500486,11141125,0.15300001,2.1599429,0.43300003,0.77400005,0.63,0.98999995,79,6,0.049000002,0.037,0.031000001,0.004,0.0,0,nan,0.0,0.0,0.0,0,3,1,1,1,28,0,0,0
34212715,0,37.4559165,126.9541862,170.821,189.278,1725533233600486,11141125,0.147,3.1415925,0.432,0.77300006,0.63,0.98999995,79,6,0.014,-0.007,0.012,0.014,0.0,0,nan,0.0,0.0,0.0,0,3,1,1,1,28,0,0,0
34312712,0,37.4559165,126.9541862,170.817,189.273,1725533233700486,11141125,0.142,3.1415925,0.432,0.772,0.63,0.98999995,79,6,0.024,0.024,-0.002,-0.020000001,0.0,0,nan,0.0,0.0,0.0,0,3,1,1,1,28,0,0,0
34415164,0,37.4559165,126.9541862,170.823,189.28,1725533233800486,11141125,0.14600001,3.1415925,0.43100002,0.772,0.63,0.98999995,79,6,0.009000001,-0.008,-0.0050000004,0.006,0.0,0,nan,0.0,0.0,0.0,0,3,1,1,1,28,0,0,0
34512711,0,37.4559164,126.9541862,170.818,189.274,1725533233900486,11141125,0.156,3.1415925,0.43100002,0.771,0.63,0.98999995,79,6,0.024,0.013,0.020000001,0.006,0.0,0,nan,0.0,0.0,0.0,0,3,1,1,1,28,0,0,0
34619714,0,37.4559164,126.9541862,170.80700000000002,189.264,1725533234000486,11141125,0.13900001,3.1415925,0.43100002,0.77000004,0.63,0.98999995,79,6,0.018000001,-0.018000001,0.002,0.013,0.0,0,nan,0.0,0.0,0.0,0,3,1,1,1,28,0,0,0
34717055,0,37.4559164,126.9541862,170.809,189.266,1725533234100486,11141125,0.164,3.1415925,0.43,0.77000004,0.63,0.98999995,79,6,0.019000001,0.013,0.014,0.011000001,0.0,0,nan,0.0,0.0,0.0,0,3,1,1,1,28,0,0,0
34816713,0,37.4559164,126.9541862,170.806,189.263,1725533234200486,11141125,0.14500001,3.1415925,0.43,0.76900005,0.63,0.98999995,79,5,0.015000001,0.014,-0.0050000004,0.013,0.0,0,nan,0.0,0.0,0.0,0,3,1,1,1,28,0,0,0
34913853,0,37.4559164,126.9541862,170.802,189.25900000000001,1725533234300486,11141125,0.149,3.1415925,0.43,0.768,0.63,0.98999995,79,5,0.015000001,-0.015000001,0.002,0.019000001,0.0,0,nan,0.0,0.0,0.0,0,3,1,1,1,28,0,0,0
35016726,0,37.4559164,126.9541862,170.802,189.25900000000001,1725533234400486,11141125,0.16900001,2.8476267,0.42900002,0.767,0.63,0.98999995,79,5,0.040000003,0.014,0.038000003,0.057000004,0.0,0,nan,0.0,0.0,0.0,0,3,1,1,1,28,0,0,0
35115712,0,37.4559164,126.9541862,170.792,189.249,1725533234500486,11141125,0.127,3.1415925,0.42900002,0.767,0.63,0.98999995,79,5,0.012,0.012,-0.004,-0.006,0.0,0,nan,0.0,0.0,0.0,0,3,1,1,1,28,0,0,0
35215715,0,37.4559164,126.9541861,170.799,189.256,1725533234600486,11141125,0.12200001,3.1415925,0.42800003,0.76600003,0.63,0.98999995,79,5,0.027,-0.003,0.027,-0.001,0.0,0,nan,0.0,0.0,0.0,0,3,1,1,1,28,0,0,0
35315729,0,37.4559163,126.9541862,170.794,189.251,1725533234700486,11141125,0.16000001,3.1415925,0.42800003,0.76500005,0.63,0.98999995,79,5,0.028,-0.021000002,0.018000001,0.057000004,0.0,0,nan,0.0,0.0,0.0,0,3,1,1,1,28,0,0,0
35415712,0,37.4559163,126.9541861,170.787,189.244,1725533234800486,11141125,0.127,3.1415925,0.42800003,0.76500005,0.63,0.98999995,79,5,0.029000001,0.016,-0.024,0.021000002,0.0,0,nan,0.0,0.0,0.0,0,3,1,1,1,28,0,0,0
35514730,0,37.4559163,126.9541861,170.791,189.248,1725533234900486,11141125,0.14500001,3.1415925,0.42700002,0.76400006,0.63,0.98999995,79,5,0.030000001,-0.029000001,0.0050000004,-0.022000002,0.0,0,nan,0.0,0.0,0.0,0,3,1,1,1,28,0,0,0
35623712,0,37.4559163,126.9541861,170.78300000000002,189.24,1725533235000486,11141125,0.14500001,3.1415925,0.42700002,0.763,0.63,0.98999995,79,5,0.020000001,-0.014,0.013,-0.025,0.0,0,nan,0.0,0.0,0.0,0,3,1,1,1,28,0,0,0
35721714,0,37.4559163,126.9541861,170.782,189.238,1725533235100486,11141125,0.126,3.1415925,0.42700002,0.763,0.63,0.98999995,79,5,0.028,0.002,-0.028,0.014,0.0,0,nan,0.0,0.0,0.0,0,3,1,1,1,28,0,0,0
35810278,0,37.4559163,126.9541861,170.786,189.242,1725533235200486,11141125,0.15200001,3.1415925,0.42600003,0.762,0.63,0.98999995,79,4,0.006,0.006,0.002,0.0050000004,0.0,0,nan,0.0,0.0,0.0,0,3,1,1,1,28,0,0,0
35915715,0,37.4559162,126.95418599999999,170.785,189.241,1725533235300486,11141125,0.157,3.1415925,0.42600003,0.76100004,0.63,0.98999995,79,4,0.015000001,-0.011000001,0.010000001,-0.030000001,0.0,0,nan,0.0,0.0,0.0,0,3,1,1,1,28,0,0,0
36014711,0,37.4559162,126.95418599999999,170.78300000000002,189.239,1725533235400486,11141125,0.17600001,3.1415925,0.42600003,0.76100004,0.63,0.98999995,79,4,0.032,-0.016,-0.028,-0.051000003,0.0,0,nan,0.0,0.0,0.0,0,3,1,1,1,28,0,0,0
36114712,0,37.4559162,126.95418599999999,170.781,189.238,1725533235500486,11141125,0.185,3.1415925,0.42600003,0.76100004,0.63,0.98999995,79,4,0.043,-0.011000001,-0.042000003,-0.058000002,0.0,0,nan,0.0,0.0,0.0,0,3,1,1,1,28,0,0,0
36215821,0,37.4559162,126.9541859,170.779,189.236,1725533235600486,11141125,0.172,3.1415925,0.42600003,0.76100004,0.63,0.98999995,79,4,0.0050000004,-0.0050000004,-0.002,0.039,0.0,0,nan,0.0,0.0,0.0,0,3,1,1,1,28,0,0,0
36314733,0,37.4559162,126.9541859,170.779,189.236,1725533235700486,11141125,0.16000001,3.1415925,0.42600003,0.76100004,0.63,0.98999995,79,4,0.020000001,0.020000001,-0.001,-0.027,0.0,0,nan,0.0,0.0,0.0,0,3,1,1,1,28,0,0,0
36414747,0,37.4559162,126.9541859,170.78900000000002,189.246,1725533235800485,11141125,0.164,2.1217372,0.42600003,0.76100004,0.63,0.98999995,79,4,0.060000002,0.029000001,0.052,-0.11000001,0.0,0,nan,0.0,0.0,0.0,0,3,1,1,1,28,0,0,0
36517713,0,37.4559162,126.95418599999999,170.793,189.25,1725533235900485,11141125,0.16000001,3.1415925,0.42600003,0.76100004,0.63,0.98999995,79,4,0.033,0.004,0.033,-0.053000003,0.0,0,nan,0.0,0.0,0.0,0,3,1,1,1,28,0,0,0
36622712,0,37.4559162,126.95418599999999,170.794,189.251,1725533236000485,11141125,0.16100001,1.8764925,0.42600003,0.76100004,0.63,0.98999995,79,4,0.065000005,0.034,0.056,-0.09200001,0.0,0,nan,0.0,0.0,0.0,0,3,1,1,1,28,0,0,0
36715715,0,37.4559162,126.9541861,170.808,189.264,1725533236100485,11141125,0.15100001,1.3022914,0.42600003,0.76000005,0.63,0.98999995,79,4,0.119,-0.012,0.11800001,-0.134,0.0,0,nan,0.0,0.0,0.0,0,3,1,1,1,28,0,0,0
36815713,0,37.4559162,126.9541862,170.822,189.279,1725533236200485,11141125,0.15200001,0.98490655,0.42600003,0.76100004,0.63,0.98999995,79,4,0.132,0.043,0.125,-0.096,0.0,0,nan,0.0,0.0,0.0,0,3,1,1,1,28,0,0,0
36913712,0,37.4559162,126.95418629999999,170.835,189.292,1725533236300485,11141125,0.17600001,1.8120573,0.42600003,0.76100004,0.63,0.98999995,79,4,0.068,0.033,0.059000004,-0.178,0.0,0,nan,0.0,0.0,0.0,0,3,1,1,1,28,0,0,0
37012713,0,37.4559162,126.95418629999999,170.85,189.30700000000002,1725533236400485,11141125,0.158,1.8317041,0.42600003,0.76100004,0.63,0.98999995,79,4,0.074,0.019000001,0.072000004,-0.052,0.0,0,nan,0.0,0.0,0.0,0,3,1,1,1,28,0,0,0
37113724,0,37.4559162,126.9541864,170.842,189.298,1725533236500485,11141125,0.18100001,3.1415925,0.42600003,0.76100004,0.63,0.98999995,79,4,0.048,-0.011000001,0.046000004,0.068,0.0,0,nan,0.0,0.0,0.0,0,3,1,1,1,28,0,0,0
37212712,0,37.455916099999996,126.95418629999999,170.835,189.291,1725533236600485,11141125,0.16600001,1.624183,0.42600003,0.76100004,0.63,0.98999995,79,4,0.07,-0.048,-0.051000003,0.11400001,0.0,0,nan,0.0,0.0,0.0,0,3,1,1,1,28,0,0,0
37312712,0,37.455916099999996,126.95418629999999,170.806,189.263,1725533236700485,11141125,0.171,1.3720098,0.42600003,0.76100004,0.63,0.98999995,79,4,0.083000004,-0.055000003,-0.062000003,0.208,0.0,0,nan,0.0,0.0,0.0,0,3,1,1,1,28,0,0,0
37414712,0,37.455915999999995,126.9541862,170.785,189.242,1725533236800485,11141125,0.17400001,3.1415925,0.42600003,0.76100004,0.63,0.98999995,79,4,0.033,-0.020000001,-0.026,0.12200001,0.0,0,nan,0.0,0.0,0.0,0,3,1,1,1,28,0,0,0
37513712,0,37.455915999999995,126.9541862,170.792,189.249,1725533236900485,11141125,0.18100001,3.1415925,0.42600003,0.76100004,0.63,0.98999995,79,4,0.017,0.014,-0.010000001,-0.1,0.0,0,nan,0.0,0.0,0.0,0,3,1,1,1,28,0,0,0
37615718,0,37.455915999999995,126.9541861,170.816,189.273,1725533237000485,11141125,0.185,3.1415925,0.42600003,0.762,0.63,0.98999995,79,4,0.018000001,-0.015000001,-0.009000001,-0.351,0.0,0,nan,0.0,0.0,0.0,0,3,1,1,1,28,0,0,0
37714715,0,37.455915999999995,126.9541861,170.846,189.303,1725533237100485,11141125,0.187,3.1415925,0.42600003,0.762,0.63,0.98999995,79,4,0.038000003,0.0,-0.038000003,-0.397,0.0,0,nan,0.0,0.0,0.0,0,3,1,1,1,28,0,0,0
37815747,0,37.455915999999995,126.9541861,170.88,189.33700000000002,1725533237200485,11141125,0.18400002,2.6722577,0.42600003,0.762,0.63,0.98999995,74,5,0.058000002,0.056,-0.014,-0.43400002,0.0,0,nan,0.0,0.0,0.0,0,3,1,1,1,28,0,0,0
37913713,0,37.455916099999996,126.95418599999999,170.965,189.422,1725533237300485,11141125,0.177,0.7019868,0.42600003,0.763,0.63,0.98999995,74,5,0.158,0.112,0.112,-0.569,0.78215027,0,nan,0.0,0.0,0.0,0,3,1,1,1,28,0,0,0
38011722,0,37.455916099999996,126.95418599999999,171.012,189.469,1725533237400485,11141125,0.18900001,1.1286643,0.42600003,0.763,0.63,0.98999995,74,5,0.113000005,-0.032,-0.108,-0.595,0.4938231,0,nan,0.0,0.0,0.0,0,3,1,1,1,28,0,0,0
38113790,0,37.455916099999996,126.95418599999999,171.06900000000002,189.525,1725533237500485,11141125,0.185,1.0299994,0.42600003,0.763,0.63,0.98999995,74,5,0.148,0.147,-0.009000001,-0.63900006,0.4938231,0,nan,0.0,0.0,0.0,0,3,1,1,1,28,0,0,0
38214644,0,37.4559162,126.95418579999999,171.153,189.61,1725533237600485,11141125,0.192,0.8628096,0.42600003,0.763,0.63,0.98999995,74,5,0.171,0.003,-0.171,-0.70500004,0.4938231,0,nan,0.0,0.0,0.0,0,3,1,1,1,28,0,0,0
38315713,0,37.4559162,126.95418559999999,171.225,189.681,1725533237700485,11141125,0.186,0.9412383,0.42600003,0.76400006,0.63,0.98999995,74,5,0.187,0.13800001,-0.126,-0.591,0.4938231,0,nan,0.0,0.0,0.0,0,3,1,1,1,28,0,0,0
38415174,0,37.4559163,126.9541855,171.251,189.708,1725533237800485,11141125,0.18800001,0.81123406,0.42600003,0.76400006,0.63,0.98999995,74,5,0.19900002,0.062000003,-0.18900001,-0.47200003,0.4938231,0,nan,0.0,0.0,0.0,0,3,1,1,1,28,0,0,0
38511255,0,37.4559165,126.95418529999999,171.31,189.767,1725533237900485,11141125,0.18200001,0.7638346,0.42600003,0.76400006,0.63,0.98999995,74,5,0.24800001,0.23,-0.093,-0.49100003,5.8975916,0,nan,0.0,0.0,0.0,0,3,1,1,1,28,0,0,0
38624899,0,37.455916599999995,126.95418509999999,171.362,189.818,1725533238000485,11141125,0.18800001,0.8927835,0.42600003,0.76500005,0.63,0.98999995,74,5,0.185,0.10300001,-0.15400001,-0.41300002,0.09110985,0,nan,0.0,0.0,0.0,0,3,1,1,1,28,0,0,0
38724772,0,37.455916699999996,126.954185,171.375,189.83100000000002,1725533238100485,11141125,0.18400002,0.8134311,0.42600003,0.76500005,0.63,0.98999995,74,5,0.18900001,0.18400002,-0.044000003,-0.39000002,0.09110985,0,nan,0.0,0.0,0.0,0,3,1,1,1,28,0,0,0
38815715,0,37.4559168,126.9541849,171.409,189.866,1725533238200485,11141125,0.19000001,0.73687524,0.42600003,0.76600003,0.63,0.98999995,74,3,0.21800001,0.091000006,-0.19800001,-0.404,5.142607,0,nan,0.0,0.0,0.0,0,3,1,1,1,28,0,0,0
38917097,0,37.455917,126.9541847,171.452,189.909,1725533238300485,11141125,0.172,0.5887763,0.42600003,0.76600003,0.63,0.98999995,74,3,0.268,0.261,-0.061000004,-0.316,6.052673,0,nan,0.0,0.0,0.0,0,3,1,1,1,28,0,0,0
39015712,0,37.4559171,126.95418459999999,171.491,189.948,1725533238400485,11141125,0.187,1.081423,0.42600003,0.76600003,0.63,0.98999995,74,3,0.149,0.11800001,-0.091000006,-0.30100003,5.929402,0,nan,0.0,0.0,0.0,0,3,1,1,1,28,0,0,0
39114713,0,37.455917299999996,126.9541845,171.525,189.981,1725533238500485,11141125,0.179,0.76021004,0.42600003,0.76600003,0.63,0.98999995,74,3,0.21400002,0.158,-0.14400001,-0.312,5.546663,0,nan,0.0,0.0,0.0,0,3,1,1,1,28,0,0,0
39216713,0,37.4559174,126.95418439999999,171.538,189.995,1725533238600484,11141125,0.164,0.67529094,0.42600003,0.767,0.63,0.98999995,74,3,0.23700002,0.22800002,-0.066,-0.24000001,6.000286,0,nan,0.0,0.0,0.0,0,3,1,1,1,28,0,0,0
39315713,0,37.4559177,126.9541843,171.567,190.023,1725533238700484,11141125,0.162,0.5432667,0.42600003,0.767,0.63,0.98999995,74,3,0.28300002,0.27800003,-0.054,-0.261,6.093047,0,nan,0.0,0.0,0.0,0,3,1,1,1,28,0,0,0
39410712,0,37.455917899999996,126.9541842,171.6,190.05700000000002,1725533238800484,11141125,0.164,0.57477444,0.425,0.768,0.63,0.98999995,74,3,0.256,0.25500003,-0.009000001,-0.22800002,6.2491155,0,nan,0.0,0.0,0.0,0,3,1,1,1,28,0,0,0
39516712,0,37.4559181,126.9541842,171.622,190.079,1725533238900484,11141125,0.163,0.605673,0.425,0.768,0.63,0.98999995,74,3,0.24100001,0.24100001,-0.003,-0.202,6.269282,0,nan,0.0,0.0,0.0,0,3,1,1,1,28,0,0,0
39621711,0,37.4559184,126.9541842,171.63400000000001,190.091,1725533239000484,11141125,0.16100001,0.42914155,0.425,0.76900005,0.63,0.98999995,74,3,0.33600003,0.32900003,0.066,-0.18,0.1983263,0,nan,0.0,0.0,0.0,0,3,1,1,1,28,0,0,0
39714771,0,37.4559187,126.9541843,171.651,190.107,1725533239100484,11141125,0.163,0.34192517,0.425,0.76900005,0.63,0.98999995,74,3,0.37100002,0.319,0.19000001,-0.193,0.5367809,0,nan,0.0,0.0,0.0,0,3,1,1,1,28,0,0,0
39815712,0,37.4559189,126.9541845,171.675,190.132,1725533239200484,11141125,0.16900001,0.36590496,0.425,0.77000004,0.63,0.98999995,74,6,0.36200002,0.307,0.19100001,-0.282,0.5571647,0,nan,0.0,0.0,0.0,0,3,1,1,1,28,0,0,0
39913713,0,37.4559192,126.9541848,171.715,190.172,1725533239300484,11141125,0.17300001,0.33010057,0.425,0.77000004,0.63,0.98999995,74,6,0.39600003,0.27100003,0.289,-0.39800003,0.81711686,0,nan,0.0,0.0,0.0,0,3,1,1,1,28,0,0,0
40014889,0,37.4559195,126.95418509999999,171.77700000000002,190.234,1725533239400484,11141125,0.177,0.24417591,0.425,0.771,0.63,0.98999995,74,6,0.513,0.39800003,0.323,-0.523,0.68217355,0,nan,0.0,0.0,0.0,0,3,1,1,1,28,0,0,0
40115714,0,37.4559198,126.9541854,171.829,190.286,1725533239500484,11141125,0.179,0.2734725,0.425,0.771,0.63,0.98999995,74,6,0.439,0.335,0.28300002,-0.619,0.7019529,0,nan,0.0,0.0,0.0,0,3,1,1,1,28,0,0,0
40214879,0,37.45592,126.95418579999999,171.915,190.372,1725533239600484,11141125,0.18,0.22748186,0.425,0.772,0.63,0.98999995,74,6,0.55200005,0.261,0.48600003,-0.87100005,1.0781441,0,nan,0.0,0.0,0.0,0,3,1,1,1,28,0,0,0
40310712,0,37.455920299999995,126.95418629999999,172.02100000000002,190.478,1725533239700484,11141125,0.18100001,0.22552444,0.425,0.772,0.63,0.98999995,74,6,0.497,0.377,0.323,-1.003,0.7084097,0,nan,0.0,0.0,0.0,0,3,1,1,1,28,0,0,0
40414712,0,37.4559206,126.9541866,172.123,190.58,1725533239800484,11141125,0.185,0.28134567,0.425,0.772,0.63,0.98999995,74,6,0.42700002,0.24800001,0.34800002,-1.174,0.95081836,0,nan,0.0,0.0,0.0,0,3,1,1,1,28,0,0,0
40513734,0,37.4559208,126.95418699999999,172.267,190.72400000000002,1725533239900484,11141125,0.18100001,0.22013715,0.425,0.772,0.63,0.98999995,74,6,0.526,0.30200002,0.43,-1.335,0.957578,0,nan,0.0,0.0,0.0,0,3,1,1,1,28,0,0,0
40621712,0,37.4559211,126.9541874,172.412,190.868,1725533240000484,11141125,0.187,0.2808322,0.425,0.772,0.63,0.98999995,74,6,0.425,0.28500003,0.31500003,-1.48,0.8362244,0,nan,0.0,0.0,0.0,0,3,1,1,1,28,0,0,0
40718715,0,37.4559213,126.9541878,172.574,191.031,1725533240100484,11141125,0.18800001,0.26058182,0.425,0.77300006,0.63,0.98999995,74,6,0.46,0.284,0.36200002,-1.6430001,0.9061885,0,nan,0.0,0.0,0.0,0,3,1,1,1,28,0,0,0
40816711,0,37.455921599999996,126.95418819999999,172.71800000000002,191.175,1725533240200484,11141125,0.18900001,0.2804313,0.425,0.77300006,0.63,0.98999995,73,4,0.42600003,0.293,0.30900002,-1.6120001,0.8111716,0,nan,0.0,0.0,0.0,0,3,1,1,1,28,0,0,0
40915711,0,37.4559218,126.9541885,172.874,191.33100000000002,1725533240300484,11141125,0.19100001,0.34185696,0.425,0.77400005,0.63,0.98999995,73,4,0.356,0.187,0.303,-1.552,1.0179012,0,nan,0.0,0.0,0.0,0,3,1,1,1,28,0,0,0
41015711,0,37.455922,126.9541888,173.048,191.505,1725533240400484,11141125,0.18800001,0.26143792,0.425,0.77400005,0.63,0.98999995,73,4,0.446,0.316,0.31500003,-1.452,0.783316,0,nan,0.0,0.0,0.0,0,3,1,1,1,28,0,0,0
41114713,0,37.455922199999996,126.9541891,173.192,191.648,1725533240500484,11141125,0.19100001,0.35112602,0.425,0.77500004,0.63,0.98999995,73,4,0.351,0.165,0.31,-1.4130001,1.0812103,0,nan,0.0,0.0,0.0,0,3,1,1,1,28,0,0,0
41209777,0,37.4559224,126.9541895,173.322,191.779,1725533240600484,11141125,0.18900001,0.30389917,0.425,0.77500004,0.63,0.98999995,73,4,0.384,0.21700001,0.317,-1.213,0.9695668,0,nan,0.0,0.0,0.0,0,3,1,1,1,28,0,0,0
41314716,0,37.4559226,126.9541898,173.423,191.88,1725533240700484,11141125,0.187,0.33570272,0.425,0.77500004,0.63,0.98999995,73,4,0.35000002,0.19100001,0.293,-0.94900006,0.99390036,0,nan,0.0,0.0,0.0,0,3,1,1,1,28,0,0,0
41415713,0,37.455922699999995,126.95419009999999,173.51,191.967,1725533240800484,11141125,0.18400002,0.36173257,0.425,0.776,0.63,0.98999995,73,4,0.344,0.12100001,0.323,-0.81700003,1.2121168,0,nan,0.0,0.0,0.0,0,3,1,1,1,28,0,0,0
41513715,0,37.4559229,126.95419039999999,173.58100000000002,192.038,1725533240900484,11141125,0.18200001,0.4252147,0.425,0.776,0.63,0.98999995,73,4,0.27400002,0.143,0.23300001,-0.48000002,1.0199238,0,nan,0.0,0.0,0.0,0,3,1,1,1,28,0,0,0
41625712,0,37.455923,126.9541907,173.629,192.086,1725533241000484,11141125,0.17400001,0.37703753,0.425,0.776,0.63,0.98999995,73,4,0.32200003,0.147,0.286,-0.264,1.0979625,0,nan,0.0,0.0,0.0,0,3,1,1,1,28,0,0,0
41722712,0,37.4559231,126.954191,173.633,192.09,1725533241100484,11141125,0.164,0.4514695,0.42400002,0.777,0.63,0.98999995,73,4,0.277,0.109000005,0.254,-0.009000001,1.1645384,0,nan,0.0,0.0,0.0,0,3,1,1,1,28,0,0,0
41819712,0,37.4559232,126.95419129999999,173.621,192.078,1725533241200484,11141125,0.18,0.42702252,0.42400002,0.777,0.63,0.98999995,73,5,0.289,0.16600001,0.23700002,0.209,0.9610811,0,nan,0.0,0.0,0.0,0,3,1,1,1,28,0,0,0
41916735,0,37.455923399999996,126.95419159999999,173.577,192.034,1725533241300483,11141125,0.18900001,0.31515077,0.42400002,0.777,0.63,0.98999995,73,5,0.379,0.23,0.30100003,0.47900003,0.9190801,0,nan,0.0,0.0,0.0,0,3,1,1,1,28,0,0,0
42017714,0,37.4559237,126.9541919,173.495,191.952,1725533241400483,11141125,0.19100001,0.3206517,0.42400002,0.777,0.63,0.98999995,73,5,0.347,0.272,0.216,0.73300004,0.6723591,0,nan,0.0,0.0,0.0,0,3,1,1,1,28,0,0,0
42115713,0,37.455923899999995,126.9541922,173.40800000000002,191.865,1725533241500483,11141125,0.18800001,0.26409483,0.42400002,0.776,0.63,0.98999995,73,5,0.437,0.296,0.32200003,1.016,0.8271663,0,nan,0.0,0.0,0.0,0,3,1,1,1,28,0,0,0
42218712,0,37.4559242,126.95419249999999,173.29500000000002,191.752,1725533241600483,11141125,0.18900001,0.2585131,0.423,0.776,0.63,0.98999995,73,5,0.44000003,0.26500002,0.351,1.2030001,0.9235853,0,nan,0.0,0.0,0.0,0,3,1,1,1,28,0,0,0
42317712,0,37.4559245,126.9541929,173.15800000000002,191.615,1725533241700483,11141125,0.18800001,0.20984285,0.423,0.776,0.63,0.98999995,73,5,0.53900003,0.397,0.365,1.3510001,0.74388075,0,nan,0.0,0.0,0.0,0,3,1,1,1,29,0,0,0
42416711,0,37.4559248,126.9541933,173.02100000000002,191.478,1725533241800483,11141125,0.193,0.2943866,0.423,0.777,0.62,0.98999995,73,5,0.39600003,0.30200002,0.256,1.521,0.70183915,0,nan,0.0,0.0,0.0,0,3,1,1,1,29,0,0,0
42519728,0,37.455925,126.95419349999999,172.847,191.304,1725533241900483,11141125,0.19500001,0.37737837,0.423,0.777,0.62,0.98999995,73,5,0.30600002,0.201,0.231,1.5760001,0.85510254,0,nan,0.0,0.0,0.0,0,3,1,1,1,29,0,0,0
42624710,0,37.455925199999996,126.95419369999999,172.679,191.136,1725533242000483,11141125,0.19600001,0.4131976,0.423,0.77800006,0.62,0.98999995,73,5,0.284,0.24000001,0.15200001,1.5760001,0.5639089,0,nan,0.0,0.0,0.0,0,3,1,1,1,29,0,0,0
42720714,0,37.4559254,126.95419389999999,172.52700000000002,190.984,1725533242100483,11141125,0.19600001,0.47662705,0.423,0.77800006,0.62,0.98999995,73,5,0.24100001,0.19900002,0.136,1.524,0.5981819,0,nan,0.0,0.0,0.0,0,3,1,1,1,29,0,0,0
42822712,0,37.4559256,126.954194,172.389,190.846,1725533242200483,11141125,0.19600001,0.48541462,0.423,0.77800006,0.62,0.98999995,73,4,0.23700002,0.202,0.124000005,1.363,0.5510748,0,nan,0.0,0.0,0.0,0,3,1,1,1,29,0,0,0
42917713,0,37.4559257,126.954194,172.255,190.71200000000002,1725533242300483,11141125,0.194,1.9767458,0.423,0.77900004,0.62,0.98999995,73,4,0.086,0.061000004,-0.060000002,1.148,0.6022714,0,nan,0.0,0.0,0.0,0,3,1,1,1,29,0,0,0
43013206,0,37.455925799999996,126.954194,172.138,190.595,1725533242400483,11141125,0.192,1.5808473,0.423,0.77900004,0.62,0.98999995,73,4,0.072000004,0.061000004,0.038000003,0.86700004,0.6022714,0,nan,0.0,0.0,0.0,0,3,1,1,1,29,0,0,0
43117713,0,37.455925799999996,126.954194,172.071,190.528,1725533242500483,11141125,0.187,1.4506227,0.423,0.77800006,0.62,0.98999995,73,4,0.106000006,0.024,-0.10300001,0.564,0.6022714,0,nan,0.0,0.0,0.0,0,3,1,1,1,29,0,0,0
43218714,0,37.455925799999996,126.9541938,172.032,190.489,1725533242600483,11141125,0.179,1.0326557,0.423,0.77800006,0.62,0.98999995,73,4,0.134,-0.003,-0.134,0.24200001,0.6022714,0,nan,0.0,0.0,0.0,0,3,1,1,1,29,0,0,0
43315769,0,37.4559257,126.9541936,172.013,190.469,1725533242700483,11141125,0.158,0.4884927,0.423,0.77800006,0.62,0.98999995,73,4,0.23500001,-0.106000006,-0.209,-0.063,4.2419944,0,nan,0.0,0.0,0.0,0,3,1,1,1,29,0,0,0
43418338,0,37.4559256,126.95419319999999,172.04500000000002,190.502,1725533242800483,11141125,0.164,0.28608093,0.423,0.77800006,0.62,0.98999995,73,4,0.404,-0.187,-0.358,-0.245,4.231242,0,nan,0.0,0.0,0.0,0,3,1,1,1,29,0,0,0
43517512,0,37.4559254,126.9541928,172.083,190.54,1725533242900483,11141125,0.179,0.3207086,0.42200002,0.77800006,0.62,0.98999995,73,4,0.36600003,-0.178,-0.32000002,-0.446,4.204712,0,nan,0.0,0.0,0.0,0,3,1,1,1,29,0,0,0
43623715,0,37.455925199999996,126.95419249999999,172.122,190.579,1725533243000483,11141125,0.18200001,0.2612339,0.42200002,0.77800006,0.62,0.98999995,73,4,0.43800002,-0.29200003,-0.326,-0.48600003,3.982906,0,nan,0.0,0.0,0.0,0,3,1,1,1,29,0,0,0
43721711,0,37.455925,126.9541921,172.178,190.635,1725533243100483,11141125,0.19000001,0.3839548,0.42200002,0.77900004,0.62,0.98999995,73,4,0.29900002,-0.21400002,-0.209,-0.55300003,3.9158378,0,nan,0.0,0.0,0.0,0,3,1,1,1,29,0,0,0
43817713,0,37.4559248,126.9541919,172.267,190.72400000000002,1725533243200483,11141125,0.18900001,0.45191184,0.42200002,0.77900004,0.62,0.98999995,73,3,0.24300002,-0.18200001,-0.16100001,-0.609,3.8648987,0,nan,0.0,0.0,0.0,0,3,1,1,1,29,0,0,0
43911713,0,37.455924599999996,126.9541917,172.312,190.768,1725533243300483,11141125,0.192,0.55554265,0.42200002,0.77900004,0.62,0.98999995,73,3,0.21900001,-0.19100001,-0.106000006,-0.587,3.6487615,0,nan,0.0,0.0,0.0,0,3,1,1,1,29,0,0,0
44018724,0,37.4559245,126.9541917,172.379,190.835,1725533243400483,11141125,0.19800001,2.3045216,0.42200002,0.78000003,0.62,0.98999995,73,3,0.069000006,-0.061000004,0.034,-0.573,3.8533456,0,nan,0.0,0.0,0.0,0,3,1,1,1,29,0,0,0
44117900,0,37.4559245,126.9541917,172.427,190.88400000000001,1725533243500483,11141125,0.19900002,3.1415925,0.42200002,0.78000003,0.62,0.98999995,73,3,0.025,0.003,0.025,-0.559,3.8533456,0,nan,0.0,0.0,0.0,0,3,1,1,1,29,0,0,0
44217712,0,37.455924599999996,126.95419179999999,172.477,190.934,1725533243600483,11141125,0.18800001,0.59548414,0.42100003,0.78000003,0.62,0.98999995,73,3,0.19900002,0.142,0.13900001,-0.437,0.77347195,0,nan,0.0,0.0,0.0,0,3,1,1,1,29,0,0,0
44317715,0,37.4559247,126.9541919,172.525,190.982,1725533243700483,11141125,0.19000001,0.7030245,0.42100003,0.78000003,0.62,0.98999995,73,3,0.165,0.102000006,0.13000001,-0.37800002,0.90618026,0,nan,0.0,0.0,0.0,0,3,1,1,1,29,0,0,0
44417715,0,37.4559248,126.9541921,172.56,191.017,1725533243800483,11141125,0.18200001,0.54618067,0.42100003,0.78000003,0.62,0.98999995,73,3,0.209,0.147,0.148,-0.319,0.7906254,0,nan,0.0,0.0,0.0,0,3,1,1,1,29,0,0,0
44517711,0,37.455925,126.95419229999999,172.579,191.036,1725533243900483,11141125,0.16700001,0.3493374,0.42100003,0.78000003,0.62,0.98999995,73,3,0.32000002,0.24400002,0.208,-0.31300002,0.70773566,0,nan,0.0,0.0,0.0,0,3,1,1,1,29,0,0,0
44625599,0,37.455925199999996,126.95419249999999,172.62800000000001,191.084,1725533244000483,11141125,0.17,0.3120865,0.42000002,0.78000003,0.62,0.98999995,73,3,0.37,0.25300002,0.27,-0.347,0.81719875,0,nan,0.0,0.0,0.0,0,3,1,1,1,29,0,0,0
44724337,0,37.4559254,126.9541927,172.65200000000002,191.109,1725533244100482,11141125,0.17500001,0.4782249,0.42000002,0.78000003,0.62,0.98999995,73,3,0.24000001,0.194,0.141,-0.367,0.62981373,0,nan,0.0,0.0,0.0,0,3,1,1,1,29,0,0,0
44813247,0,37.4559256,126.9541928,172.69,191.147,1725533244200482,11141125,0.179,0.50611913,0.42000002,0.78000003,0.62,0.98999995,73,7,0.245,0.23,0.08400001,-0.42000002,0.34841797,0,nan,0.0,0.0,0.0,0,3,1,1,1,29,0,0,0
44916895,0,37.455925799999996,126.9541929,172.751,191.207,1725533244300482,11141125,0.18,0.4713881,0.41900003,0.78000003,0.62,0.98999995,73,7,0.25800002,0.24400002,0.08400001,-0.47100002,0.33144882,0,nan,0.0,0.0,0.0,0,3,1,1,1,29,0,0,0
45017726,0,37.4559259,126.95419299999999,172.786,191.243,1725533244400482,11141125,0.18400002,0.65156156,0.41900003,0.78000003,0.62,0.98999995,73,7,0.17300001,0.126,0.119,-0.47300002,0.7602497,0,nan,0.0,0.0,0.0,0,3,1,1,1,29,0,0,0
45115712,0,37.4559261,126.9541931,172.848,191.305,1725533244500482,11141125,0.18400002,0.49880672,0.41900003,0.78000003,0.62,0.98999995,73,7,0.264,0.24700001,0.093,-0.522,0.3600169,0,nan,0.0,0.0,0.0,0,3,1,1,1,29,0,0,0
45216714,0,37.4559263,126.95419319999999,172.882,191.339,1725533244600482,11141125,0.186,0.8731191,0.41900003,0.781,0.62,0.98999995,73,7,0.16900001,0.16900001,0.002,-0.423,0.43081933,0,nan,0.0,0.0,0.0,0,3,1,1,1,29,0,0,0
45315215,0,37.4559265,126.9541933,172.94,191.397,1725533244700482,11141125,0.187,0.31293944,0.41900003,0.781,0.62,0.98999995,73,7,0.40300003,0.358,0.186,-0.64000005,0.4804216,0,nan,0.0,0.0,0.0,0,3,1,1,1,29,0,0,0
45414712,0,37.4559267,126.9541934,172.997,191.454,1725533244800482,11141125,0.19800001,1.479941,0.41900003,0.78200006,0.62,0.98999995,73,7,0.087000005,0.07700001,0.040000003,-0.532,0.46641338,0,nan,0.0,0.0,0.0,0,3,1,1,1,29,0,0,0
45517809,0,37.4559269,126.9541934,173.058,191.51500000000001,1725533244900482,11141125,0.18800001,0.45795012,0.418,0.78200006,0.62,0.98999995,73,7,0.29200003,0.273,0.105000004,-0.60700005,0.36720854,0,nan,0.0,0.0,0.0,0,3,1,1,1,29,0,0,0
45622726,0,37.4559271,126.95419349999999,173.112,191.568,1725533245000482,11141125,0.194,0.7680087,0.418,0.78300005,0.62,0.98999995,73,7,0.158,0.12100001,0.102000006,-0.61700004,0.69747305,0,nan,0.0,0.0,0.0,0,3,1,1,1,29,0,0,0
45711712,0,37.4559272,126.9541936,173.175,191.632,1725533245100482,11141125,0.19100001,0.6371944,0.418,0.78300005,0.62,0.98999995,73,7,0.22800002,0.22700001,0.019000001,-0.623,0.08204514,0,nan,0.0,0.0,0.0,0,3,1,1,1,29,0,0,0
45817713,0,37.4559274,126.9541936,173.228,191.685,1725533245200482,11141125,0.19500001,1.1466031,0.418,0.78300005,0.62,0.98999995,73,5,0.115,0.11100001,0.031000001,-0.58000004,0.2539623,0,nan,0.0,0.0,0.0,0,3,1,1,1,29,0,0,0
45915712,0,37.4559275,126.9541936,173.28,191.737,1725533245300482,11141125,0.185,0.5641367,0.418,0.78200006,0.62,0.98999995,73,5,0.26500002,0.259,-0.053000003,-0.558,6.081287,0,nan,0.0,0.0,0.0,0,3,1,1,1,29,0,0,0
46017711,0,37.4559277,126.9541936,173.354,191.811,1725533245400482,11141125,0.18800001,1.3809068,0.41700003,0.781,0.62,0.98999995,73,5,0.102000006,0.09900001,-0.023000002,-0.61200005,6.281588,0,nan,0.0,0.0,0.0,0,3,1,1,1,29,0,0,0
46117710,0,37.4559278,126.95419349999999,173.412,191.869,1725533245500482,11141125,0.18200001,0.8144198,0.416,0.78000003,0.62,0.98999995,73,5,0.18100001,0.16100001,-0.081,-0.57900006,6.281588,0,nan,0.0,0.0,0.0,0,3,1,1,1,29,0,0,0
46218904,0,37.455928,126.95419349999999,173.458,191.915,1725533245600482,11141125,0.177,0.6684694,0.416,0.77900004,0.62,0.98999995,73,5,0.21200001,0.21200001,0.007,-0.476,0.031137196,0,nan,0.0,0.0,0.0,0,3,1,1,1,29,0,0,0
46317062,0,37.455928199999995,126.9541934,173.491,191.948,1725533245700482,11141125,0.17600001,1.0236763,0.416,0.77800006,0.62,0.98999995,73,5,0.147,0.126,-0.074,-0.35700002,0.012020257,0,nan,0.0,0.0,0.0,0,3,1,1,1,29,0,0,0
46414718,0,37.4559283,126.9541934,173.531,191.988,1725533245800482,11141125,0.17400001,0.6254705,0.41500002,0.777,0.62,0.98999995,73,5,0.257,0.25,-0.063,-0.35900003,6.03752,0,nan,0.0,0.0,0.0,0,3,1,1,1,29,0,0,0
46515712,0,37.4559285,126.9541934,173.554,192.01,1725533245900482,11141125,0.17600001,0.48633248,0.41500002,0.776,0.62,0.98999995,73,5,0.24400002,0.22700001,0.09,-0.272,0.37666768,0,nan,0.0,0.0,0.0,0,3,1,1,1,29,0,0,0
46617711,0,37.4559287,126.9541934,173.558,192.01500000000001,1725533246000482,11141125,0.132,0.84956324,0.41400003,0.77500004,0.62,0.98999995,73,5,0.17,0.16100001,-0.056,-0.075,0.18750821,0,nan,0.0,0.0,0.0,0,3,1,1,1,29,0,0,0
46716868,0,37.455928899999996,126.9541934,173.54,191.997,1725533246100482,11141125,0.135,0.53397036,0.41400003,0.77500004,0.62,0.98999995,73,5,0.256,0.24800001,0.064,-0.006,0.25110626,0,nan,0.0,0.0,0.0,0,3,1,1,1,29,0,0,0
46815711,0,37.4559292,126.95419349999999,173.522,191.979,1725533246200482,11141125,0.141,0.42644256,0.41400003,0.77500004,0.62,0.98999995,73,6,0.30600002,0.27400002,0.13700001,0.07700001,0.46193784,0,nan,0.0,0.0,0.0,0,3,1,1,1,29,0,0,0
46916712,0,37.455929399999995,126.95419369999999,173.494,191.951,1725533246300482,11141125,0.15400001,0.47129595,0.41300002,0.77400005,0.62,0.98999995,73,6,0.28100002,0.27100003,0.072000004,0.24400002,0.25889218,0,nan,0.0,0.0,0.0,0,3,1,1,1,29,0,0,0
47018041,0,37.4559297,126.9541938,173.447,191.904,1725533246400482,11141125,0.16600001,0.50331366,0.41300002,0.77300006,0.62,0.98999995,73,6,0.246,0.23500001,0.071,0.39400002,0.29199323,0,nan,0.0,0.0,0.0,0,3,1,1,1,29,0,0,0
47115712,0,37.4559299,126.95419389999999,173.399,191.856,1725533246500482,11141125,0.16700001,0.4427846,0.41200003,0.772,0.62,0.98999995,73,6,0.284,0.24200001,0.148,0.46,0.548453,0,nan,0.0,0.0,0.0,0,3,1,1,1,29,0,0,0
47216711,0,37.4559302,126.954194,173.375,191.832,1725533246600482,11141125,0.14400001,0.34008718,0.41200003,0.771,0.62,0.98999995,73,6,0.372,0.367,0.065000005,0.386,0.17416675,0,nan,0.0,0.0,0.0,0,3,1,1,1,29,0,0,0
47316712,0,37.4559304,126.95419419999999,173.293,191.749,1725533246700482,11141125,0.148,0.46238273,0.411,0.77000004,0.62,0.98999995,73,6,0.25500003,0.21100001,0.142,0.30900002,0.5938132,0,nan,0.0,0.0,0.0,0,3,1,1,1,29,0,0,0
47415711,0,37.455930699999996,126.9541943,173.27100000000002,191.727,1725533246800482,11141125,0.123,0.3792632,0.411,0.76900005,0.62,0.98999995,73,6,0.31800002,0.30200002,0.1,0.112,0.31795272,0,nan,0.0,0.0,0.0,0,3,1,1,1,29,0,0,0
47511715,0,37.455931,126.95419439999999,173.285,191.742,1725533246900481,11141125,0.142,0.3345475,0.41000003,0.767,0.62,0.98999995,73,6,0.35500002,0.35200003,-0.05,-0.135,6.1415696,0,nan,0.0,0.0,0.0,0,3,1,1,1,29,0,0,0
47624712,0,37.4559314,126.9541943,173.294,191.751,1725533247000481,11141125,0.156,0.2819127,0.41000003,0.76600003,0.62,0.98999995,73,6,0.423,0.418,-0.063,-0.27400002,6.134806,0,nan,0.0,0.0,0.0,0,3,1,1,1,29,0,0,0
47722040,0,37.455931799999995,126.9541941,173.326,191.782,1725533247100481,11141125,0.157,0.22238845,0.41000003,0.76500005,0.62,0.98999995,73,6,0.51500005,0.46600002,-0.22000001,-0.3,5.841439,0,nan,0.0,0.0,0.0,0,3,1,1,1,29,0,0,0
47818712,0,37.4559322,126.95419389999999,173.34300000000002,191.8,1725533247200481,11141125,0.143,0.27913225,0.409,0.76400006,0.62,0.98999995,73,5,0.46100003,0.4,-0.23,-0.21800001,5.7614117,0,nan,0.0,0.0,0.0,0,3,1,1,1,29,0,0,0
47920711,0,37.455932499999996,126.9541936,173.344,191.80100000000002,1725533247300481,11141125,0.134,0.29759642,0.409,0.763,0.62,0.98999995,73,5,0.483,0.39200002,-0.28100002,-0.165,5.6610985,0,nan,0.0,0.0,0.0,0,3,1,1,1,29,0,0,0
48019713,0,37.4559329,126.95419319999999,173.364,191.82,1725533247400481,11141125,0.126,0.26192698,0.409,0.762,0.62,0.98999995,73,5,0.56700003,0.41300002,-0.388,-0.074,5.5287623,0,nan,0.0,0.0,0.0,0,3,1,1,1,29,0,0,0
48119802,0,37.4559332,126.9541928,173.353,191.809,1725533247500481,11141125,0.123,0.27707782,0.409,0.76100004,0.62,0.98999995,73,5,0.505,0.277,-0.42200002,0.14400001,5.2934613,0,nan,0.0,0.0,0.0,0,3,1,1,1,29,0,0,0
48221713,0,37.4559335,126.95419229999999,173.333,191.79,1725533247600481,11141125,0.13100001,0.30664754,0.40800002,0.76100004,0.62,0.98999995,73,5,0.45200002,0.273,-0.36100003,0.24700001,5.360524,0,nan,0.0,0.0,0.0,0,3,1,1,1,29,0,0,0
48319712,0,37.455933699999996,126.9541919,173.299,191.756,1725533247700481,11141125,0.14600001,0.3110297,0.40800002,0.76000005,0.62,0.98999995,73,5,0.42000002,0.18100001,-0.379,0.36200002,5.158128,0,nan,0.0,0.0,0.0,0,3,1,1,1,29,0,0,0
48414712,0,37.4559338,126.9541915,173.25300000000001,191.71,1725533247800481,11141125,0.162,0.3343321,0.407,0.75900006,0.62,0.98999995,73,5,0.349,0.16900001,-0.30600002,0.476,5.2186303,0,nan,0.0,0.0,0.0,0,3,1,1,1,29,0,0,0
48520715,0,37.455934,126.95419129999999,173.18,191.637,1725533247900481,11141125,0.177,0.67442125,0.407,0.758,0.62,0.98999995,73,5,0.17300001,0.065000005,-0.16100001,0.688,5.0949144,0,nan,0.0,0.0,0.0,0,3,1,1,1,29,0,0,0
48630712,0,37.4559341,126.95419109999999,173.12,191.576,1725533248000481,11141125,0.17500001,0.6944806,0.40600002,0.757,0.62,0.98999995,73,5,0.17500001,0.10700001,-0.13800001,0.711,5.374488,0,nan,0.0,0.0,0.0,0,3,1,1,1,29,0,0,0
48726712,0,37.4559341,126.95419109999999,173.03,191.487,1725533248100481,11141125,0.178,2.3809237,0.40600002,0.75600004,0.62,0.98999995,73,5,0.046000004,-0.002,0.046000004,0.846,5.2982774,0,nan,0.0,0.0,0.0,0,3,1,1,1,29,0,0,0
48821713,0,37.4559341,126.9541912,172.94,191.397,1725533248200481,11141125,0.179,0.76594734,0.40500003,0.75500005,0.62,0.98999995,73,10,0.17400001,-0.102000006,0.141,0.934,2.1989079,0,nan,0.0,0.0,0.0,0,3,1,1,1,29,0,0,0
48922711,0,37.455934,126.9541914,172.84300000000002,191.3,1725533248300481,11141125,0.18,0.51305383,0.40500003,0.754,0.62,0.98999995,73,10,0.26900002,-0.157,0.21800001,0.94500005,2.1955996,0,nan,0.0,0.0,0.0,0,3,1,1,1,29,0,0,0
49020712,0,37.4559338,126.95419159999999,172.767,191.22400000000002,1725533248400481,11141125,0.17500001,0.41969234,0.404,0.753,0.62,0.98999995,73,10,0.328,-0.27600002,0.178,0.81900007,2.5695698,0,nan,0.0,0.0,0.0,0,3,1,1,1,29,0,0,0
49123711,0,37.4559335,126.9541919,172.68200000000002,191.138,1725533248500481,11141125,0.171,0.2896306,0.404,0.753,0.62,0.98999995,73,10,0.46400002,-0.333,0.32200003,0.768,2.3732226,0,nan,0.0,0.0,0.0,0,3,1,1,1,29,0,0,0
49220719,0,37.4559332,126.95419229999999,172.598,191.054,1725533248600481,11141125,0.165,0.26912034,0.40300003,0.75200003,0.62,0.98999995,73,10,0.526,-0.448,0.275,0.81000006,2.5906568,0,nan,0.0,0.0,0.0,0,3,1,1,1,29,0,0,0
49313713,0,37.4559327,126.9541926,172.52100000000002,190.978,1725533248700481,11141125,0.164,0.25637367,0.40300003,0.753,0.62,0.98999995,73,10,0.60800004,-0.54200006,0.27600002,0.73700005,2.6708477,0,nan,0.0,0.0,0.0,0,3,1,1,1,29,0,0,0
49418711,0,37.4559322,126.9541929,172.445,190.901,1725533248800481,11141125,0.157,0.2125132,0.40300003,0.753,0.62,0.98999995,73,10,0.72900003,-0.661,0.307,0.669,2.707466,0,nan,0.0,0.0,0.0,0,3,1,1,1,29,0,0,0
49518711,0,37.4559316,126.9541933,172.37800000000001,190.835,1725533248900481,11141125,0.15400001,0.22354786,0.40300003,0.75200003,0.62,0.98999995,73,10,0.71400005,-0.64500004,0.307,0.675,2.6976712,0,nan,0.0,0.0,0.0,0,3,1,1,1,29,0,0,0
49625711,0,37.455931,126.95419369999999,172.30700000000002,190.764,1725533249000481,11141125,0.15300001,0.19626367,0.40300003,0.75200003,0.62,0.98999995,73,10,0.79700005,-0.69900006,0.38300002,0.69200003,2.640982,0,nan,0.0,0.0,0.0,0,3,1,1,1,29,0,0,0
49719722,0,37.4559304,126.9541941,172.252,190.709,1725533249100481,11141125,0.149,0.20887698,0.40300003,0.75200003,0.62,0.98999995,73,10,0.75100005,-0.642,0.38900003,0.606,2.5968244,0,nan,0.0,0.0,0.0,0,3,1,1,1,29,0,0,0
49817713,0,37.4559299,126.9541946,172.185,190.642,1725533249200481,11141125,0.15100001,0.18729477,0.40300003,0.75200003,0.62,0.98999995,73,7,0.80100006,-0.58000004,0.55300003,0.66800004,2.3803883,0,nan,0.0,0.0,0.0,0,3,1,1,1,29,0,0,0
49915713,0,37.455929399999995,126.9541952,172.107,190.564,1725533249300481,11141125,0.15300001,0.21230744,0.402,0.75200003,0.62,0.98999995,73,7,0.703,-0.55600005,0.43,0.65300006,2.4834714,0,nan,0.0,0.0,0.0,0,3,1,1,1,29,0,0,0
50018713,0,37.455928899999996,126.9541958,172.03900000000002,190.495,1725533249400481,11141125,0.15300001,0.17100316,0.402,0.75100005,0.62,0.98999995,73,7,0.77900004,-0.50100005,0.597,0.71400005,2.268741,0,nan,0.0,0.0,0.0,0,3,1,1,1,29,0,0,0
50116248,0,37.4559285,126.9541964,171.949,190.405,1725533249500481,11141125,0.163,0.21862884,0.402,0.75000006,0.62,0.98999995,73,7,0.66400003,-0.416,0.518,0.76900005,2.2473156,0,nan,0.0,0.0,0.0,0,3,1,1,1,29,0,0,0
50211711,0,37.455928199999995,126.954197,171.87800000000001,190.335,1725533249600481,11141125,0.163,0.234933,0.40100002,0.749,0.62,0.98999995,73,7,0.587,-0.24900001,0.532,0.781,2.007882,0,nan,0.0,0.0,0.0,0,3,1,1,1,29,0,0,0
50315713,0,37.455928,126.9541976,171.806,190.263,1725533249700480,11141125,0.16800001,0.22738515,0.40100002,0.749,0.62,0.98999995,73,7,0.64900005,-0.23500001,0.605,0.80600005,1.9407953,0,nan,0.0,0.0,0.0,0,3,1,1,1,29,0,0,0
50414713,0,37.4559279,126.9541982,171.702,190.159,1725533249800480,11141125,0.179,0.42010596,0.40100002,0.748,0.62,0.98999995,73,7,0.356,-0.102000006,0.34100002,0.92300004,1.862607,0,nan,0.0,0.0,0.0,0,3,1,1,1,29,0,0,0
50514714,0,37.4559278,126.9541986,171.63400000000001,190.091,1725533249900480,11141125,0.177,0.33476424,0.40100002,0.748,0.62,0.98999995,73,7,0.41400003,0.0,0.41400003,0.822,1.571051,0,nan,0.0,0.0,0.0,0,3,1,1,1,29,0,0,0
50624714,0,37.4559278,126.9541989,171.549,190.006,1725533250000480,11141125,0.18300001,0.9604126,0.40100002,0.74700004,0.62,0.98999995,73,7,0.14,-0.025,0.13700001,0.82400006,1.7413177,0,nan,0.0,0.0,0.0,0,3,1,1,1,29,0,0,0
50717713,0,37.4559278,126.95419899999999,171.463,189.92000000000002,1725533250100480,11141125,0.18300001,1.9737803,0.40100002,0.74700004,0.62,0.98999995,73,7,0.07,-0.018000001,0.068,0.754,1.7413177,0,nan,0.0,0.0,0.0,0,3,1,1,1,29,0,0,0
50816732,0,37.4559277,126.9541989,171.40800000000002,189.865,1725533250200480,11141125,0.17500001,0.4550937,0.40100002,0.74600005,0.62,0.98999995,73,7,0.263,-0.082,-0.25,0.517,4.395542,0,nan,0.0,0.0,0.0,0,3,1,1,1,29,0,0,0
50915712,0,37.4559277,126.9541984,171.362,189.81900000000002,1725533250300480,11141125,0.15900001,0.25857767,0.40100002,0.74600005,0.62,0.98999995,73,7,0.485,-0.034,-0.48400003,0.39200002,4.6430163,0,nan,0.0,0.0,0.0,0,3,1,1,1,29,0,0,0
51015710,0,37.455927599999995,126.95419779999999,171.346,189.803,1725533250400480,11141125,0.162,0.17196973,0.4,0.74500006,0.62,0.98999995,73,7,0.69600004,-0.256,-0.647,0.18,4.33632,0,nan,0.0,0.0,0.0,0,3,1,1,1,29,0,0,0
51112712,0,37.4559273,126.954197,171.328,189.785,1725533250500480,11141125,0.15200001,0.14914204,0.4,0.74500006,0.62,0.98999995,73,7,0.79300004,-0.254,-0.75100005,0.135,4.3863363,0,nan,0.0,0.0,0.0,0,3,1,1,1,29,0,0,0
51220714,0,37.455926999999996,126.95419609999999,171.322,189.779,1725533250600480,11141125,0.149,0.12085951,0.4,0.744,0.62,0.98999995,73,7,0.89100003,-0.39600003,-0.79800004,0.07,4.2519126,0,nan,0.0,0.0,0.0,0,3,1,1,1,29,0,0,0
51319712,0,37.4559267,126.95419509999999,171.31900000000002,189.776,1725533250700480,11141125,0.143,0.111001015,0.4,0.744,0.62,0.98999995,73,7,1.019,-0.44900003,-0.915,-0.001,4.256513,0,nan,0.0,0.0,0.0,0,3,1,1,1,29,0,0,0
51419714,0,37.4559262,126.9541941,171.327,189.784,1725533250800480,11141125,0.147,0.11330782,0.4,0.744,0.62,0.98999995,73,7,0.998,-0.535,-0.84200007,-0.045,4.1459665,0,nan,0.0,0.0,0.0,0,3,1,1,1,29,0,0,0
51521715,0,37.4559257,126.95419319999999,171.33700000000002,189.793,1725533250900480,11141125,0.147,0.114392534,0.4,0.744,0.62,0.98999995,73,7,1.001,-0.69600004,-0.71900004,0.014,3.943194,0,nan,0.0,0.0,0.0,0,3,1,1,1,29,0,0,0
51627712,0,37.455925,126.9541924,171.333,189.78900000000002,1725533251000480,11141125,0.15100001,0.1284428,0.4,0.744,0.62,0.98999995,73,7,0.915,-0.66,-0.634,0.044000003,3.906703,0,nan,0.0,0.0,0.0,0,3,1,1,1,29,0,0,0
51721713,0,37.4559244,126.95419179999999,171.332,189.78900000000002,1725533251100480,11141125,0.16100001,0.14859697,0.4,0.74500006,0.62,0.98999995,73,7,0.85600007,-0.68700004,-0.51100004,0.059000004,3.7815115,0,nan,0.0,0.0,0.0,0,3,1,1,1,29,0,0,0
51819713,0,37.455923899999995,126.95419129999999,171.318,189.775,1725533251200480,11141125,0.17300001,0.18424062,0.4,0.74500006,0.62,0.98999995,73,4,0.72900003,-0.601,-0.41300002,0.178,3.743331,0,nan,0.0,0.0,0.0,0,3,1,1,1,29,0,0,0
51917187,0,37.455923299999995,126.95419079999999,171.286,189.743,1725533251300480,11141125,0.171,0.17001443,0.4,0.74600005,0.62,0.98999995,73,4,0.78300005,-0.66700006,-0.409,0.34,3.691823,0,nan,0.0,0.0,0.0,0,3,1,1,1,29,0,0,0
52013714,0,37.455922699999995,126.9541903,171.241,189.698,1725533251400480,11141125,0.18100001,0.17154631,0.4,0.74600005,0.62,0.98999995,73,4,0.75100005,-0.64500004,-0.38500002,0.49100003,3.6799278,0,nan,0.0,0.0,0.0,0,3,1,1,1,29,0,0,0
52119718,0,37.455922199999996,126.95419009999999,171.199,189.656,1725533251500480,11141125,0.178,0.36917973,0.4,0.74700004,0.62,0.98999995,73,4,0.41200003,-0.40500003,-0.076000005,0.536,3.3271658,0,nan,0.0,0.0,0.0,0,3,1,1,1,29,0,0,0
52219712,0,37.4559218,126.9541898,171.15,189.607,1725533251600480,11141125,0.17,0.18600637,0.4,0.748,0.62,0.98999995,73,4,0.71000004,-0.623,-0.34100002,0.49800003,3.6419587,0,nan,0.0,0.0,0.0,0,3,1,1,1,29,0,0,0
52317712,0,37.4559213,126.95418959999999,171.09,189.546,1725533251700480,11141125,0.16700001,0.27722442,0.4,0.748,0.62,0.98999995,73,4,0.509,-0.49600002,-0.11800001,0.43300003,3.3753836,0,nan,0.0,0.0,0.0,0,3,1,1,1,29,0,0,0
52420711,0,37.4559208,126.9541893,171.047,189.504,1725533251800480,11141125,0.177,0.23458639,0.40100002,0.749,0.62,0.98999995,73,4,0.563,-0.5,-0.26000002,0.441,3.6209314,0,nan,0.0,0.0,0.0,0,3,1,1,1,29,0,0,0
52517712,0,37.4559204,126.9541891,171.008,189.465,1725533251900480,11141125,0.16100001,0.2959546,0.40100002,0.749,0.62,0.98999995,73,4,0.45200002,-0.43300003,-0.12900001,0.36400002,3.4313214,0,nan,0.0,0.0,0.0,0,3,1,1,1,29,0,0,0
52624022,0,37.45592,126.95418889999999,170.965,189.421,1725533252000480,11141125,0.15900001,0.28867027,0.40100002,0.75000006,0.62,0.98999995,73,4,0.45800003,-0.42900002,-0.15900001,0.272,3.4965959,0,nan,0.0,0.0,0.0,0,3,1,1,1,29,0,0,0
52726714,0,37.4559196,126.95418869999999,170.958,189.415,1725533252100480,11141125,0.163,0.29081026,0.40100002,0.75000006,0.62,0.98999995,73,4,0.41200003,-0.34100002,-0.231,0.26900002,3.7375824,0,nan,0.0,0.0,0.0,0,3,1,1,1,29,0,0,0
52817713,0,37.4559193,126.9541885,170.937,189.394,1725533252200480,11141125,0.162,0.3311115,0.4,0.75000006,0.62,0.98999995,73,7,0.39800003,-0.374,-0.13700001,0.30100003,3.492043,0,nan,0.0,0.0,0.0,0,3,1,1,1,29,0,0,0
52912712,0,37.455919,126.95418839999999,170.915,189.372,1725533252300480,11141125,0.16100001,0.5730671,0.4,0.75100005,0.62,0.98999995,73,7,0.246,-0.245,-0.024,0.21700001,3.2398915,0,nan,0.0,0.0,0.0,0,3,1,1,1,29,0,0,0
53016712,0,37.4559188,126.9541883,170.91,189.366,1725533252400479,11141125,0.14500001,0.4070928,0.4,0.75100005,0.62,0.98999995,73,7,0.333,-0.321,-0.087000005,0.13100001,3.4062903,0,nan,0.0,0.0,0.0,0,3,1,1,1,29,0,0,0
53116129,0,37.4559184,126.95418819999999,170.911,189.368,1725533252500479,11141125,0.142,0.2962747,0.4,0.75200003,0.62,0.98999995,73,7,0.42900002,-0.41900003,-0.093,0.105000004,3.359551,0,nan,0.0,0.0,0.0,0,3,1,1,1,29,0,0,0
53215743,0,37.4559181,126.9541881,170.883,189.339,1725533252600479,11141125,0.147,0.30927494,0.4,0.75200003,0.62,0.98999995,73,7,0.40600002,-0.39900002,-0.071,0.192,3.3187137,0,nan,0.0,0.0,0.0,0,3,1,1,1,29,0,0,0
53317714,0,37.4559177,126.95418799999999,170.885,189.342,1725533252700479,11141125,0.13000001,0.3924151,0.4,0.75200003,0.62,0.98999995,73,7,0.33900002,-0.33900002,0.008,0.044000003,3.116653,0,nan,0.0,0.0,0.0,0,3,1,1,1,29,0,0,0
53417847,0,37.4559174,126.95418799999999,170.90800000000002,189.365,1725533252800479,11141125,0.13000001,0.38028803,0.4,0.75200003,0.62,0.98999995,73,7,0.33800003,-0.33800003,-0.007,-0.024,3.1630235,0,nan,0.0,0.0,0.0,0,3,1,1,1,29,0,0,0
53516742,0,37.4559171,126.9541879,170.892,189.34900000000002,1725533252900479,11141125,0.13000001,0.39823335,0.4,0.75100005,0.62,0.98999995,73,7,0.29700002,-0.293,-0.052,0.037,3.3185782,0,nan,0.0,0.0,0.0,0,3,1,1,1,29,0,0,0
53625753,0,37.4559169,126.9541878,170.893,189.34900000000002,1725533253000479,11141125,0.13900001,0.3812143,0.39900002,0.75100005,0.62,0.98999995,73,7,0.296,-0.272,-0.116000004,0.091000006,3.5463772,0,nan,0.0,0.0,0.0,0,3,1,1,1,29,0,0,0
53724718,0,37.455916599999995,126.95418769999999,170.887,189.344,1725533253100479,11141125,0.149,0.41331908,0.39900002,0.75000006,0.62,0.98999995,73,7,0.27100003,-0.23400001,-0.13700001,0.16700001,3.6694167,0,nan,0.0,0.0,0.0,0,3,1,1,1,29,0,0,0
53812714,0,37.4559165,126.9541876,170.858,189.314,1725533253200479,11141125,0.16900001,0.5850921,0.39900002,0.75000006,0.62,0.98999995,73,5,0.19500001,-0.17500001,-0.08400001,0.291,3.5899146,0,nan,0.0,0.0,0.0,0,3,1,1,1,29,0,0,0
53918710,0,37.4559164,126.95418749999999,170.81900000000002,189.276,1725533253300479,11141125,0.18,1.153223,0.39900002,0.75000006,0.62,0.98999995,73,5,0.101,-0.041,-0.093,0.499,3.5496628,0,nan,0.0,0.0,0.0,0,3,1,1,1,29,0,0,0
54016712,0,37.4559163,126.9541873,170.775,189.232,1725533253400479,11141125,0.179,0.65967786,0.39800003,0.75000006,0.62,0.98999995,73,5,0.172,-0.123,-0.120000005,0.65400004,3.9110699,0,nan,0.0,0.0,0.0,0,3,1,1,1,29,0,0,0
54116711,0,37.4559162,126.95418719999999,170.693,189.149,1725533253500479,11141125,0.18300001,0.7211292,0.39800003,0.75000006,0.62,0.98999995,73,5,0.178,-0.046000004,-0.172,0.771,4.4533677,0,nan,0.0,0.0,0.0,0,3,1,1,1,29,0,0,0
54222120,0,37.4559162,126.95418699999999,170.635,189.092,1725533253600479,11141125,0.187,1.3825223,0.39800003,0.75000006,0.62,0.98999995,73,5,0.089,-0.033,-0.082,0.75200003,4.048021,0,nan,0.0,0.0,0.0,0,3,1,1,1,29,0,0,0
54318715,0,37.4559162,126.95418679999999,170.56300000000002,189.019,1725533253700479,11141125,0.18300001,0.67213356,0.39800003,0.75100005,0.62,0.98999995,73,5,0.20300001,-0.009000001,-0.202,0.62200004,4.6686177,0,nan,0.0,0.0,0.0,0,3,1,1,1,29,0,0,0
54414790,0,37.4559162,126.9541867,170.526,188.982,1725533253800479,11141125,0.17400001,2.6043265,0.39800003,0.75100005,0.62,0.98999995,73,5,0.048,-0.015000001,-0.045,0.069000006,4.3801274,0,nan,0.0,0.0,0.0,0,3,1,1,1,29,0,0,0
54517712,0,37.455916099999996,126.9541867,170.56,189.017,1725533253900479,11141125,0.194,0.98577434,0.39800003,0.75100005,0.62,0.98999995,73,5,0.127,-0.117000006,-0.048,-0.53300005,4.3801274,0,nan,0.0,0.0,0.0,0,3,1,1,1,29,0,0,0
54623714,0,37.455915999999995,126.9541866,170.619,189.076,1725533254000479,11141125,0.193,1.1774151,0.39800003,0.75200003,0.62,0.98999995,73,5,0.106000006,-0.101,-0.034,-0.513,4.3801274,0,nan,0.0,0.0,0.0,0,3,1,1,1,29,0,0,0
54712711,0,37.4559159,126.95418649999999,170.67600000000002,189.133,1725533254100479,11141125,0.187,0.5958297,0.39800003,0.75200003,0.62,0.98999995,73,5,0.19900002,-0.18100001,-0.082,-0.384,3.5683134,0,nan,0.0,0.0,0.0,0,3,1,1,1,29,0,0,0
54817756,0,37.4559157,126.9541864,170.701,189.157,1725533254200479,11141125,0.177,0.37293932,0.39800003,0.75200003,0.62,0.98999995,73,3,0.32900003,-0.296,-0.143,-0.29900002,3.5921726,0,nan,0.0,0.0,0.0,0,3,1,1,1,29,0,0,0
54912721,0,37.455915399999995,126.9541862,170.71,189.167,1725533254300479,11141125,0.16600001,0.42185602,0.39800003,0.753,0.62,0.98999995,73,3,0.287,-0.256,-0.12900001,-0.143,3.607773,0,nan,0.0,0.0,0.0,0,3,1,1,1,29,0,0,0
55015712,0,37.4559152,126.9541861,170.73,189.186,1725533254400479,11141125,0.158,0.34781912,0.39900002,0.753,0.62,0.98999995,73,3,0.35200003,-0.31800002,-0.15100001,-0.085,3.5848887,0,nan,0.0,0.0,0.0,0,3,1,1,1,29,0,0,0
