timestamp,timestamp_sample,latitude_deg,longitude_deg,altitude_msl_m,altitude_ellipsoid_m,time_utc_usec,device_id,s_variance_m_s,c_variance_rad,eph,epv,hdop,vdop,noise_per_ms,jamming_indicator,vel_m_s,vel_n_m_s,vel_e_m_s,vel_d_m_s,cog_rad,timestamp_time_relative,heading,heading_offset,heading_accuracy,rtcm_injection_rate,automatic_gain_control,fix_type,jamming_state,spoofing_state,vel_ned_valid,satellites_used,selected_rtcm_instance,rtcm_crc_failed,rtcm_msg_used
1062756782,0,37.4559387,126.9542041,165.363,183.82,1725536390900359,11141125,0.30100003,3.1415925,0.947,1.2950001,0.51,0.81,69,14,0.013,0.006,-0.011000001,-0.013,3.3458917,0,nan,0.0,0.0,0.0,0,3,1,1,1,32,0,0,0
1062959782,0,37.4559387,126.9542041,165.36,183.817,1725536391100359,11141125,0.335,3.1415925,0.947,1.294,0.51,0.81,69,12,0.032,-0.007,0.031000001,-0.007,3.3458917,0,nan,0.0,0.0,0.0,0,3,1,1,1,32,0,0,0
1063057792,0,37.4559387,126.9542041,165.354,183.811,1725536391200359,11141125,0.36400002,3.1415925,0.947,1.2930001,0.51,0.81,69,12,0.09,0.080000006,-0.041,-0.003,3.3458917,0,nan,0.0,0.0,0.0,0,3,1,1,1,32,0,0,0
1063156799,0,37.4559387,126.9542041,165.351,183.80700000000002,1725536391300359,11141125,0.30600002,3.1415925,0.947,1.2930001,0.51,0.81,69,12,0.039,0.016,0.035,-0.0050000004,3.3458917,0,nan,0.0,0.0,0.0,0,3,1,1,1,32,0,0,0
1063256785,0,37.4559387,126.95420419999999,165.35,183.80700000000002,1725536391400359,11141125,0.37,3.1415925,0.947,1.2930001,0.51,0.81,69,12,0.038000003,-0.036000002,0.013,-0.0050000004,3.3458917,0,nan,0.0,0.0,0.0,0,3,1,1,1,32,0,0,0
1063358079,0,37.455938599999996,126.95420419999999,165.338,183.79500000000002,1725536391500359,11141125,0.32500002,3.1415925,0.947,1.292,0.51,0.81,69,12,0.028,0.023000002,0.015000001,0.016,3.3458917,0,nan,0.0,0.0,0.0,0,3,1,1,1,32,0,0,0
1063457084,0,37.455938599999996,126.95420419999999,165.333,183.79,1725536391600359,11141125,0.33100003,3.1415925,0.947,1.292,0.51,0.81,69,12,0.032,-0.027,0.018000001,0.017,3.3458917,0,nan,0.0,0.0,0.0,0,3,1,1,1,32,0,0,0
1063556164,0,37.455938599999996,126.95420419999999,165.327,183.78300000000002,1725536391700359,11141125,0.312,3.1415925,0.947,1.292,0.51,0.81,69,12,0.010000001,0.008,-0.007,0.053000003,3.3458917,0,nan,0.0,0.0,0.0,0,3,1,1,1,32,0,0,0
1063655100,0,37.455938599999996,126.95420419999999,165.324,183.781,1725536391800359,11141125,0.33800003,3.1415925,0.947,1.291,0.51,0.81,69,12,0.038000003,0.036000002,0.012,0.0050000004,3.3458917,0,nan,0.0,0.0,0.0,0,3,1,1,1,32,0,0,0
1063755832,0,37.455938599999996,126.95420419999999,165.33100000000002,183.788,1725536391900359,11141125,0.289,3.1415925,0.947,1.291,0.51,0.81,69,12,0.018000001,-0.007,0.016,0.023000002,3.3458917,0,nan,0.0,0.0,0.0,0,3,1,1,1,32,0,0,0
1063864839,0,37.455938499999995,126.95420419999999,165.324,183.781,1725536392000359,11141125,0.35300002,3.1415925,0.947,1.2900001,0.51,0.81,69,8,0.069000006,-0.069000006,0.009000001,0.012,3.3458917,0,nan,0.0,0.0,0.0,0,3,1,1,1,32,0,0,0
1063958784,0,37.455938499999995,126.9542043,165.322,183.779,1725536392100359,11141125,0.32700002,3.1415925,0.947,1.2900001,0.51,0.81,69,8,0.025,-0.023000002,-0.011000001,-0.019000001,3.3458917,0,nan,0.0,0.0,0.0,0,3,1,1,1,32,0,0,0
1064057798,0,37.4559384,126.9542043,165.31300000000002,183.77,1725536392200359,11141125,0.36100003,3.1415925,0.94600004,1.2900001,0.51,0.81,69,8,0.062000003,-0.060000002,0.015000001,0.0,3.3458917,0,nan,0.0,0.0,0.0,0,3,1,1,1,32,0,0,0
1064158869,0,37.4559383,126.9542043,165.314,183.77,1725536392300359,11141125,0.33,3.1415925,0.94600004,1.289,0.51,0.81,69,8,0.045,-0.043,-0.013,0.014,3.3458917,0,nan,0.0,0.0,0.0,0,3,1,1,1,32,0,0,0
1064257786,0,37.4559383,126.9542043,165.305,183.762,1725536392400359,11141125,0.319,3.1415925,0.94600004,1.289,0.51,0.81,69,8,0.057000004,-0.054,0.018000001,0.046000004,3.3458917,0,nan,0.0,0.0,0.0,0,3,1,1,1,32,0,0,0
1064357782,0,37.4559382,126.9542043,165.304,183.761,1725536392500359,11141125,0.312,3.1415925,0.94600004,1.289,0.51,0.81,69,8,0.030000001,-0.024,-0.017,0.022000002,3.3458917,0,nan,0.0,0.0,0.0,0,3,1,1,1,32,0,0,0
1064456784,0,37.4559382,126.9542043,165.30700000000002,183.764,1725536392600359,11141125,0.33200002,3.1415925,0.94600004,1.2880001,0.51,0.81,69,8,0.061000004,-0.002,0.061000004,-0.040000003,3.3458917,0,nan,0.0,0.0,0.0,0,3,1,1,1,32,0,0,0
1064557955,0,37.4559382,126.9542044,165.306,183.762,1725536392700359,11141125,0.37,3.1415925,0.94600004,1.2880001,0.51,0.81,69,8,0.078,-0.074,0.023000002,-0.010000001,3.3458917,0,nan,0.0,0.0,0.0,0,3,1,1,1,32,0,0,0
1064656172,0,37.4559381,126.9542044,165.298,183.754,1725536392800358,11141125,0.32200003,3.1415925,0.94600004,1.2880001,0.51,0.81,69,8,0.029000001,0.024,0.017,0.004,3.3458917,0,nan,0.0,0.0,0.0,0,3,1,1,1,32,0,0,0
1064757783,0,37.4559381,126.9542044,165.293,183.749,1725536392900358,11141125,0.32200003,3.1415925,0.94600004,1.2880001,0.51,0.81,69,8,0.049000002,-0.038000003,-0.032,-0.004,3.3458917,0,nan,0.0,0.0,0.0,0,3,1,1,1,32,0,0,0
1064865819,0,37.4559381,126.9542044,165.29500000000002,183.752,1725536393000358,11141125,0.35000002,3.1415925,0.94600004,1.2870001,0.51,0.81,69,8,0.032,0.032,0.003,0.025,3.3458917,0,nan,0.0,0.0,0.0,0,3,1,1,1,32,0,0,0
1064959782,0,37.4559381,126.9542044,165.302,183.758,1725536393100358,11141125,0.35200003,3.1415925,0.94600004,1.2870001,0.51,0.81,69,8,0.043,-0.042000003,-0.008,-0.001,3.3458917,0,nan,0.0,0.0,0.0,0,3,1,1,1,32,0,0,0
1065057792,0,37.455937999999996,126.9542044,165.294,183.75,1725536393200358,11141125,0.31800002,3.1415925,0.94600004,1.2870001,0.51,0.81,69,8,0.035,-0.028,-0.020000001,0.011000001,3.3458917,0,nan,0.0,0.0,0.0,0,3,1,1,1,32,0,0,0
1065156783,0,37.455937999999996,126.9542044,165.29500000000002,183.752,1725536393300358,11141125,0.312,3.1415925,0.94600004,1.2870001,0.51,0.81,69,8,0.032,-0.023000002,-0.023000002,0.028,3.3458917,0,nan,0.0,0.0,0.0,0,3,1,1,1,32,0,0,0
1065255795,0,37.455937899999995,126.9542043,165.288,183.745,1725536393400358,11141125,0.317,3.1415925,0.94600004,1.2870001,0.51,0.81,69,8,0.029000001,-0.012,-0.026,0.030000001,3.3458917,0,nan,0.0,0.0,0.0,0,3,1,1,1,32,0,0,0
1065355810,0,37.455937899999995,126.9542044,165.287,183.744,1725536393500358,11141125,0.36200002,3.1415925,0.94600004,1.286,0.51,0.81,69,8,0.039,-0.023000002,0.032,-0.0050000004,3.3458917,0,nan,0.0,0.0,0.0,0,3,1,1,1,32,0,0,0
1065454786,0,37.455937899999995,126.9542043,165.294,183.75,1725536393600358,11141125,0.356,3.1415925,0.94600004,1.286,0.51,0.81,69,8,0.029000001,0.012,-0.027,0.008,3.3458917,0,nan,0.0,0.0,0.0,0,3,1,1,1,32,0,0,0
1065556782,0,37.455937899999995,126.9542044,165.299,183.755,1725536393700358,11141125,0.33800003,3.1415925,0.94600004,1.286,0.51,0.81,69,8,0.049000002,-0.008,0.049000002,-0.038000003,3.3458917,0,nan,0.0,0.0,0.0,0,3,1,1,1,32,0,0,0
1065656816,0,37.455937899999995,126.9542044,165.304,183.761,1725536393800358,11141125,0.33,3.1415925,0.94600004,1.286,0.51,0.81,69,8,0.068,-0.062000003,-0.030000001,-0.016,3.3458917,0,nan,0.0,0.0,0.0,0,3,1,1,1,32,0,0,0
1065758349,0,37.4559378,126.9542043,165.30100000000002,183.758,1725536393900358,11141125,0.342,3.1415925,0.94600004,1.286,0.51,0.81,69,8,0.032,0.008,-0.031000001,0.024,3.3458917,0,nan,0.0,0.0,0.0,0,3,1,1,1,32,0,0,0
1065864784,0,37.4559378,126.9542043,165.303,183.76,1725536394000358,11141125,0.35900003,3.1415925,0.94600004,1.2850001,0.51,0.81,69,13,0.040000003,-0.040000003,-0.004,-0.009000001,3.3458917,0,nan,0.0,0.0,0.0,0,3,1,1,1,32,0,0,0
1065961785,0,37.4559377,126.9542043,165.3,183.756,1725536394100358,11141125,0.31,3.1415925,0.94600004,1.2850001,0.51,0.81,69,13,0.035,-0.027,-0.022000002,0.026,3.3458917,0,nan,0.0,0.0,0.0,0,3,1,1,1,32,0,0,0
1066059855,0,37.4559377,126.9542043,165.298,183.755,1725536394200358,11141125,0.354,3.1415925,0.94600004,1.2850001,0.51,0.81,69,13,0.040000003,0.037,-0.015000001,0.044000003,3.3458917,0,nan,0.0,0.0,0.0,0,3,1,1,1,32,0,0,0
1066158823,0,37.4559377,126.9542043,165.296,183.75300000000001,1725536394300358,11141125,0.298,3.1415925,0.94600004,1.2850001,0.51,0.81,69,13,0.016,-0.006,-0.015000001,-0.006,3.3458917,0,nan,0.0,0.0,0.0,0,3,1,1,1,32,0,0,0
1066257790,0,37.4559377,126.95420419999999,165.3,183.756,1725536394400358,11141125,0.321,3.1415925,0.94600004,1.2850001,0.51,0.81,69,13,0.07,-0.007,-0.07,0.028,3.3458917,0,nan,0.0,0.0,0.0,0,3,1,1,1,32,0,0,0
1066358787,0,37.4559377,126.95420419999999,165.3,183.757,1725536394500358,11141125,0.30200002,3.1415925,0.94600004,1.284,0.51,0.81,69,13,0.049000002,0.034,0.036000002,0.045,3.3458917,0,nan,0.0,0.0,0.0,0,3,1,1,1,32,0,0,0
1066459783,0,37.4559377,126.95420419999999,165.299,183.755,1725536394600358,11141125,0.33800003,3.1415925,0.94600004,1.284,0.51,0.81,69,13,0.033,0.0050000004,-0.033,0.016,3.3458917,0,nan,0.0,0.0,0.0,0,3,1,1,1,32,0,0,0
1066561968,0,37.4559377,126.95420419999999,165.294,183.751,1725536394700358,11141125,0.30900002,3.1415925,0.94600004,1.284,0.51,0.81,69,13,0.040000003,-0.007,0.039,0.016,3.3458917,0,nan,0.0,0.0,0.0,0,3,1,1,1,32,0,0,0
1066660937,0,37.4559377,126.95420419999999,165.304,183.76,1725536394800358,11141125,0.33800003,3.1415925,0.94600004,1.284,0.51,0.81,69,13,0.045,0.018000001,-0.041,-0.006,3.3458917,0,nan,0.0,0.0,0.0,0,3,1,1,1,32,0,0,0
1066759918,0,37.4559378,126.95420419999999,165.297,183.754,1725536394900358,11141125,0.351,3.1415925,0.94600004,1.284,0.51,0.81,69,13,0.087000005,0.087000005,-0.002,-0.018000001,3.3458917,0,nan,0.0,0.0,0.0,0,3,1,1,1,32,0,0,0
1066869014,0,37.4559378,126.9542041,165.314,183.77100000000002,1725536395000358,11141125,0.31800002,3.1415925,0.94600004,1.2830001,0.51,0.81,69,6,0.048,0.047000002,0.009000001,-0.038000003,3.3458917,0,nan,0.0,0.0,0.0,0,3,1,1,1,32,0,0,0
1066967781,0,37.455937899999995,126.9542041,165.314,183.77100000000002,1725536395100358,11141125,0.356,3.1415925,0.94600004,1.2830001,0.51,0.81,69,6,0.074,0.072000004,-0.014,-0.020000001,3.3458917,0,nan,0.0,0.0,0.0,0,3,1,1,1,32,0,0,0
1067059782,0,37.455937999999996,126.95420419999999,165.33100000000002,183.787,1725536395200358,11141125,0.31500003,2.151438,0.94600004,1.2830001,0.51,0.81,69,6,0.15100001,0.15,0.022000002,-0.149,3.3458917,0,nan,0.0,0.0,0.0,0,3,1,1,1,32,0,0,0
1067157783,0,37.4559381,126.95420419999999,165.348,183.805,1725536395300358,11141125,0.31100002,2.027678,0.94600004,1.2820001,0.51,0.81,69,6,0.16100001,0.15900001,0.024,-0.17400001,3.3458917,0,nan,0.0,0.0,0.0,0,3,1,1,1,32,0,0,0
1067258784,0,37.4559382,126.9542043,165.364,183.821,1725536395400358,11141125,0.31100002,1.8735365,0.94600004,1.2820001,0.51,0.81,69,6,0.19800001,0.101,0.17,-0.284,3.3458917,0,nan,0.0,0.0,0.0,0,3,1,1,1,32,0,0,0
1067358784,0,37.4559383,126.95420449999999,165.392,183.84900000000002,1725536395500357,11141125,0.31300002,1.5391927,0.94600004,1.2820001,0.51,0.81,69,6,0.22600001,0.20300001,0.09900001,-0.25300002,3.3458917,0,nan,0.0,0.0,0.0,0,3,1,1,1,32,0,0,0
1067459783,0,37.455938499999995,126.9542046,165.425,183.882,1725536395600357,11141125,0.321,1.8504612,0.94600004,1.2830001,0.51,0.81,69,6,0.19700001,0.127,0.15,-0.23600002,3.3458917,0,nan,0.0,0.0,0.0,0,3,1,1,1,32,0,0,0
1067558785,0,37.455938599999996,126.95420469999999,165.44400000000002,183.901,1725536395700357,11141125,0.319,2.040907,0.947,1.2830001,0.51,0.81,69,6,0.164,0.156,0.05,-0.215,3.3458917,0,nan,0.0,0.0,0.0,0,3,1,1,1,32,0,0,0
1067657783,0,37.4559387,126.9542048,165.469,183.92600000000002,1725536395800357,11141125,0.319,1.7116385,0.947,1.2830001,0.51,0.81,69,6,0.208,0.156,0.136,-0.284,3.3458917,0,nan,0.0,0.0,0.0,0,3,1,1,1,32,0,0,0
1067759783,0,37.4559389,126.9542049,165.502,183.959,1725536395900357,11141125,0.31300002,1.3941573,0.947,1.284,0.51,0.81,69,6,0.22600001,0.22600001,0.001,-0.35000002,3.3458917,0,nan,0.0,0.0,0.0,0,3,1,1,1,32,0,0,0
1067867792,0,37.455939099999995,126.9542049,165.516,183.973,1725536396000357,11141125,0.319,1.336786,0.947,1.284,0.51,0.81,69,7,0.24300002,0.24300002,0.004,-0.34500003,3.3458917,0,nan,0.0,0.0,0.0,0,3,1,1,1,32,0,0,0
1067967804,0,37.455939199999996,126.95420499999999,165.558,184.014,1725536396100357,11141125,0.312,1.9989301,0.947,1.2850001,0.51,0.81,69,7,0.17300001,0.162,0.059000004,-0.48900002,3.3458917,0,nan,0.0,0.0,0.0,0,3,1,1,1,32,0,0,0
1068055784,0,37.4559393,126.95420499999999,165.619,184.076,1725536396200357,11141125,0.31,3.1415925,0.947,1.2850001,0.51,0.81,69,7,0.046000004,0.043,-0.017,-0.559,3.3458917,0,nan,0.0,0.0,0.0,0,3,1,1,1,32,0,0,0
1068158006,0,37.4559395,126.9542049,165.687,184.144,1725536396300357,11141125,0.307,1.5367057,0.9480001,1.286,0.51,0.81,69,7,0.21200001,0.18300001,-0.106000006,-0.67800003,3.3458917,0,nan,0.0,0.0,0.0,0,3,1,1,1,32,0,0,0
1068254784,0,37.4559396,126.9542048,165.751,184.208,1725536396400357,11141125,0.30600002,1.6187421,0.9480001,1.2870001,0.51,0.81,69,7,0.208,0.14,-0.155,-0.65500003,3.3458917,0,nan,0.0,0.0,0.0,0,3,1,1,1,32,0,0,0
1068356784,0,37.4559397,126.9542046,165.811,184.268,1725536396500357,11141125,0.30900002,1.4686031,0.9480001,1.2880001,0.51,0.81,69,7,0.224,0.19900002,-0.104,-0.73300004,3.3458917,0,nan,0.0,0.0,0.0,0,3,1,1,1,32,0,0,0
1068457792,0,37.4559399,126.95420449999999,165.899,184.356,1725536396600357,11141125,0.307,1.5339803,0.94900006,1.2880001,0.51,0.81,69,7,0.23300001,0.096,-0.21200001,-0.84800005,3.3458917,0,nan,0.0,0.0,0.0,0,3,1,1,1,32,0,0,0
1068556811,0,37.45594,126.95420419999999,165.997,184.453,1725536396700357,11141125,0.305,1.2132955,0.94900006,1.289,0.51,0.81,69,7,0.29200003,0.127,-0.26200002,-0.89800006,3.3458917,0,nan,0.0,0.0,0.0,0,3,1,1,1,32,0,0,0
1068656785,0,37.45594,126.95420399999999,166.08100000000002,184.538,1725536396800357,11141125,0.30900002,2.1673965,0.95000005,1.2900001,0.51,0.81,69,7,0.165,0.053000003,-0.156,-0.897,3.3458917,0,nan,0.0,0.0,0.0,0,3,1,1,1,32,0,0,0
1068757021,0,37.4559401,126.95420379999999,166.165,184.622,1725536396900357,11141125,0.30800003,1.3706987,0.95000005,1.291,0.51,0.81,69,7,0.24300002,0.164,-0.179,-0.878,3.3458917,0,nan,0.0,0.0,0.0,0,3,1,1,1,32,0,0,0
1068867910,0,37.4559402,126.9542036,166.263,184.72,1725536397000357,11141125,0.30600002,3.0385602,0.95100003,1.291,0.51,0.81,69,7,0.127,-0.030000001,-0.123,-0.933,3.3458917,0,nan,0.0,0.0,0.0,0,3,1,1,1,32,0,0,0
1068957783,0,37.4559402,126.95420349999999,166.359,184.815,1725536397100357,11141125,0.30600002,3.1415925,0.95100003,1.292,0.51,0.81,69,7,0.052,0.032,-0.042000003,-0.957,3.3458917,0,nan,0.0,0.0,0.0,0,3,1,1,1,32,0,0,0
1069058917,0,37.4559402,126.9542034,166.449,184.905,1725536397200357,11141125,0.30400002,3.1415925,0.95100003,1.292,0.51,0.81,69,7,0.11800001,0.010000001,-0.11800001,-0.88600004,3.3458917,0,nan,0.0,0.0,0.0,0,3,1,1,1,32,0,0,0
1069158798,0,37.4559402,126.95420329999999,166.54,184.997,1725536397300357,11141125,0.31100002,3.1415925,0.952,1.292,0.51,0.81,69,7,0.034,-0.031000001,-0.014,-0.92300004,3.3458917,0,nan,0.0,0.0,0.0,0,3,1,1,1,32,0,0,0
1069256806,0,37.4559402,126.95420329999999,166.633,185.09,1725536397400357,11141125,0.31100002,3.1415925,0.952,1.2930001,0.51,0.81,69,7,0.007,-0.007,0.002,-0.94100004,3.3458917,0,nan,0.0,0.0,0.0,0,3,1,1,1,32,0,0,0
1069357798,0,37.4559401,126.95420329999999,166.737,185.19400000000002,1725536397500357,11141125,0.31800002,2.5128326,0.952,1.2930001,0.51,0.81,69,7,0.133,-0.115,0.068,-0.98100007,3.3458917,0,nan,0.0,0.0,0.0,0,3,1,1,1,32,0,0,0
1069456790,0,37.4559401,126.9542034,166.839,185.29500000000002,1725536397600357,11141125,0.314,3.1415925,0.95300007,1.294,0.51,0.81,69,7,0.046000004,-0.034,0.031000001,-0.98200005,3.3458917,0,nan,0.0,0.0,0.0,0,3,1,1,1,32,0,0,0
1069557783,0,37.45594,126.9542034,166.942,185.399,1725536397700357,11141125,0.32000002,2.5886374,0.95300007,1.294,0.51,0.81,69,7,0.13000001,-0.128,0.023000002,-1.0380001,3.3458917,0,nan,0.0,0.0,0.0,0,3,1,1,1,32,0,0,0
1069659789,0,37.4559399,126.9542034,167.05100000000002,185.508,1725536397800357,11141125,0.316,3.1415925,0.95300007,1.2950001,0.51,0.81,69,7,0.1,-0.095000006,-0.029000001,-1.108,3.3458917,0,nan,0.0,0.0,0.0,0,3,1,1,1,32,0,0,0
1069759783,0,37.4559397,126.9542034,167.14600000000002,185.602,1725536397900357,11141125,0.32200003,1.6669844,0.95400006,1.2950001,0.51,0.81,69,7,0.201,-0.19800001,0.035,-1.105,3.3458917,0,nan,0.0,0.0,0.0,0,3,1,1,1,32,0,0,0
1069864784,0,37.4559396,126.95420349999999,167.27,185.727,1725536398000357,11141125,0.32500002,1.592741,0.95400006,1.296,0.51,0.81,69,18,0.20700002,-0.18200001,0.09900001,-1.1420001,3.3458917,0,nan,0.0,0.0,0.0,0,3,1,1,1,32,0,0,0
1069959786,0,37.4559394,126.95420349999999,167.385,185.842,1725536398100356,11141125,0.321,2.3330069,0.95400006,1.297,0.51,0.81,69,18,0.149,-0.147,-0.021000002,-1.067,3.3458917,0,nan,0.0,0.0,0.0,0,3,1,1,1,32,0,0,0
1070058883,0,37.4559393,126.95420349999999,167.494,185.951,1725536398200356,11141125,0.32200003,2.7502387,0.95500004,1.297,0.51,0.81,69,18,0.125,-0.09,0.087000005,-1.161,3.3458917,0,nan,0.0,0.0,0.0,0,3,1,1,1,32,0,0,0
1070159786,0,37.455939199999996,126.9542036,167.621,186.078,1725536398300356,11141125,0.32500002,1.6955786,0.95500004,1.2980001,0.51,0.81,69,18,0.19900002,-0.17600001,0.09200001,-1.139,3.3458917,0,nan,0.0,0.0,0.0,0,3,1,1,1,32,0,0,0
1070259782,0,37.455939099999995,126.9542036,167.741,186.198,1725536398400356,11141125,0.32200003,2.6704855,0.95500004,1.299,0.51,0.81,69,18,0.126,-0.115,0.051000003,-1.1320001,3.3458917,0,nan,0.0,0.0,0.0,0,3,1,1,1,32,0,0,0
1070360265,0,37.455939,126.9542037,167.855,186.311,1725536398500356,11141125,0.324,2.5378864,0.95500004,1.3000001,0.51,0.81,69,18,0.13800001,-0.07300001,0.117000006,-1.1630001,3.3458917,0,nan,0.0,0.0,0.0,0,3,1,1,1,32,0,0,0
1070460785,0,37.4559389,126.9542037,167.995,186.452,1725536398600356,11141125,0.32000002,2.7242503,0.95600003,1.3010001,0.51,0.81,69,18,0.13000001,-0.124000005,-0.040000003,-1.2040001,3.3458917,0,nan,0.0,0.0,0.0,0,3,1,1,1,32,0,0,0
1070560933,0,37.4559388,126.95420379999999,168.113,186.57,1725536398700356,11141125,0.326,2.3079855,0.95600003,1.302,0.51,0.81,69,18,0.15100001,-0.12900001,0.07700001,-1.1810001,3.3458917,0,nan,0.0,0.0,0.0,0,3,1,1,1,32,0,0,0
1070659783,0,37.4559387,126.95420379999999,168.24,186.697,1725536398800356,11141125,0.324,2.8895636,0.95600003,1.3030001,0.51,0.81,69,18,0.117000006,-0.10300001,0.056,-1.151,3.3458917,0,nan,0.0,0.0,0.0,0,3,1,1,1,32,0,0,0
1070758783,0,37.455938599999996,126.9542039,168.348,186.805,1725536398900356,11141125,0.32700002,2.5116384,0.957,1.304,0.51,0.81,69,18,0.136,-0.09900001,0.094000004,-1.07,3.3458917,0,nan,0.0,0.0,0.0,0,3,1,1,1,32,0,0,0
1070868782,0,37.455938599999996,126.95420399999999,168.448,186.905,1725536399000356,11141125,0.32900003,1.8873874,0.957,1.304,0.51,0.81,69,10,0.18900001,-0.080000006,0.171,-1.088,3.3458917,0,nan,0.0,0.0,0.0,0,3,1,1,1,32,0,0,0
1070965781,0,37.455938499999995,126.9542041,168.552,187.00900000000001,1725536399100356,11141125,0.32200003,3.1415925,0.957,1.3050001,0.51,0.81,69,10,0.09900001,-0.09900001,0.008,-1.019,3.3458917,0,nan,0.0,0.0,0.0,0,3,1,1,1,32,0,0,0
1071059784,0,37.4559384,126.9542041,168.66400000000002,187.121,1725536399200356,11141125,0.323,2.9046412,0.95800006,1.3060001,0.51,0.81,69,10,0.11400001,-0.11100001,0.027,-1.008,3.3458917,0,nan,0.0,0.0,0.0,0,3,1,1,1,32,0,0,0
1071158997,0,37.4559383,126.95420419999999,168.767,187.223,1725536399300356,11141125,0.323,3.0009906,0.95800006,1.307,0.51,0.81,69,10,0.113000005,-0.068,0.09,-0.97400004,3.3458917,0,nan,0.0,0.0,0.0,0,3,1,1,1,32,0,0,0
1071256813,0,37.4559383,126.95420419999999,168.863,187.32,1725536399400356,11141125,0.317,3.1415925,0.95800006,1.307,0.51,0.81,69,10,0.068,-0.058000002,-0.035,-0.9480001,3.3458917,0,nan,0.0,0.0,0.0,0,3,1,1,1,32,0,0,0
1071357784,0,37.4559382,126.95420419999999,168.968,187.424,1725536399500356,11141125,0.32200003,2.8444393,0.95800006,1.3080001,0.51,0.81,69,10,0.119,-0.11800001,0.013,-0.994,3.3458917,0,nan,0.0,0.0,0.0,0,3,1,1,1,32,0,0,0
1071457784,0,37.4559381,126.95420419999999,169.05700000000002,187.513,1725536399600356,11141125,0.32500002,2.9047236,0.95800006,1.309,0.51,0.81,69,10,0.115,-0.096,0.063,-0.906,3.3458917,0,nan,0.0,0.0,0.0,0,3,1,1,1,32,0,0,0
1071556785,0,37.4559381,126.95420419999999,169.148,187.605,1725536399700356,11141125,0.317,3.1415925,0.95900005,1.3100001,0.51,0.81,69,10,0.002,0.002,-0.002,-0.88500005,3.3458917,0,nan,0.0,0.0,0.0,0,3,1,1,1,32,0,0,0
1071656785,0,37.455937999999996,126.9542043,169.23,187.687,1725536399800356,11141125,0.32700002,2.6897829,0.95900005,1.3100001,0.51,0.81,69,10,0.125,-0.094000004,0.082,-0.86,3.3458917,0,nan,0.0,0.0,0.0,0,3,1,1,1,32,0,0,0
1071757791,0,37.455937899999995,126.95420419999999,169.315,187.772,1725536399900356,11141125,0.31500003,3.1184855,0.95900005,1.3110001,0.51,0.81,69,10,0.119,-0.067,-0.09900001,-0.809,3.3458917,0,nan,0.0,0.0,0.0,0,3,1,1,1,32,0,0,0
1071865884,0,37.455937899999995,126.95420419999999,169.393,187.85,1725536400000356,11141125,0.31500003,3.1415925,0.95900005,1.3110001,0.51,0.81,69,11,0.013,-0.007,-0.012,-0.846,3.3458917,0,nan,0.0,0.0,0.0,0,3,1,1,1,32,0,0,0
1071960805,0,37.455937899999995,126.9542041,169.483,187.94,1725536400100356,11141125,0.312,2.8467534,0.95900005,1.312,0.51,0.81,69,11,0.133,-0.038000003,-0.127,-0.81700003,3.3458917,0,nan,0.0,0.0,0.0,0,3,1,1,1,32,0,0,0
1072061815,0,37.4559378,126.95420399999999,169.556,188.013,1725536400200356,11141125,0.316,3.1415925,0.96000004,1.3130001,0.51,0.81,69,11,0.10300001,-0.07300001,-0.072000004,-0.73600006,3.3458917,0,nan,0.0,0.0,0.0,0,3,1,1,1,32,0,0,0
1072158783,0,37.4559378,126.95420379999999,169.62,188.076,1725536400300356,11141125,0.30600002,2.135924,0.96000004,1.3130001,0.51,0.81,69,11,0.17300001,0.008,-0.17300001,-0.671,3.3458917,0,nan,0.0,0.0,0.0,0,3,1,1,1,32,0,0,0
1072259785,0,37.4559378,126.9542036,169.692,188.148,1725536400400356,11141125,0.30600002,2.1834638,0.96000004,1.314,0.51,0.81,69,11,0.16700001,0.035,-0.163,-0.697,3.3458917,0,nan,0.0,0.0,0.0,0,3,1,1,1,32,0,0,0
1072361855,0,37.455937899999995,126.9542034,169.76,188.217,1725536400500356,11141125,0.305,2.0348933,0.96000004,1.314,0.51,0.81,69,11,0.17300001,0.076000005,-0.156,-0.637,3.3458917,0,nan,0.0,0.0,0.0,0,3,1,1,1,32,0,0,0
1072459785,0,37.455937999999996,126.9542032,169.824,188.28,1725536400600356,11141125,0.30800003,3.1415925,0.961,1.315,0.51,0.81,69,11,0.116000004,-0.001,-0.116000004,-0.48400003,3.3458917,0,nan,0.0,0.0,0.0,0,3,1,1,1,32,0,0,0
1072559783,0,37.455937999999996,126.95420299999999,169.863,188.31900000000002,1725536400700356,11141125,0.30100003,2.2302086,0.961,1.3160001,0.51,0.81,69,11,0.165,0.024,-0.163,-0.425,3.3458917,0,nan,0.0,0.0,0.0,0,3,1,1,1,32,0,0,0
1072658783,0,37.455937999999996,126.95420279999999,169.9,188.356,1725536400800355,11141125,0.298,2.5695608,0.961,1.3160001,0.51,0.81,69,11,0.14,0.041,-0.133,-0.32700002,3.3458917,0,nan,0.0,0.0,0.0,0,3,1,1,1,32,0,0,0
1072760784,0,37.455937999999996,126.95420279999999,169.911,188.368,1725536400900355,11141125,0.356,3.1415925,0.961,1.3160001,0.51,0.81,69,11,0.071,-0.040000003,0.059000004,-0.091000006,3.3458917,0,nan,0.0,0.0,0.0,0,3,1,1,1,32,0,0,0
1072869980,0,37.455937999999996,126.9542027,169.916,188.372,1725536401000355,11141125,0.335,3.1415925,0.961,1.317,0.51,0.81,69,13,0.113000005,-0.095000006,-0.060000002,0.11400001,3.3458917,0,nan,0.0,0.0,0.0,0,3,1,1,1,32,0,0,0
1072970784,0,37.455937899999995,126.95420259999999,169.90800000000002,188.365,1725536401100355,11141125,0.34,1.7202698,0.961,1.3180001,0.51,0.81,69,13,0.22000001,-0.125,-0.18100001,0.115,3.3458917,0,nan,0.0,0.0,0.0,0,3,1,1,1,32,0,0,0
1073059785,0,37.4559378,126.9542022,169.891,188.348,1725536401200355,11141125,0.34100002,0.9657572,0.9620001,1.319,0.51,0.81,69,13,0.39000002,-0.087000005,-0.38000003,0.048,3.3458917,0,nan,0.0,0.0,0.0,0,3,1,1,1,32,0,0,0
1073157784,0,37.4559377,126.9542017,169.903,188.36,1725536401300355,11141125,0.33900002,0.6928735,0.9620001,1.319,0.51,0.81,69,13,0.54200006,-0.094000004,-0.53400004,-0.006,4.537888,0,nan,0.0,0.0,0.0,0,3,1,1,1,32,0,0,0
1073257785,0,37.4559377,126.95420089999999,169.913,188.37,1725536401400355,11141125,0.33600003,0.5196805,0.9620001,1.32,0.51,0.81,69,13,0.70400006,0.0,-0.70400006,-0.136,4.712704,0,nan,0.0,0.0,0.0,0,3,1,1,1,32,0,0,0
1073356886,0,37.4559377,126.9542,169.942,188.399,1725536401500355,11141125,0.344,0.41897675,0.9620001,1.32,0.51,0.81,69,13,0.878,-0.012,-0.878,-0.16000001,4.698743,0,nan,0.0,0.0,0.0,0,3,1,1,1,32,0,0,0
1073456783,0,37.4559377,126.9541988,169.951,188.40800000000002,1725536401600355,11141125,0.356,0.36338452,0.96300006,1.3210001,0.51,0.81,69,13,1.0250001,0.042000003,-1.024,-0.162,4.753485,0,nan,0.0,0.0,0.0,0,3,1,1,1,32,0,0,0
1073556890,0,37.4559377,126.9541977,169.96200000000002,188.419,1725536401700355,11141125,0.363,0.35954323,0.96300006,1.322,0.51,0.81,69,13,1.028,-0.007,-1.028,-0.12100001,4.7051063,0,nan,0.0,0.0,0.0,0,3,1,1,1,32,0,0,0
1073658142,0,37.4559377,126.95419629999999,169.985,188.441,1725536401800355,11141125,0.37800002,0.31180114,0.96400005,1.3240001,0.51,0.81,69,13,1.2060001,-0.040000003,-1.205,-0.141,4.679245,0,nan,0.0,0.0,0.0,0,3,1,1,1,32,0,0,0
1073758783,0,37.4559377,126.9541948,169.996,188.453,1725536401900355,11141125,0.36800003,0.27139834,0.96400005,1.325,0.51,0.81,69,13,1.373,-0.072000004,-1.371,-0.157,4.660042,0,nan,0.0,0.0,0.0,0,3,1,1,1,32,0,0,0
1073866784,0,37.4559376,126.9541933,170.00300000000001,188.46,1725536402000355,11141125,0.36400002,0.27784228,0.96500003,1.3260001,0.51,0.81,69,9,1.327,-0.062000003,-1.325,-0.148,4.665919,0,nan,0.0,0.0,0.0,0,3,1,1,1,32,0,0,0
1073957782,0,37.4559376,126.9541917,170.029,188.485,1725536402100355,11141125,0.37300003,0.27177656,0.96500003,1.327,0.51,0.81,69,9,1.3920001,-0.035,-1.391,-0.15300001,4.68708,0,nan,0.0,0.0,0.0,0,3,1,1,1,32,0,0,0
1074058783,0,37.4559376,126.95419009999999,170.042,188.499,1725536402200355,11141125,0.37300003,0.24792996,0.966,1.3280001,0.51,0.81,69,9,1.5150001,0.060000002,-1.5130001,-0.17600001,4.75194,0,nan,0.0,0.0,0.0,0,3,1,1,1,32,0,0,0
1074158785,0,37.4559377,126.95418839999999,170.058,188.51500000000001,1725536402300355,11141125,0.37,0.24776989,0.966,1.33,0.51,0.81,69,9,1.508,0.066,-1.5070001,-0.19000001,4.7562366,0,nan,0.0,0.0,0.0,0,3,1,1,1,32,0,0,0
1074256786,0,37.4559377,126.9541866,170.071,188.528,1725536402400355,11141125,0.37300003,0.24147536,0.96700007,1.3310001,0.51,0.81,69,9,1.554,-0.013,-1.554,-0.074,4.7042465,0,nan,0.0,0.0,0.0,0,3,1,1,1,32,0,0,0
1074355809,0,37.4559377,126.9541848,170.088,188.54500000000002,1725536402500355,11141125,0.36400002,0.23789467,0.96800005,1.332,0.51,0.81,69,9,1.582,-0.057000004,-1.5810001,-0.13000001,4.6761503,0,nan,0.0,0.0,0.0,0,3,1,1,1,32,0,0,0
1074455808,0,37.4559378,126.954183,170.12,188.577,1725536402600355,11141125,0.36200002,0.2379622,0.96800005,1.3330001,0.51,0.81,69,9,1.5730001,0.065000005,-1.572,-0.208,4.7539186,0,nan,0.0,0.0,0.0,0,3,1,1,1,32,0,0,0
1074557001,0,37.4559378,126.9541811,170.163,188.62,1725536402700355,11141125,0.358,0.2310507,0.96900004,1.335,0.51,0.81,69,9,1.631,-0.014,-1.631,-0.22800002,4.703796,0,nan,0.0,0.0,0.0,0,3,1,1,1,32,0,0,0
1074657842,0,37.4559377,126.9541792,170.18800000000002,188.645,1725536402800355,11141125,0.356,0.2327091,0.96900004,1.3360001,0.51,0.81,69,9,1.613,-0.065000005,-1.6120001,-0.193,4.6720448,0,nan,0.0,0.0,0.0,0,3,1,1,1,32,0,0,0
1074757826,0,37.4559377,126.9541773,170.21800000000002,188.674,1725536402900355,11141125,0.36,0.2215849,0.96900004,1.337,0.51,0.81,69,9,1.674,-0.064,-1.6730001,-0.17300001,4.6739187,0,nan,0.0,0.0,0.0,0,3,1,1,1,32,0,0,0
1074864782,0,37.4559377,126.9541754,170.254,188.711,1725536403000355,11141125,0.36200002,0.22555725,0.97,1.338,0.51,0.81,68,20,1.6750001,-0.025,-1.674,-0.201,4.6972384,0,nan,0.0,0.0,0.0,0,3,1,1,1,32,0,0,0
1074959810,0,37.4559377,126.9541735,170.268,188.725,1725536403100355,11141125,0.36100003,0.22586009,0.97,1.34,0.51,0.81,68,20,1.6520001,0.035,-1.6520001,-0.13100001,4.733803,0,nan,0.0,0.0,0.0,0,3,1,1,1,32,0,0,0
1075058783,0,37.4559377,126.9541715,170.279,188.736,1725536403200355,11141125,0.35700002,0.21919781,0.9710001,1.3410001,0.51,0.81,68,20,1.6760001,-0.049000002,-1.6760001,-0.096,4.683175,0,nan,0.0,0.0,0.0,0,3,1,1,1,32,0,0,0
1075156783,0,37.4559377,126.95416949999999,170.291,188.747,1725536403300355,11141125,0.354,0.20782246,0.9710001,1.342,0.51,0.81,68,20,1.771,-0.013,-1.7700001,-0.094000004,4.705179,0,nan,0.0,0.0,0.0,0,3,1,1,1,32,0,0,0
1075256784,0,37.4559377,126.95416759999999,170.29,188.747,1725536403400355,11141125,0.36200002,0.23192947,0.9710001,1.3440001,0.51,0.81,68,20,1.6450001,0.043,-1.644,-0.05,4.7386475,0,nan,0.0,0.0,0.0,0,3,1,1,1,32,0,0,0
1075356783,0,37.4559378,126.95416569999999,170.31,188.766,1725536403500354,11141125,0.35900003,0.229068,0.97200006,1.345,0.51,0.81,68,20,1.6840001,0.0,-1.6840001,-0.097,4.7125015,0,nan,0.0,0.0,0.0,0,3,1,1,1,32,0,0,0
1075457785,0,37.4559378,126.95416379999999,170.322,188.779,1725536403600354,11141125,0.354,0.23774298,0.97200006,1.3460001,0.51,0.81,68,20,1.626,0.013,-1.626,-0.148,4.720364,0,nan,0.0,0.0,0.0,0,3,1,1,1,32,0,0,0
1075558786,0,37.4559378,126.954162,170.341,188.798,1725536403700354,11141125,0.356,0.266321,0.97300005,1.3470001,0.51,0.81,68,20,1.5100001,-0.019000001,-1.5090001,-0.14,4.69955,0,nan,0.0,0.0,0.0,0,3,1,1,1,32,0,0,0
1075658782,0,37.4559378,126.9541605,170.347,188.803,1725536403800354,11141125,0.351,0.30825987,0.97300005,1.348,0.51,0.81,68,20,1.263,-0.015000001,-1.263,-0.136,4.7007546,0,nan,0.0,0.0,0.0,0,3,1,1,1,32,0,0,0
1075756808,0,37.4559377,126.9541591,170.352,188.809,1725536403900354,11141125,0.349,0.33864185,0.97300005,1.348,0.51,0.81,68,20,1.1600001,-0.083000004,-1.1570001,-0.063,4.6410046,0,nan,0.0,0.0,0.0,0,3,1,1,1,32,0,0,0
1075864916,0,37.4559376,126.9541579,170.375,188.832,1725536404000354,11141125,0.344,0.37463805,0.97400004,1.348,0.51,0.81,68,13,1.0480001,-0.10300001,-1.0430001,-0.023000002,4.613848,0,nan,0.0,0.0,0.0,0,3,1,1,1,32,0,0,0
1075959783,0,37.4559376,126.9541567,170.376,188.832,1725536404100354,11141125,0.344,0.41900766,0.97400004,1.348,0.51,0.81,68,13,0.93200004,-0.078,-0.929,-0.023000002,4.6290116,0,nan,0.0,0.0,0.0,0,3,1,1,1,32,0,0,0
1076056783,0,37.4559375,126.9541558,170.371,188.828,1725536404200354,11141125,0.34300002,0.4930473,0.97400004,1.348,0.51,0.81,68,13,0.78800005,-0.062000003,-0.785,-0.006,4.6331,0,nan,0.0,0.0,0.0,0,3,1,1,1,32,0,0,0
1076158932,0,37.455937399999996,126.9541548,170.386,188.84300000000002,1725536404300354,11141125,0.344,0.469866,0.975,1.3470001,0.51,0.81,68,13,0.82500005,-0.093,-0.82000005,-0.009000001,4.599545,0,nan,0.0,0.0,0.0,0,3,1,1,1,32,0,0,0
1076256783,0,37.455937399999996,126.9541538,170.388,188.844,1725536404400354,11141125,0.349,0.4553979,0.975,1.3470001,0.51,0.81,68,13,0.846,0.0050000004,-0.846,-0.011000001,4.71854,0,nan,0.0,0.0,0.0,0,3,1,1,1,32,0,0,0
1076357783,0,37.455937399999996,126.9541529,170.38,188.83700000000002,1725536404500354,11141125,0.347,0.5006779,0.975,1.348,0.51,0.81,68,13,0.758,-0.018000001,-0.758,0.022000002,4.6883435,0,nan,0.0,0.0,0.0,0,3,1,1,1,32,0,0,0
1076454928,0,37.455937399999996,126.954152,170.372,188.829,1725536404600354,11141125,0.35200003,0.48859358,0.9760001,1.348,0.51,0.81,68,13,0.77900004,0.027,-0.77900004,-0.011000001,4.74753,0,nan,0.0,0.0,0.0,0,3,1,1,1,32,0,0,0
1076558783,0,37.455937399999996,126.95415109999999,170.379,188.835,1725536404700354,11141125,0.351,0.47935504,0.9760001,1.3490001,0.51,0.81,68,13,0.80100006,0.036000002,-0.80100006,-0.060000002,4.7570987,0,nan,0.0,0.0,0.0,0,3,1,1,1,32,0,0,0
1076657783,0,37.4559375,126.9541503,170.399,188.856,1725536404800354,11141125,0.35000002,0.571229,0.9760001,1.3490001,0.51,0.81,68,13,0.66800004,0.056,-0.666,-0.074,4.7970247,0,nan,0.0,0.0,0.0,0,3,1,1,1,32,0,0,0
1076758809,0,37.4559375,126.9541496,170.42000000000002,188.877,1725536404900354,11141125,0.33800003,0.6317453,0.9760001,1.3490001,0.51,0.81,68,13,0.587,0.040000003,-0.586,-0.127,4.7797656,0,nan,0.0,0.0,0.0,0,3,1,1,1,32,0,0,0
1076867794,0,37.4559376,126.95414889999999,170.42600000000002,188.882,1725536405000354,11141125,0.347,0.6690555,0.9760001,1.35,0.51,0.81,68,7,0.549,0.034,-0.54800004,-0.010000001,4.773897,0,nan,0.0,0.0,0.0,0,3,1,1,1,32,0,0,0
1076961918,0,37.4559375,126.9541484,170.417,188.874,1725536405100354,11141125,0.351,0.8566166,0.9760001,1.35,0.51,0.81,68,7,0.43600002,-0.046000004,-0.43400002,0.019000001,4.771568,0,nan,0.0,0.0,0.0,0,3,1,1,1,32,0,0,0
1077056783,0,37.4559375,126.9541479,170.413,188.87,1725536405200354,11141125,0.35200003,0.9788297,0.97700006,1.35,0.51,0.81,68,7,0.38200003,-0.043,-0.38000003,0.043,4.771568,0,nan,0.0,0.0,0.0,0,3,1,1,1,32,0,0,0
1077156784,0,37.4559375,126.95414749999999,170.425,188.881,1725536405300354,11141125,0.347,1.0379167,0.97700006,1.3510001,0.51,0.81,68,7,0.36100003,-0.064,-0.35500002,0.040000003,4.771568,0,nan,0.0,0.0,0.0,0,3,1,1,1,32,0,0,0
1077258589,0,37.455937399999996,126.9541471,170.436,188.893,1725536405400354,11141125,0.34300002,1.3538159,0.97700006,1.3510001,0.51,0.81,68,7,0.27600002,-0.047000002,-0.272,0.013,4.771568,0,nan,0.0,0.0,0.0,0,3,1,1,1,32,0,0,0
1077358862,0,37.455937399999996,126.95414679999999,170.44,188.89600000000002,1725536405500354,11141125,0.35200003,1.3482236,0.97700006,1.3510001,0.51,0.81,68,7,0.275,0.065000005,-0.26700002,-0.009000001,4.771568,0,nan,0.0,0.0,0.0,0,3,1,1,1,32,0,0,0
1077457783,0,37.455937399999996,126.9541465,170.46,188.916,1725536405600354,11141125,0.333,2.0777543,0.97700006,1.3510001,0.51,0.81,68,7,0.18300001,-0.053000003,-0.17500001,-0.059000004,4.771568,0,nan,0.0,0.0,0.0,0,3,1,1,1,32,0,0,0
1077557784,0,37.4559375,126.95414629999999,170.46200000000002,188.919,1725536405700354,11141125,0.33400002,2.6829007,0.97700006,1.3510001,0.51,0.81,68,7,0.136,0.062000003,-0.12100001,-0.065000005,4.771568,0,nan,0.0,0.0,0.0,0,3,1,1,1,32,0,0,0
1077657785,0,37.4559376,126.95414629999999,170.467,188.924,1725536405800354,11141125,0.35500002,1.9239078,0.97800004,1.3510001,0.51,0.81,68,7,0.19000001,0.149,0.11800001,0.016,4.771568,0,nan,0.0,0.0,0.0,0,3,1,1,1,32,0,0,0
1077759838,0,37.4559378,126.9541465,170.469,188.925,1725536405900354,11141125,0.354,0.9265808,0.97800004,1.3510001,0.51,0.81,68,7,0.39600003,0.316,0.238,0.07300001,4.771568,0,nan,0.0,0.0,0.0,0,3,1,1,1,32,0,0,0
1077867791,0,37.4559381,126.9541469,170.46,188.916,1725536406000354,11141125,0.33,0.65739554,0.97800004,1.3510001,0.51,0.81,68,8,0.577,0.386,0.42900002,0.062000003,0.8378133,0,nan,0.0,0.0,0.0,0,3,1,1,1,32,0,0,0
1077965786,0,37.455938499999995,126.95414749999999,170.455,188.912,1725536406100353,11141125,0.34300002,0.45294678,0.97800004,1.35,0.51,0.81,68,8,0.855,0.54800004,0.656,0.012,0.8754287,0,nan,0.0,0.0,0.0,0,3,1,1,1,32,0,0,0
1078060103,0,37.455939199999996,126.95414819999999,170.451,188.907,1725536406200353,11141125,0.33900002,0.37037194,0.97800004,1.35,0.51,0.81,68,8,1.019,0.776,0.66,0.067,0.7047824,0,nan,0.0,0.0,0.0,0,3,1,1,1,32,0,0,0
1078159810,0,37.45594,126.9541491,170.457,188.91400000000002,1725536406300353,11141125,0.35900003,0.28778034,0.97800004,1.3490001,0.51,0.81,68,8,1.309,1.0040001,0.84000003,0.002,0.69669616,0,nan,0.0,0.0,0.0,0,3,1,1,1,32,0,0,0
1078260784,0,37.4559411,126.95415,170.452,188.90800000000002,1725536406400353,11141125,0.349,0.22359325,0.97800004,1.3490001,0.51,0.81,68,8,1.6150001,1.378,0.84300005,0.011000001,0.5488774,0,nan,0.0,0.0,0.0,0,3,1,1,1,32,0,0,0
1078359783,0,37.4559426,126.954151,170.445,188.90200000000002,1725536406500353,11141125,0.367,0.18804386,0.97800004,1.348,0.51,0.81,68,8,1.9120001,1.6600001,0.95000005,0.018000001,0.520014,0,nan,0.0,0.0,0.0,0,3,1,1,1,32,0,0,0
1078458784,0,37.4559442,126.9541519,170.439,188.89600000000002,1725536406600353,11141125,0.36100003,0.17126007,0.97800004,1.348,0.51,0.81,68,8,2.0770001,1.9130001,0.808,0.037,0.3994282,0,nan,0.0,0.0,0.0,0,3,1,1,1,32,0,0,0
1078559782,0,37.4559462,126.95415279999999,170.42600000000002,188.883,1725536406700353,11141125,0.36800003,0.14754595,0.97800004,1.3470001,0.51,0.81,68,8,2.4090002,2.273,0.79800004,0.112,0.3373976,0,nan,0.0,0.0,0.0,0,3,1,1,1,32,0,0,0
1078658801,0,37.4559484,126.9541536,170.42600000000002,188.883,1725536406800353,11141125,0.36800003,0.12883182,0.97800004,1.3470001,0.51,0.81,68,8,2.667,2.5960002,0.61,0.075,0.23082606,0,nan,0.0,0.0,0.0,0,3,1,1,1,32,0,0,0
1078757785,0,37.4559509,126.95415419999999,170.428,188.885,1725536406900353,11141125,0.37300003,0.11784044,0.97900003,1.3470001,0.51,0.81,68,8,2.9380002,2.868,0.63500005,0.006,0.21795201,0,nan,0.0,0.0,0.0,0,3,1,1,1,32,0,0,0
1078864922,0,37.455953699999995,126.9541548,170.41,188.867,1725536407000353,11141125,0.379,0.10824479,0.97900003,1.3460001,0.51,0.81,68,11,3.18,3.153,0.418,0.012,0.13166817,0,nan,0.0,0.0,0.0,0,3,1,1,1,32,0,0,0
1078960785,0,37.4559567,126.95415519999999,170.391,188.847,1725536407100353,11141125,0.38000003,0.09975638,0.97900003,1.3460001,0.51,0.81,68,11,3.463,3.4390001,0.40800002,0.096,0.11801166,0,nan,0.0,0.0,0.0,0,3,1,1,1,32,0,0,0
1079061809,0,37.45596,126.95415559999999,170.388,188.845,1725536407200353,11141125,0.38200003,0.08905909,0.97900003,1.3460001,0.51,0.81,68,11,3.8580003,3.8380003,0.39100003,0.106000006,0.10154779,0,nan,0.0,0.0,0.0,0,3,1,1,1,32,0,0,0
1079161783,0,37.4559636,126.954156,170.381,188.838,1725536407300353,11141125,0.37800002,0.082661755,0.97900003,1.3460001,0.51,0.81,68,11,4.0680003,4.052,0.354,0.096,0.08708373,0,nan,0.0,0.0,0.0,0,3,1,1,1,32,0,0,0
1079262078,0,37.4559674,126.95415639999999,170.375,188.832,1725536407400353,11141125,0.374,0.07693551,0.97900003,1.345,0.51,0.81,68,11,4.328,4.3050003,0.45100003,0.051000003,0.104310475,0,nan,0.0,0.0,0.0,0,3,1,1,1,32,0,0,0
1079357783,0,37.4559713,126.9541569,170.366,188.823,1725536407500353,11141125,0.37300003,0.07378257,0.97900003,1.345,0.51,0.81,68,11,4.4900002,4.465,0.47200003,0.086,0.10531334,0,nan,0.0,0.0,0.0,0,3,1,1,1,32,0,0,0
1079460049,0,37.4559754,126.9541574,170.354,188.811,1725536407600353,11141125,0.372,0.07019591,0.97900003,1.345,0.51,0.81,68,11,4.677,4.656,0.44300002,0.062000003,0.094775915,0,nan,0.0,0.0,0.0,0,3,1,1,1,32,0,0,0
1079559785,0,37.4559797,126.9541579,170.347,188.803,1725536407700353,11141125,0.37600002,0.06781092,0.97900003,1.345,0.51,0.81,68,11,4.833,4.8120003,0.45000002,0.142,0.09333375,0,nan,0.0,0.0,0.0,0,3,1,1,1,32,0,0,0
1079653813,0,37.455984099999995,126.9541584,170.344,188.8,1725536407800353,11141125,0.372,0.06616578,0.97900003,1.3440001,0.51,0.81,68,11,4.9230003,4.9020004,0.45600003,0.037,0.09265202,0,nan,0.0,0.0,0.0,0,3,1,1,1,32,0,0,0
1079758862,0,37.4559885,126.95415879999999,170.341,188.798,1725536407900353,11141125,0.37100002,0.06563625,0.97900003,1.3440001,0.51,0.81,68,11,4.991,4.9750004,0.39900002,0.051000003,0.08001828,0,nan,0.0,0.0,0.0,0,3,1,1,1,32,0,0,0
1079868782,0,37.455993,126.9541593,170.341,188.798,1725536408000353,11141125,0.36900002,0.065727524,0.97900003,1.343,0.51,0.81,68,14,5.0230002,5.004,0.439,0.024,0.087609425,0,nan,0.0,0.0,0.0,0,3,1,1,1,32,0,0,0
1079972074,0,37.455997499999995,126.95415969999999,170.349,188.806,1725536408100353,11141125,0.36800003,0.0653069,0.97900003,1.343,0.51,0.81,68,14,5.0420003,5.0280004,0.37,0.021000002,0.07346091,0,nan,0.0,0.0,0.0,0,3,1,1,1,32,0,0,0
1080065783,0,37.456002,126.9541601,170.356,188.812,1725536408200353,11141125,0.36800003,0.06520323,0.97900003,1.342,0.51,0.81,68,14,4.9960003,4.978,0.43,0.013,0.086129725,0,nan,0.0,0.0,0.0,0,3,1,1,1,32,0,0,0
1080165794,0,37.4560065,126.9541606,170.362,188.818,1725536408300353,11141125,0.367,0.06654434,0.97900003,1.342,0.51,0.81,68,14,4.914,4.888,0.499,0.054,0.101637155,0,nan,0.0,0.0,0.0,0,3,1,1,1,32,0,0,0
1080262783,0,37.456010899999995,126.9541611,170.372,188.829,1725536408400353,11141125,0.367,0.06718418,0.97900003,1.3410001,0.51,0.81,68,14,4.913,4.887,0.503,0.016,0.10261645,0,nan,0.0,0.0,0.0,0,3,1,1,1,32,0,0,0
1080363004,0,37.4560153,126.9541617,170.359,188.815,1725536408500353,11141125,0.36800003,0.06773867,0.97900003,1.3410001,0.51,0.81,68,14,4.971,4.939,0.559,0.019000001,0.112693116,0,nan,0.0,0.0,0.0,0,3,1,1,1,32,0,0,0
1080463787,0,37.4560197,126.9541623,170.373,188.83,1725536408600353,11141125,0.36900002,0.06702151,0.97900003,1.34,0.51,0.81,68,14,4.932,4.8900003,0.63900006,0.013,0.12989315,0,nan,0.0,0.0,0.0,0,3,1,1,1,32,0,0,0
1080563840,0,37.4560241,126.954163,170.382,188.838,1725536408700353,11141125,0.37,0.0675973,0.97900003,1.34,0.51,0.81,68,14,4.9370003,4.894,0.64900005,0.017,0.13175891,0,nan,0.0,0.0,0.0,0,3,1,1,1,32,0,0,0
1080663159,0,37.456028499999995,126.9541637,170.389,188.845,1725536408800352,11141125,0.36400002,0.06849318,0.97900003,1.3390001,0.51,0.81,68,14,4.919,4.88,0.61300004,0.057000004,0.124862075,0,nan,0.0,0.0,0.0,0,3,1,1,1,32,0,0,0
1080760785,0,37.456033,126.9541644,170.387,188.844,1725536408900352,11141125,0.36,0.06713234,0.97900003,1.3390001,0.51,0.81,68,14,5.006,4.965,0.634,0.022000002,0.12692435,0,nan,0.0,0.0,0.0,0,3,1,1,1,32,0,0,0
1080871782,0,37.4560374,126.95416499999999,170.388,188.844,1725536409000352,11141125,0.354,0.06753988,0.97900003,1.3390001,0.51,0.81,68,7,4.9740005,4.9350004,0.624,0.0,0.12585813,0,nan,0.0,0.0,0.0,0,3,1,1,1,32,0,0,0
1080962783,0,37.4560418,126.9541656,170.39600000000002,188.853,1725536409100352,11141125,0.35300002,0.06744004,0.97900003,1.3390001,0.51,0.81,68,7,4.9280005,4.899,0.53900003,-0.019000001,0.109560594,0,nan,0.0,0.0,0.0,0,3,1,1,1,32,0,0,0
1081062783,0,37.456046199999996,126.95416619999999,170.39000000000001,188.847,1725536409200352,11141125,0.35500002,0.067192554,0.97900003,1.3390001,0.51,0.81,68,7,4.977,4.947,0.545,-0.012,0.10975223,0,nan,0.0,0.0,0.0,0,3,1,1,1,32,0,0,0
1081161836,0,37.4560507,126.9541668,170.39000000000001,188.847,1725536409300352,11141125,0.358,0.066744186,0.97800004,1.338,0.51,0.81,68,7,4.9870005,4.9630003,0.48400003,0.060000002,0.097142056,0,nan,0.0,0.0,0.0,0,3,1,1,1,32,0,0,0
1081263785,0,37.4560551,126.9541673,170.39600000000002,188.853,1725536409400352,11141125,0.36200002,0.06757618,0.97800004,1.338,0.51,0.81,68,7,4.998,4.971,0.521,0.045,0.10436667,0,nan,0.0,0.0,0.0,0,3,1,1,1,32,0,0,0
1081360783,0,37.456059499999995,126.9541678,170.39600000000002,188.853,1725536409500352,11141125,0.36,0.06895516,0.97800004,1.3390001,0.51,0.81,68,7,4.951,4.9300003,0.46,0.022000002,0.09308887,0,nan,0.0,0.0,0.0,0,3,1,1,1,32,0,0,0
1081458785,0,37.456064,126.95416829999999,170.40200000000002,188.859,1725536409600352,11141125,0.35900003,0.06929515,0.97800004,1.3390001,0.51,0.81,68,7,4.9700003,4.9500003,0.448,0.018000001,0.09034121,0,nan,0.0,0.0,0.0,0,3,1,1,1,32,0,0,0
1081558785,0,37.4560684,126.9541687,170.403,188.86,1725536409700352,11141125,0.35700002,0.06929969,0.97800004,1.3390001,0.51,0.81,68,7,4.945,4.926,0.43600002,0.010000001,0.08830493,0,nan,0.0,0.0,0.0,0,3,1,1,1,32,0,0,0
1081658843,0,37.4560728,126.9541692,170.406,188.863,1725536409800352,11141125,0.365,0.070066765,0.97800004,1.3390001,0.51,0.81,68,7,4.9370003,4.913,0.47900003,-0.004,0.09715044,0,nan,0.0,0.0,0.0,0,3,1,1,1,32,0,0,0
1081759784,0,37.456077199999996,126.9541697,170.416,188.873,1725536409900352,11141125,0.36900002,0.06930126,0.97800004,1.3390001,0.51,0.81,68,7,4.977,4.9610004,0.40300003,-0.043,0.08104227,0,nan,0.0,0.0,0.0,0,3,1,1,1,32,0,0,0
1081868810,0,37.4560817,126.9541701,170.423,188.879,1725536410000352,11141125,0.36800003,0.07004006,0.97800004,1.3390001,0.51,0.81,68,20,4.946,4.931,0.39000002,-0.012,0.07891314,0,nan,0.0,0.0,0.0,0,3,1,1,1,32,0,0,0
1081961782,0,37.4560862,126.9541706,170.439,188.89600000000002,1725536410100352,11141125,0.37100002,0.07065861,0.97800004,1.3390001,0.51,0.81,68,20,4.9610004,4.94,0.46100003,0.013,0.09297648,0,nan,0.0,0.0,0.0,0,3,1,1,1,32,0,0,0
1082060784,0,37.456090599999996,126.95417099999999,170.434,188.891,1725536410200352,11141125,0.36800003,0.06952903,0.97800004,1.34,0.51,0.81,68,20,4.945,4.927,0.416,0.057000004,0.0842048,0,nan,0.0,0.0,0.0,0,3,1,1,1,32,0,0,0
1082160782,0,37.4560951,126.9541715,170.442,188.899,1725536410300352,11141125,0.36600003,0.067706384,0.97800004,1.34,0.51,0.81,68,20,4.9880004,4.967,0.44900003,0.056,0.090186395,0,nan,0.0,0.0,0.0,0,3,1,1,1,32,0,0,0
1082261782,0,37.4560995,126.95417189999999,170.457,188.913,1725536410400352,11141125,0.36200002,0.06872635,0.97800004,1.34,0.51,0.81,68,20,4.967,4.9500003,0.41300002,-0.029000001,0.083327256,0,nan,0.0,0.0,0.0,0,3,1,1,1,32,0,0,0
1082360783,0,37.456103999999996,126.9541723,170.445,188.90200000000002,1725536410500352,11141125,0.36,0.06631378,0.97800004,1.34,0.51,0.81,68,20,5.0400004,5.031,0.30200002,-0.072000004,0.059879627,0,nan,0.0,0.0,0.0,0,3,1,1,1,32,0,0,0
1082459959,0,37.4561085,126.95417259999999,170.448,188.905,1725536410600352,11141125,0.365,0.06690091,0.97800004,1.34,0.51,0.81,68,20,4.991,4.98,0.317,-0.021000002,0.063606426,0,nan,0.0,0.0,0.0,0,3,1,1,1,32,0,0,0
1082562898,0,37.456112999999995,126.95417289999999,170.45000000000002,188.906,1725536410700352,11141125,0.365,0.06675692,0.97800004,1.34,0.51,0.81,68,20,4.9940004,4.985,0.293,-0.066,0.058750574,0,nan,0.0,0.0,0.0,0,3,1,1,1,32,0,0,0
1082662782,0,37.4561175,126.9541733,170.446,188.903,1725536410800352,11141125,0.36800003,0.06803381,0.97800004,1.34,0.51,0.81,68,20,5.0150003,5.004,0.324,-0.053000003,0.0645681,0,nan,0.0,0.0,0.0,0,3,1,1,1,32,0,0,0
1082764811,0,37.456122,126.95417359999999,170.448,188.904,1725536410900352,11141125,0.365,0.0677741,0.97800004,1.3390001,0.51,0.81,68,20,5.004,4.9950004,0.29200003,-0.025,0.058402553,0,nan,0.0,0.0,0.0,0,3,1,1,1,32,0,0,0
1082870818,0,37.456126499999996,126.9541739,170.447,188.904,1725536411000352,11141125,0.363,0.067843914,0.97800004,1.3390001,0.51,0.81,68,14,4.9960003,4.985,0.32500002,0.055000003,0.06507076,0,nan,0.0,0.0,0.0,0,3,1,1,1,32,0,0,0
1082969367,0,37.4561309,126.9541742,170.447,188.904,1725536411100352,11141125,0.365,0.06814219,0.97800004,1.3390001,0.51,0.81,68,14,4.993,4.9810004,0.347,0.008,0.06945241,0,nan,0.0,0.0,0.0,0,3,1,1,1,32,0,0,0
1083064783,0,37.4561354,126.95417459999999,170.449,188.906,1725536411200352,11141125,0.36400002,0.06833994,0.97800004,1.3390001,0.51,0.81,68,14,4.9630003,4.9490004,0.381,-0.022000002,0.07685138,0,nan,0.0,0.0,0.0,0,3,1,1,1,32,0,0,0
1083164783,0,37.456139799999995,126.9541751,170.455,188.912,1725536411300352,11141125,0.36400002,0.06865863,0.97800004,1.3390001,0.51,0.81,68,14,4.9610004,4.939,0.46500003,0.009000001,0.0939289,0,nan,0.0,0.0,0.0,0,3,1,1,1,32,0,0,0
1083263789,0,37.4561443,126.9541756,170.445,188.90200000000002,1725536411400351,11141125,0.36100003,0.068808384,0.97800004,1.3390001,0.51,0.81,68,14,4.934,4.9150004,0.42600003,-0.025,0.08636482,0,nan,0.0,0.0,0.0,0,3,1,1,1,32,0,0,0
1083361783,0,37.4561487,126.9541761,170.449,188.906,1725536411500351,11141125,0.36,0.06840783,0.97800004,1.3390001,0.51,0.81,68,14,4.9820004,4.959,0.47100002,0.001,0.094700165,0,nan,0.0,0.0,0.0,0,3,1,1,1,32,0,0,0
1083463783,0,37.456153199999996,126.95417649999999,170.447,188.904,1725536411600351,11141125,0.36600003,0.06945032,0.97800004,1.3390001,0.51,0.81,68,14,4.914,4.899,0.39000002,-0.018000001,0.079475135,0,nan,0.0,0.0,0.0,0,3,1,1,1,32,0,0,0
1083563801,0,37.456157499999996,126.95417699999999,170.437,188.893,1725536411700351,11141125,0.363,0.071262665,0.97800004,1.3390001,0.51,0.81,68,14,4.8690004,4.848,0.45700002,0.002,0.09402821,0,nan,0.0,0.0,0.0,0,3,1,1,1,32,0,0,0
1083664968,0,37.4561619,126.9541775,170.449,188.905,1725536411800351,11141125,0.36,0.07234023,0.97800004,1.34,0.51,0.81,68,14,4.8030005,4.776,0.507,-0.0050000004,0.10579697,0,nan,0.0,0.0,0.0,0,3,1,1,1,32,0,0,0
1083765433,0,37.456165999999996,126.9541781,170.44400000000002,188.9,1725536411900351,11141125,0.35500002,0.0753504,0.97800004,1.34,0.51,0.81,68,14,4.61,4.584,0.49300003,0.017,0.10724961,0,nan,0.0,0.0,0.0,0,3,1,1,1,32,0,0,0
1083871782,0,37.4561701,126.9541787,170.447,188.904,1725536412000351,11141125,0.356,0.07885275,0.97800004,1.34,0.51,0.81,68,11,4.4440002,4.4100003,0.545,0.004,0.12284221,0,nan,0.0,0.0,0.0,0,3,1,1,1,32,0,0,0
1083965783,0,37.456173899999996,126.9541792,170.457,188.913,1725536412100351,11141125,0.363,0.082404844,0.97800004,1.34,0.51,0.81,68,11,4.2530003,4.23,0.44200003,0.037,0.104140654,0,nan,0.0,0.0,0.0,0,3,1,1,1,32,0,0,0
1084060783,0,37.4561777,126.95417979999999,170.44400000000002,188.901,1725536412200351,11141125,0.36100003,0.08529424,0.97800004,1.34,0.51,0.81,68,11,4.151,4.111,0.574,0.039,0.1388118,0,nan,0.0,0.0,0.0,0,3,1,1,1,32,0,0,0
1084158783,0,37.4561813,126.9541804,170.454,188.91,1725536412300351,11141125,0.363,0.089173056,0.97800004,1.3410001,0.51,0.81,68,11,3.989,3.956,0.51600003,0.004,0.12973782,0,nan,0.0,0.0,0.0,0,3,1,1,1,32,0,0,0
1084257784,0,37.456184799999996,126.95418099999999,170.451,188.90800000000002,1725536412400351,11141125,0.36,0.093686305,0.97800004,1.3410001,0.51,0.81,68,11,3.808,3.7660003,0.568,0.002,0.14966111,0,nan,0.0,0.0,0.0,0,3,1,1,1,32,0,0,0
1084358892,0,37.456188,126.9541816,170.455,188.912,1725536412500351,11141125,0.36200002,0.10131775,0.97800004,1.342,0.51,0.81,68,11,3.6050003,3.568,0.51000005,-0.079,0.14194919,0,nan,0.0,0.0,0.0,0,3,1,1,1,32,0,0,0
1084459934,0,37.4561912,126.9541821,170.46200000000002,188.919,1725536412600351,11141125,0.36800003,0.10237299,0.97800004,1.342,0.51,0.81,68,11,3.5570002,3.5290003,0.446,-0.028,0.12583126,0,nan,0.0,0.0,0.0,0,3,1,1,1,32,0,0,0
1084560783,0,37.4561943,126.95418249999999,170.459,188.916,1725536412700351,11141125,0.36,0.10762572,0.97800004,1.343,0.51,0.81,68,11,3.351,3.3260002,0.411,0.015000001,0.12299509,0,nan,0.0,0.0,0.0,0,3,1,1,1,32,0,0,0
1084660984,0,37.4561972,126.95418289999999,170.454,188.911,1725536412800351,11141125,0.36400002,0.11121552,0.97800004,1.3440001,0.51,0.81,68,11,3.2480001,3.229,0.347,0.041,0.10713128,0,nan,0.0,0.0,0.0,0,3,1,1,1,32,0,0,0
1084760622,0,37.4562001,126.9541833,170.442,188.899,1725536412900351,11141125,0.35900003,0.11544166,0.97800004,1.3440001,0.51,0.81,68,11,3.1280003,3.1130002,0.30600002,0.011000001,0.09793374,0,nan,0.0,0.0,0.0,0,3,1,1,1,32,0,0,0
1084870912,0,37.4562028,126.95418369999999,170.431,188.888,1725536413000351,11141125,0.36200002,0.12263224,0.97800004,1.345,0.51,0.81,68,19,2.9390001,2.9210002,0.33,0.015000001,0.11261126,0,nan,0.0,0.0,0.0,0,3,1,1,1,32,0,0,0
1084965782,0,37.4562053,126.954184,170.419,188.876,1725536413100351,11141125,0.365,0.13021605,0.97800004,1.3460001,0.51,0.81,68,19,2.8140001,2.801,0.268,0.051000003,0.09533861,0,nan,0.0,0.0,0.0,0,3,1,1,1,32,0,0,0
1085062786,0,37.4562078,126.9541843,170.419,188.876,1725536413200351,11141125,0.363,0.13950679,0.97800004,1.3470001,0.51,0.81,68,19,2.628,2.6130002,0.277,-0.057000004,0.105609,0,nan,0.0,0.0,0.0,0,3,1,1,1,32,0,0,0
1085160786,0,37.45621,126.95418459999999,170.429,188.885,1725536413300351,11141125,0.356,0.15156439,0.97800004,1.3470001,0.51,0.81,68,19,2.3930001,2.3730001,0.30900002,-0.037,0.12958248,0,nan,0.0,0.0,0.0,0,3,1,1,1,32,0,0,0
1085260785,0,37.456212099999995,126.9541849,170.434,188.891,1725536413400351,11141125,0.354,0.1586951,0.97800004,1.348,0.51,0.81,68,19,2.2570002,2.232,0.33100003,0.021000002,0.14712968,0,nan,0.0,0.0,0.0,0,3,1,1,1,32,0,0,0
1085362358,0,37.4562139,126.95418529999999,170.433,188.889,1725536413500351,11141125,0.358,0.18122397,0.97800004,1.348,0.51,0.81,68,19,2.006,1.983,0.30600002,0.016,0.15336452,0,nan,0.0,0.0,0.0,0,3,1,1,1,32,0,0,0
1085462941,0,37.4562156,126.95418559999999,170.439,188.89600000000002,1725536413600351,11141125,0.36100003,0.21072249,0.97900003,1.3490001,0.51,0.81,68,19,1.7350001,1.7170001,0.25100002,0.032,0.14524786,0,nan,0.0,0.0,0.0,0,3,1,1,1,32,0,0,0
1085565783,0,37.456216999999995,126.95418579999999,170.459,188.915,1725536413700351,11141125,0.35500002,0.22432227,0.97900003,1.35,0.51,0.81,68,19,1.6100001,1.5970001,0.208,-0.040000003,0.12962979,0,nan,0.0,0.0,0.0,0,3,1,1,1,32,0,0,0
1085659783,0,37.4562184,126.95418599999999,170.453,188.91,1725536413800351,11141125,0.35300002,0.24243566,0.97900003,1.35,0.51,0.81,68,19,1.4740001,1.4560001,0.231,-0.043,0.15733112,0,nan,0.0,0.0,0.0,0,3,1,1,1,32,0,0,0
1085761798,0,37.4562196,126.9541862,170.457,188.91400000000002,1725536413900351,11141125,0.356,0.27611598,0.97900003,1.3510001,0.51,0.81,68,19,1.3080001,1.299,0.15400001,-0.051000003,0.11806524,0,nan,0.0,0.0,0.0,0,3,1,1,1,32,0,0,0
1085868787,0,37.456220699999996,126.9541864,170.45600000000002,188.913,1725536414000351,11141125,0.35500002,0.31025773,0.97900003,1.3520001,0.51,0.81,68,9,1.1580001,1.146,0.171,-0.045,0.14837392,0,nan,0.0,0.0,0.0,0,3,1,1,1,32,0,0,0
1085967446,0,37.4562217,126.95418649999999,170.466,188.923,1725536414100350,11141125,0.36200002,0.33359227,0.97900003,1.3520001,0.51,0.81,68,9,1.0680001,1.064,0.09200001,0.008,0.086061485,0,nan,0.0,0.0,0.0,0,3,1,1,1,32,0,0,0
1086058784,0,37.4562226,126.9541866,170.477,188.934,1725536414200350,11141125,0.35700002,0.3922151,0.97900003,1.353,0.51,0.81,68,9,0.90700006,0.90400004,0.074,-0.035,0.081260435,0,nan,0.0,0.0,0.0,0,3,1,1,1,32,0,0,0
1086160279,0,37.4562233,126.9541867,170.457,188.913,1725536414300350,11141125,0.36100003,0.4739651,0.97900003,1.3540001,0.51,0.81,68,9,0.76100004,0.76000005,0.041,0.018000001,0.05430086,0,nan,0.0,0.0,0.0,0,3,1,1,1,32,0,0,0
1086259782,0,37.4562239,126.9541867,170.463,188.92000000000002,1725536414400350,11141125,0.358,0.5751092,0.97900003,1.355,0.51,0.81,68,9,0.634,0.63000005,0.069000006,-0.010000001,0.10933842,0,nan,0.0,0.0,0.0,0,3,1,1,1,32,0,0,0
1086360787,0,37.4562245,126.9541867,170.455,188.911,1725536414500350,11141125,0.37100002,0.5882138,0.97900003,1.3560001,0.51,0.81,68,9,0.60300004,0.60300004,-0.024,0.029000001,6.244167,0,nan,0.0,0.0,0.0,0,3,1,1,1,32,0,0,0
1086462785,0,37.456224999999996,126.9541866,170.453,188.909,1725536414600350,11141125,0.379,0.60546273,0.97900003,1.3570001,0.51,0.81,68,9,0.574,0.565,-0.102000006,0.079,6.1044016,0,nan,0.0,0.0,0.0,0,3,1,1,1,32,0,0,0
1086561888,0,37.456225499999995,126.95418649999999,170.461,188.917,1725536414700350,11141125,0.372,0.61873716,0.97900003,1.358,0.51,0.81,68,9,0.563,0.558,-0.078,0.003,6.1443105,0,nan,0.0,0.0,0.0,0,3,1,1,1,32,0,0,0
1086660785,0,37.456226,126.9541864,170.482,188.93800000000002,1725536414800350,11141125,0.367,0.6225769,0.97900003,1.358,0.51,0.81,68,9,0.555,0.55300003,-0.042000003,-0.085,6.206674,0,nan,0.0,0.0,0.0,0,3,1,1,1,32,0,0,0
1086760784,0,37.4562266,126.95418629999999,170.483,188.939,1725536414900350,11141125,0.38300002,0.58623075,0.97900003,1.3590001,0.51,0.81,68,9,0.597,0.596,-0.024,-0.08400001,6.2423506,0,nan,0.0,0.0,0.0,0,3,1,1,1,32,0,0,0
1086868353,0,37.456227,126.95418629999999,170.498,188.955,1725536415000350,11141125,0.37600002,0.68161786,0.97900003,1.36,0.51,0.81,68,12,0.51000005,0.51000005,-0.003,-0.026,6.2778416,0,nan,0.0,0.0,0.0,0,3,1,1,1,32,0,0,0
1086958806,0,37.4562275,126.95418629999999,170.505,188.96200000000002,1725536415100350,11141125,0.37,0.7591992,0.98,1.36,0.51,0.81,68,12,0.46600002,0.46500003,0.027,-0.024,0.058854595,0,nan,0.0,0.0,0.0,0,3,1,1,1,32,0,0,0
1087058783,0,37.4562279,126.95418629999999,170.504,188.961,1725536415200350,11141125,0.36400002,0.8596099,0.98,1.3610001,0.51,0.81,68,12,0.41300002,0.407,0.068,0.007,0.0045505967,0,nan,0.0,0.0,0.0,0,3,1,1,1,32,0,0,0
1087160087,0,37.4562283,126.9541864,170.50900000000001,188.965,1725536415300350,11141125,0.36600003,0.6465108,0.98,1.3620001,0.51,0.81,68,12,0.549,0.54200006,0.08400001,-0.023000002,0.15375215,0,nan,0.0,0.0,0.0,0,3,1,1,1,32,0,0,0
1087261782,0,37.4562288,126.9541864,170.514,188.97,1725536415400350,11141125,0.37500003,0.6403847,0.98,1.363,0.51,0.81,68,12,0.55200005,0.55200005,-0.001,-0.002,6.280581,0,nan,0.0,0.0,0.0,0,3,1,1,1,32,0,0,0
1087361789,0,37.4562294,126.9541864,170.514,188.971,1725536415500350,11141125,0.36900002,0.6314641,0.98,1.3640001,0.51,0.81,68,12,0.56700003,0.56100005,0.083000004,-0.029000001,0.14720875,0,nan,0.0,0.0,0.0,0,3,1,1,1,32,0,0,0
1087459798,0,37.4562299,126.95418649999999,170.512,188.96800000000002,1725536415600350,11141125,0.36900002,0.6301621,0.98,1.365,0.51,0.81,68,12,0.564,0.55700004,0.091000006,-0.011000001,0.16163458,0,nan,0.0,0.0,0.0,0,3,1,1,1,32,0,0,0
1087561783,0,37.456230399999995,126.9541866,170.499,188.955,1725536415700350,11141125,0.37500003,0.6161286,0.98,1.366,0.51,0.81,68,12,0.587,0.57600003,0.11400001,0.064,0.19516201,0,nan,0.0,0.0,0.0,0,3,1,1,1,32,0,0,0
1087661820,0,37.4562309,126.9541867,170.484,188.94,1725536415800350,11141125,0.379,0.5946586,0.98100007,1.366,0.51,0.81,68,12,0.606,0.59800005,0.094000004,0.043,0.15546554,0,nan,0.0,0.0,0.0,0,3,1,1,1,32,0,0,0
1087759783,0,37.4562315,126.9541867,170.483,188.939,1725536415900350,11141125,0.379,0.5907901,0.98100007,1.3670001,0.51,0.81,68,12,0.59400004,0.59300005,0.022000002,0.034,0.03643113,0,nan,0.0,0.0,0.0,0,3,1,1,1,32,0,0,0
1087866795,0,37.456232,126.9541867,170.495,188.951,1725536416000350,11141125,0.39800003,0.5799029,0.98100007,1.368,0.51,0.81,69,10,0.60700005,0.60700005,0.024,0.024,0.039721597,0,nan,0.0,0.0,0.0,0,3,1,1,1,32,0,0,0
1087962870,0,37.4562326,126.95418679999999,170.486,188.943,1725536416100350,11141125,0.39000002,0.5616534,0.98200005,1.368,0.51,0.81,69,10,0.633,0.633,0.023000002,-0.034,0.036779672,0,nan,0.0,0.0,0.0,0,3,1,1,1,32,0,0,0
1088060784,0,37.4562332,126.9541867,170.49,188.946,1725536416200350,11141125,0.395,0.57445854,0.98200005,1.3690001,0.51,0.81,69,10,0.632,0.629,-0.063,-0.007,6.183013,0,nan,0.0,0.0,0.0,0,3,1,1,1,32,0,0,0
1088159783,0,37.4562337,126.9541866,170.497,188.954,1725536416300350,11141125,0.393,0.63572043,0.98300004,1.3700001,0.51,0.81,69,10,0.569,0.56200004,-0.085,0.003,6.1326675,0,nan,0.0,0.0,0.0,0,3,1,1,1,32,0,0,0
1088259810,0,37.4562343,126.95418649999999,170.50300000000001,188.96,1725536416400350,11141125,0.39200002,0.6134249,0.98300004,1.371,0.51,0.81,69,10,0.588,0.588,-0.015000001,0.013,6.258386,0,nan,0.0,0.0,0.0,0,3,1,1,1,32,0,0,0
1088359783,0,37.4562348,126.9541864,170.511,188.96800000000002,1725536416500350,11141125,0.388,0.62770015,0.984,1.3720001,0.51,0.81,69,10,0.56700003,0.56700003,-0.016,0.038000003,6.255313,0,nan,0.0,0.0,0.0,0,3,1,1,1,32,0,0,0
1088459798,0,37.4562354,126.9541864,170.494,188.95000000000002,1725536416600350,11141125,0.39400002,0.53851664,0.984,1.373,0.51,0.81,69,10,0.67600006,0.67600006,0.010000001,0.040000003,0.015020303,0,nan,0.0,0.0,0.0,0,3,1,1,1,32,0,0,0
1088560816,0,37.456235899999996,126.95418649999999,170.49,188.947,1725536416700349,11141125,0.38700002,0.68259716,0.9850001,1.373,0.51,0.81,69,10,0.531,0.514,0.13100001,-0.009000001,0.24854569,0,nan,0.0,0.0,0.0,0,3,1,1,1,32,0,0,0
1088659521,0,37.4562364,126.9541867,170.495,188.952,1725536416800349,11141125,0.386,0.7203218,0.9850001,1.3740001,0.51,0.81,69,10,0.504,0.485,0.13800001,-0.048,0.27645928,0,nan,0.0,0.0,0.0,0,3,1,1,1,32,0,0,0
1088758248,0,37.4562369,126.95418679999999,170.492,188.948,1725536416900349,11141125,0.37600002,0.6635019,0.9850001,1.3750001,0.51,0.81,69,10,0.54200006,0.51600003,0.165,0.0050000004,0.30872065,0,nan,0.0,0.0,0.0,0,3,1,1,1,32,0,0,0
1088867310,0,37.4562373,126.95418699999999,170.491,188.947,1725536417000349,11141125,0.37,0.8105635,0.98600006,1.376,0.51,0.81,68,14,0.455,0.407,0.20400001,-0.010000001,0.24888255,0,nan,0.0,0.0,0.0,0,3,1,1,1,32,0,0,0
1088962786,0,37.456237699999996,126.95418719999999,170.497,188.954,1725536417100349,11141125,0.37100002,0.7649598,0.98600006,1.376,0.51,0.81,68,14,0.47400004,0.42800003,0.20500001,0.001,0.44605064,0,nan,0.0,0.0,0.0,0,3,1,1,1,32,0,0,0
1089061782,0,37.456238,126.9541874,170.516,188.972,1725536417200349,11141125,0.358,0.9251754,0.98600006,1.376,0.51,0.81,68,14,0.39800003,0.354,0.18300001,-0.056,0.33353573,0,nan,0.0,0.0,0.0,0,3,1,1,1,32,0,0,0
1089160784,0,37.4562384,126.95418749999999,170.52,188.977,1725536417300349,11141125,0.351,1.0117584,0.98600006,1.376,0.51,0.81,68,14,0.36100003,0.314,0.178,-0.066,0.33353573,0,nan,0.0,0.0,0.0,0,3,1,1,1,32,0,0,0
1089258784,0,37.4562387,126.9541878,170.524,188.98,1725536417400349,11141125,0.347,0.90351886,0.98600006,1.376,0.51,0.81,68,14,0.40500003,0.323,0.245,-0.030000001,0.33353573,0,nan,0.0,0.0,0.0,0,3,1,1,1,32,0,0,0
1089360784,0,37.456238899999995,126.95418799999999,170.537,188.994,1725536417500349,11141125,0.354,1.155029,0.98600006,1.376,0.51,0.81,68,14,0.321,0.266,0.18,-0.036000002,0.33353573,0,nan,0.0,0.0,0.0,0,3,1,1,1,32,0,0,0
1089461782,0,37.4562392,126.95418819999999,170.547,189.004,1725536417600349,11141125,0.335,1.1095766,0.98600006,1.3750001,0.51,0.81,68,14,0.34300002,0.24000001,0.245,-0.05,0.33353573,0,nan,0.0,0.0,0.0,0,3,1,1,1,32,0,0,0
1089562029,0,37.4562394,126.95418839999999,170.546,189.00300000000001,1725536417700349,11141125,0.34500003,1.2396605,0.98600006,1.3750001,0.51,0.81,68,14,0.293,0.25500003,0.14500001,-0.014,0.33353573,0,nan,0.0,0.0,0.0,0,3,1,1,1,32,0,0,0
1089656783,0,37.4562397,126.9541885,170.555,189.011,1725536417800349,11141125,0.34,1.4086026,0.98600006,1.3740001,0.51,0.81,68,14,0.257,0.231,0.112,-0.042000003,0.33353573,0,nan,0.0,0.0,0.0,0,3,1,1,1,32,0,0,0
